Cruise,Type,Date_Time_[UTC],Longitude_[decimal_degrees_east],Latitude_[decimal_degrees_north],Bottom_Depth_[m],Speed_[knots],Course_[degrees_true],Heading_[degree],Roll_[degree],Pitch_[degree],Heave,Atmos_Pressure_[hPa],Air_Temperature_[C],Relative_Humidity_[%],Wind_Dir_[degrees_true],Wind_Speed_[knots],Longwave_Downwelling_[W/m2],Shortwave_Downwelling_[W/m2],PAR_[uE/m2/s]
SKQ201915S,TSG,2019-06-29T18:13:00Z,-149.3576,60.0247,293.27,0.0,209.82,351.55,0.39,0.55,0.0,1020.42,17.9,74.4,165.9,2.3,351.25,364.95,1103.6
SKQ201915S,TSG,2019-06-29T18:14:00Z,-149.3576,60.0247,293.28,0.0,182.24,351.56,0.4,0.55,-0.0,1020.42,17.8,75.5,177.6,2.0,351.36,368.72,1112.66
SKQ201915S,TSG,2019-06-29T18:15:00Z,-149.3576,60.0247,293.41,0.0,199.96,351.56,0.4,0.55,-0.0,1020.4,17.6,75.8,161.2,2.7,352.81,371.81,1119.42
SKQ201915S,TSG,2019-06-29T18:16:00Z,-149.3576,60.0247,293.36,0.0,175.13,351.47,0.42,0.55,0.0,1020.4,17.7,74.0,169.1,1.7,351.84,372.71,1121.13
SKQ201915S,TSG,2019-06-29T18:17:00Z,-149.3576,60.0247,293.29,0.0,90.0,351.49,0.43,0.55,-0.0,1020.4,17.7,73.2,169.9,1.8,351.56,373.19,1121.66
SKQ201915S,TSG,2019-06-29T18:18:00Z,-149.3576,60.0247,293.28,0.0,90.0,351.52,0.43,0.55,-0.0,1020.4,17.8,74.1,171.1,2.2,352.06,373.18,1121.45
SKQ201915S,TSG,2019-06-29T18:19:00Z,-149.3576,60.0247,293.3,0.0,90.0,351.54,0.44,0.55,0.01,1020.4,17.8,72.0,167.2,2.2,352.05,376.42,1129.76
SKQ201915S,TSG,2019-06-29T18:20:00Z,-149.3576,60.0247,293.3,0.0,43.6,351.66,0.46,0.55,-0.0,1020.4,18.0,71.2,159.3,1.5,352.68,378.96,1135.43
SKQ201915S,TSG,2019-06-29T18:21:00Z,-149.3576,60.0247,293.33,0.0,287.51,351.65,0.41,0.54,-0.0,1020.42,18.1,69.8,174.0,2.4,352.48,380.29,1139.76
SKQ201915S,TSG,2019-06-29T18:22:00Z,-149.3576,60.0247,293.33,0.0,147.49,351.56,0.43,0.55,-0.0,1020.5,18.2,70.2,174.5,2.0,352.37,383.59,1148.29
SKQ201915S,TSG,2019-06-29T18:23:00Z,-149.3576,60.0247,293.34,0.0,24.92,351.53,0.49,0.55,-0.0,1020.5,18.2,71.5,166.3,2.0,351.66,387.12,1155.52
SKQ201915S,TSG,2019-06-29T18:24:00Z,-149.3576,60.0247,293.35,0.0,185.71,351.5,0.43,0.55,0.0,1020.5,18.0,72.9,164.9,2.0,351.88,388.05,1159.89
SKQ201915S,TSG,2019-06-29T18:25:00Z,-149.3576,60.0247,293.35,0.0,191.78,351.63,0.42,0.55,0.0,1020.5,18.0,73.4,166.5,1.8,351.83,390.96,1166.76
SKQ201915S,TSG,2019-06-29T18:26:00Z,-149.3576,60.0247,293.36,0.0,292.18,351.54,0.43,0.55,-0.0,1020.5,17.9,74.7,150.8,1.4,351.52,391.4,1168.58
SKQ201915S,TSG,2019-06-29T18:27:00Z,-149.3576,60.0247,293.35,0.0,94.75,351.63,0.43,0.55,0.0,1020.5,17.8,74.7,134.1,1.2,350.95,393.12,1172.54
SKQ201915S,TSG,2019-06-29T18:28:00Z,-149.3576,60.0247,293.33,0.0,197.87,351.67,0.42,0.55,-0.0,1020.5,17.8,74.1,173.2,1.4,350.5,394.2,1175.0
SKQ201915S,TSG,2019-06-29T18:29:00Z,-149.3576,60.0247,293.38,0.0,200.55,351.64,0.43,0.55,0.0,1020.5,17.7,74.2,151.8,1.2,350.87,395.03,1176.99
SKQ201915S,TSG,2019-06-29T18:30:00Z,-149.3576,60.0247,293.45,0.0,90.0,351.53,0.45,0.55,0.0,1020.5,17.6,73.5,169.2,2.7,350.67,397.57,1182.99
SKQ201915S,TSG,2019-06-29T18:31:00Z,-149.3576,60.0247,293.39,0.0,199.42,351.5,0.46,0.55,-0.0,1020.5,17.5,73.7,192.8,3.3,350.49,399.62,1187.16
SKQ201915S,TSG,2019-06-29T18:32:00Z,-149.3576,60.0247,293.55,0.0,224.73,351.56,0.39,0.55,0.0,1020.5,17.4,74.3,169.5,1.8,350.26,400.97,1190.21
SKQ201915S,TSG,2019-06-29T18:33:00Z,-149.3576,60.0247,293.68,0.0,98.62,351.55,0.42,0.54,0.0,1020.5,17.4,74.7,171.6,2.4,349.65,403.34,1196.7
SKQ201915S,TSG,2019-06-29T18:34:00Z,-149.3576,60.0247,293.41,0.0,168.46,351.68,0.42,0.55,0.0,1020.48,17.3,74.2,157.3,2.1,349.84,405.08,1200.47
SKQ201915S,TSG,2019-06-29T18:35:00Z,-149.3576,60.0247,293.38,0.0,90.0,351.65,0.4,0.55,0.0,1020.4,17.3,73.8,161.3,3.4,350.83,407.33,1207.77
SKQ201915S,TSG,2019-06-29T18:36:00Z,-149.3576,60.0247,293.38,0.0,165.05,351.51,0.42,0.54,-0.0,1020.4,17.2,72.3,170.9,3.2,351.5,407.39,1207.54
SKQ201915S,TSG,2019-06-29T18:37:00Z,-149.3576,60.0247,293.41,0.0,198.72,351.56,0.42,0.55,-0.0,1020.4,17.2,71.8,179.9,1.7,351.18,407.72,1209.27
SKQ201915S,TSG,2019-06-29T18:38:00Z,-149.3576,60.0247,293.48,0.0,275.0,351.41,0.4,0.55,0.0,1020.4,17.2,72.4,171.6,3.5,351.71,410.28,1216.55
SKQ201915S,TSG,2019-06-29T18:39:00Z,-149.3576,60.0247,293.49,0.0,150.12,351.5,0.39,0.54,-0.0,1020.4,17.1,71.9,169.9,3.1,351.5,411.94,1221.52
SKQ201915S,TSG,2019-06-29T18:40:00Z,-149.3576,60.0247,293.42,0.0,145.92,351.6,0.42,0.55,-0.0,1020.4,17.1,71.4,173.0,2.3,351.17,412.0,1219.55
SKQ201915S,TSG,2019-06-29T18:41:00Z,-149.3576,60.0247,293.47,0.0,18.29,351.54,0.42,0.55,-0.0,1020.4,17.1,71.7,173.3,3.4,351.29,410.19,1214.65
SKQ201915S,TSG,2019-06-29T18:42:00Z,-149.3576,60.0247,293.49,0.0,32.11,351.54,0.41,0.55,-0.0,1020.4,17.1,71.1,173.8,2.7,351.35,409.41,1212.56
SKQ201915S,TSG,2019-06-29T18:43:00Z,-149.3576,60.0247,293.44,0.0,90.0,351.55,0.44,0.54,0.0,1020.4,17.1,69.7,169.8,2.2,350.92,411.67,1218.55
SKQ201915S,TSG,2019-06-29T18:44:00Z,-149.3576,60.0247,293.45,0.0,291.96,351.49,0.46,0.55,0.0,1020.4,17.1,69.1,170.3,3.1,351.0,411.58,1218.14
SKQ201915S,TSG,2019-06-29T18:45:00Z,-149.3576,60.0247,293.5,0.0,222.63,351.59,0.42,0.54,-0.0,1020.4,17.1,68.7,167.1,2.3,351.37,405.12,1225.76
SKQ201915S,TSG,2019-06-29T18:46:00Z,-149.3576,60.0247,293.51,0.0,204.85,351.5,0.38,0.55,-0.0,1020.4,17.2,68.6,166.5,2.6,351.85,357.61,1227.1
SKQ201915S,TSG,2019-06-29T18:47:00Z,-149.3576,60.0247,293.5,0.0,90.0,351.57,0.41,0.55,0.0,1020.4,17.2,68.2,178.2,2.7,352.04,325.31,1230.98
SKQ201915S,TSG,2019-06-29T18:48:00Z,-149.3576,60.0247,293.49,0.0,127.42,351.62,0.4,0.55,0.0,1020.4,17.2,68.3,165.9,2.4,352.31,341.83,1228.77
SKQ201915S,TSG,2019-06-29T18:49:00Z,-149.3576,60.0247,293.54,0.0,126.15,351.4,0.41,0.55,0.0,1020.4,17.2,68.8,173.2,1.8,351.63,411.7,1229.93
SKQ201915S,TSG,2019-06-29T18:50:00Z,-149.3576,60.0247,293.51,0.0,90.0,351.41,0.43,0.55,-0.0,1020.4,17.2,68.8,178.6,2.3,351.15,420.1,1240.71
SKQ201915S,TSG,2019-06-29T18:51:00Z,-149.3576,60.0247,293.51,0.0,90.0,351.56,0.45,0.55,0.0,1020.4,17.3,68.1,182.5,2.1,351.26,425.39,1254.83
SKQ201915S,TSG,2019-06-29T18:52:00Z,-149.3576,60.0247,293.48,0.0,344.68,351.61,0.45,0.55,-0.0,1020.4,17.4,67.6,176.1,2.4,351.22,429.0,1264.89
SKQ201915S,TSG,2019-06-29T18:53:00Z,-149.3576,60.0247,293.52,0.0,90.0,351.39,0.47,0.55,0.0,1020.4,17.4,66.6,171.4,3.4,351.21,429.23,1263.63
SKQ201915S,TSG,2019-06-29T18:54:00Z,-149.3576,60.0247,293.54,0.0,22.01,351.5,0.53,0.55,0.0,1020.4,17.4,65.6,171.3,1.9,351.53,431.24,1269.48
SKQ201915S,TSG,2019-06-29T18:55:00Z,-149.3576,60.0247,293.53,0.0,90.0,351.5,0.34,0.54,0.0,1020.4,17.5,64.9,175.8,2.8,351.52,432.17,1269.67
SKQ201915S,TSG,2019-06-29T18:56:00Z,-149.3576,60.0247,293.52,0.0,90.0,351.62,0.16,0.53,-0.0,1020.4,17.5,65.1,182.1,2.4,351.57,428.66,1261.17
SKQ201915S,TSG,2019-06-29T18:57:00Z,-149.3576,60.0247,293.5,0.0,194.64,351.64,0.16,0.53,-0.0,1020.4,17.6,65.0,174.9,2.7,351.64,430.21,1263.35
SKQ201915S,TSG,2019-06-29T18:58:00Z,-149.3576,60.0247,294.14,0.1,266.83,353.55,0.14,0.54,-0.0,1020.4,17.6,65.1,178.3,2.1,352.1,424.29,1257.06
SKQ201915S,TSG,2019-06-29T18:59:00Z,-149.3577,60.0247,295.03,0.1,277.96,6.2,0.06,0.54,0.0,1020.4,17.5,65.3,157.2,3.4,353.02,427.13,1255.6
SKQ201915S,TSG,2019-06-29T19:00:00Z,-149.3577,60.0247,294.75,0.1,305.15,21.38,-0.02,0.53,0.0,1020.36,17.5,66.6,170.7,5.9,352.5,429.19,1256.08
SKQ201915S,TSG,2019-06-29T19:01:00Z,-149.3578,60.0247,294.9,0.1,305.88,36.74,-0.06,0.53,-0.0,1020.3,17.2,67.9,182.5,10.9,351.69,431.98,1256.89
SKQ201915S,TSG,2019-06-29T19:02:00Z,-149.3578,60.0247,295.15,0.1,331.28,51.47,-0.06,0.54,-0.0,1020.3,16.7,70.0,186.6,11.7,351.78,432.46,1258.79
SKQ201915S,TSG,2019-06-29T19:03:00Z,-149.3578,60.0248,294.97,0.1,345.7,65.81,-0.12,0.53,0.0,1020.3,16.6,70.5,187.9,11.8,351.58,432.81,1261.6
SKQ201915S,TSG,2019-06-29T19:04:00Z,-149.3578,60.0248,296.06,0.1,4.38,83.81,-0.08,0.53,0.0,1020.3,16.7,70.0,186.6,12.0,351.56,434.94,1256.53
SKQ201915S,TSG,2019-06-29T19:05:00Z,-149.3578,60.0248,296.06,0.1,25.45,107.68,-0.11,0.53,0.0,1020.3,16.9,69.5,184.6,12.2,352.18,431.55,1235.03
SKQ201915S,TSG,2019-06-29T19:06:00Z,-149.3578,60.0249,296.06,0.2,43.36,132.69,-0.14,0.53,0.0,1020.3,16.8,70.1,185.0,11.5,353.3,410.86,1182.06
SKQ201915S,TSG,2019-06-29T19:07:00Z,-149.3577,60.0249,295.78,0.2,76.64,157.79,-0.18,0.53,0.0,1020.3,16.7,71.1,182.6,10.8,354.18,326.24,1104.14
SKQ201915S,TSG,2019-06-29T19:08:00Z,-149.3576,60.0249,296.52,0.1,97.23,174.61,-0.12,0.53,0.0,1020.3,16.9,70.4,177.5,10.5,355.58,416.72,1177.13
SKQ201915S,TSG,2019-06-29T19:09:00Z,-149.3576,60.0249,294.69,0.0,287.17,176.27,-0.14,0.53,-0.0,1020.3,16.7,71.7,177.3,10.6,355.38,418.14,1179.33
SKQ201915S,TSG,2019-06-29T19:10:00Z,-149.3576,60.0249,293.56,0.0,6.03,176.07,-0.14,0.53,0.0,1020.3,16.6,72.7,177.5,10.9,355.31,419.02,1181.71
SKQ201915S,TSG,2019-06-29T19:11:00Z,-149.3576,60.0249,293.75,0.0,90.0,175.98,-0.14,0.54,0.01,1020.3,16.7,71.7,176.5,11.1,355.28,420.59,1185.71
SKQ201915S,TSG,2019-06-29T19:12:00Z,-149.3576,60.0249,293.89,0.0,90.0,175.59,-0.14,0.54,0.0,1020.3,16.7,72.0,176.6,11.0,355.38,423.08,1191.53
SKQ201915S,TSG,2019-06-29T19:13:00Z,-149.3576,60.0249,294.43,0.0,218.19,175.03,-0.14,0.54,0.0,1020.3,16.7,72.2,178.1,11.1,355.4,423.73,1194.43
SKQ201915S,TSG,2019-06-29T19:14:00Z,-149.3576,60.0249,293.76,0.0,218.73,174.88,-0.16,0.54,-0.0,1020.3,16.7,73.1,178.1,11.3,355.42,426.7,1202.77
SKQ201915S,TSG,2019-06-29T19:15:00Z,-149.3576,60.0249,293.65,0.0,178.6,174.82,-0.17,0.54,0.0,1020.3,16.6,74.2,180.2,11.4,355.21,430.15,1211.8
SKQ201915S,TSG,2019-06-29T19:16:00Z,-149.3576,60.0249,293.71,0.0,186.69,174.99,-0.19,0.54,0.0,1020.3,16.5,74.6,180.9,11.5,354.9,432.95,1219.36
SKQ201915S,TSG,2019-06-29T19:17:00Z,-149.3576,60.0249,293.6,0.0,139.01,175.51,-0.18,0.53,0.0,1020.3,16.5,75.1,181.1,11.7,354.99,432.9,1220.67
SKQ201915S,TSG,2019-06-29T19:18:00Z,-149.3576,60.0249,294.5,0.0,123.25,182.05,-0.13,0.53,-0.0,1020.3,16.4,75.9,179.7,11.5,352.92,338.42,1228.08
SKQ201915S,TSG,2019-06-29T19:19:00Z,-149.3576,60.0249,294.08,0.0,28.53,184.13,-0.12,0.53,-0.0,1020.3,16.4,75.9,176.7,11.4,351.34,270.91,1233.57
SKQ201915S,TSG,2019-06-29T19:20:00Z,-149.3576,60.0249,295.25,0.0,40.23,183.94,-0.13,0.53,0.0,1020.3,16.3,76.7,177.0,11.4,350.99,271.61,1239.98
SKQ201915S,TSG,2019-06-29T19:21:00Z,-149.3575,60.0249,296.39,0.0,90.0,183.59,-0.13,0.53,-0.0,1020.3,16.3,77.3,175.8,11.3,350.67,272.31,1247.94
SKQ201915S,TSG,2019-06-29T19:22:00Z,-149.3575,60.0249,295.95,0.0,181.88,183.37,-0.1,0.53,0.01,1020.3,16.3,77.5,175.0,11.6,350.26,287.52,1248.45
SKQ201915S,TSG,2019-06-29T19:23:00Z,-149.3575,60.0249,296.26,0.0,17.65,183.15,-0.15,0.53,-0.0,1020.3,16.3,76.7,176.9,12.7,349.85,411.62,1254.43
SKQ201915S,TSG,2019-06-29T19:24:00Z,-149.3575,60.0249,296.09,0.0,205.59,183.24,-0.15,0.52,0.0,1020.3,16.4,76.0,177.1,12.8,349.94,447.09,1259.79
SKQ201915S,TSG,2019-06-29T19:25:00Z,-149.3575,60.0249,295.6,0.0,195.42,183.37,-0.12,0.53,0.0,1020.3,16.4,76.4,176.2,12.8,349.56,447.41,1259.76
SKQ201915S,TSG,2019-06-29T19:26:00Z,-149.3576,60.0249,295.9,0.0,90.0,183.42,-0.11,0.53,-0.0,1020.3,16.4,76.4,174.3,12.6,349.32,447.82,1261.44
SKQ201915S,TSG,2019-06-29T19:27:00Z,-149.3576,60.0249,296.59,0.0,166.99,183.47,-0.11,0.53,0.0,1020.3,16.3,77.7,173.2,12.5,348.61,450.27,1267.57
SKQ201915S,TSG,2019-06-29T19:28:00Z,-149.3575,60.0249,296.8,0.0,359.62,183.5,-0.1,0.53,-0.0,1020.3,16.3,77.6,174.5,12.9,348.85,451.27,1271.05
SKQ201915S,TSG,2019-06-29T19:29:00Z,-149.3575,60.0249,295.56,0.0,90.0,183.56,-0.09,0.53,0.0,1020.3,16.3,77.1,174.4,12.8,350.2,451.69,1273.07
SKQ201915S,TSG,2019-06-29T19:30:00Z,-149.3575,60.0249,296.34,0.0,90.0,183.53,-0.12,0.53,-0.0,1020.3,16.2,78.4,173.8,12.9,351.38,454.0,1280.16
SKQ201915S,TSG,2019-06-29T19:31:00Z,-149.3575,60.0249,295.62,0.0,90.0,183.51,-0.11,0.53,0.0,1020.3,16.2,78.6,172.5,12.8,351.66,457.03,1286.78
SKQ201915S,TSG,2019-06-29T19:32:00Z,-149.3576,60.0249,294.72,0.1,220.78,185.17,-0.15,0.52,0.0,1020.3,16.1,79.2,170.7,12.5,350.18,458.15,1288.61
SKQ201915S,TSG,2019-06-29T19:33:00Z,-149.3576,60.0248,294.19,1.2,195.09,186.63,-0.16,0.56,0.0,1020.3,16.1,79.1,168.2,12.6,348.68,423.25,1292.73
SKQ201915S,TSG,2019-06-29T19:34:00Z,-149.3579,60.0242,294.96,3.5,187.36,184.71,-0.15,0.57,0.0,1020.3,16.1,79.1,168.3,12.4,350.13,459.89,1291.75
SKQ201915S,TSG,2019-06-29T19:35:00Z,-149.3582,60.0228,295.14,6.3,184.88,182.98,-0.05,0.58,-0.0,1020.23,16.1,79.1,168.5,12.5,351.07,460.97,1294.21
SKQ201915S,TSG,2019-06-29T19:36:00Z,-149.3585,60.0208,295.19,8.0,184.51,182.99,-0.05,0.57,-0.0,1020.2,16.2,78.9,165.5,12.0,350.99,459.99,1289.38
SKQ201915S,TSG,2019-06-29T19:37:00Z,-149.3588,60.0185,294.6,9.0,182.69,181.46,-0.02,0.57,-0.0,1020.25,16.1,80.0,161.9,11.2,350.82,457.05,1281.8
SKQ201915S,TSG,2019-06-29T19:38:00Z,-149.359,60.0159,294.65,9.4,183.12,182.07,-0.07,0.56,0.0,1020.27,16.0,80.8,164.5,11.4,350.72,455.33,1274.53
SKQ201915S,TSG,2019-06-29T19:39:00Z,-149.3593,60.0133,294.99,9.6,183.66,182.45,-0.09,0.56,0.0,1020.3,16.0,80.2,169.1,11.7,351.49,454.9,1271.27
SKQ201915S,TSG,2019-06-29T19:40:00Z,-149.3597,60.0106,295.41,9.7,184.17,183.41,-0.22,0.55,0.0,1020.3,16.0,80.4,174.3,11.7,351.71,451.56,1261.3
SKQ201915S,TSG,2019-06-29T19:41:00Z,-149.3601,60.0079,295.32,9.7,184.38,183.8,-0.24,0.55,0.0,1020.3,16.0,80.2,177.8,11.9,351.95,448.87,1255.23
SKQ201915S,TSG,2019-06-29T19:42:00Z,-149.3605,60.0053,295.16,9.8,184.15,183.72,-0.29,0.56,-0.0,1020.3,16.0,80.1,181.0,11.5,352.64,448.02,1254.79
SKQ201915S,TSG,2019-06-29T19:43:00Z,-149.3609,60.0025,295.16,9.8,183.74,183.8,-0.33,0.55,-0.0,1020.4,16.0,80.2,187.4,10.9,353.08,449.07,1258.59
SKQ201915S,TSG,2019-06-29T19:44:00Z,-149.3612,59.9998,295.24,9.9,183.7,183.93,-0.38,0.55,0.0,1020.4,15.9,80.5,191.5,10.9,352.91,451.19,1265.75
SKQ201915S,TSG,2019-06-29T19:45:00Z,-149.3616,59.9971,295.57,9.9,183.46,183.93,-0.38,0.55,0.0,1020.4,15.9,81.3,194.1,10.4,352.37,453.97,1272.44
SKQ201915S,TSG,2019-06-29T19:46:00Z,-149.3619,59.9943,295.69,9.9,183.33,183.72,-0.44,0.54,0.0,1020.44,15.9,80.9,198.2,10.4,352.15,452.3,1269.54
SKQ201915S,TSG,2019-06-29T19:47:00Z,-149.3622,59.9916,297.43,10.0,182.96,183.45,-0.46,0.54,0.0,1020.5,15.9,80.5,201.4,10.2,352.53,455.8,1277.28
SKQ201915S,TSG,2019-06-29T19:48:00Z,-149.3625,59.9888,298.1,10.0,182.78,183.35,-0.5,0.54,-0.0,1020.5,16.0,80.0,207.0,9.6,352.58,458.76,1282.54
SKQ201915S,TSG,2019-06-29T19:49:00Z,-149.3627,59.986,298.03,10.1,182.8,183.45,-0.51,0.55,-0.0,1020.52,16.0,80.4,214.7,8.9,352.67,459.74,1283.37
SKQ201915S,TSG,2019-06-29T19:50:00Z,-149.363,59.9833,297.49,10.1,183.06,183.53,-0.43,0.54,0.0,1020.57,15.9,81.4,213.0,7.7,352.59,462.73,1291.7
SKQ201915S,TSG,2019-06-29T19:51:00Z,-149.3633,59.9804,289.94,10.1,183.05,183.38,-0.43,0.54,0.0,1020.6,15.9,82.3,214.9,6.6,352.39,463.44,1295.28
SKQ201915S,TSG,2019-06-29T19:52:00Z,-149.3636,59.9776,280.79,10.2,183.01,183.27,-0.4,0.55,0.0,1020.6,15.8,82.6,215.1,6.3,352.58,468.38,1307.17
SKQ201915S,TSG,2019-06-29T19:53:00Z,-149.3639,59.9748,258.47,10.2,183.68,184.68,-0.51,0.54,0.0,1020.6,15.8,82.9,216.8,6.0,352.57,472.63,1322.5
SKQ201915S,TSG,2019-06-29T19:54:00Z,-149.3647,59.972,228.02,10.1,193.4,194.39,-0.52,0.54,0.0,1020.6,15.8,82.8,215.8,5.6,351.98,480.52,1334.08
SKQ201915S,TSG,2019-06-29T19:55:00Z,-149.3662,59.9693,186.95,10.1,196.61,197.66,-0.55,0.54,-0.0,1020.6,15.8,83.1,215.2,5.4,351.62,487.38,1357.82
SKQ201915S,TSG,2019-06-29T19:56:00Z,-149.368,59.9667,168.72,10.1,200.78,200.89,-0.38,0.55,-0.0,1020.6,15.8,83.7,212.1,5.0,351.73,493.22,1373.88
SKQ201915S,TSG,2019-06-29T19:57:00Z,-149.37,59.9641,183.63,10.2,200.53,200.59,-0.38,0.55,0.0,1020.6,15.8,84.3,211.7,5.0,351.41,497.97,1384.55
SKQ201915S,TSG,2019-06-29T19:58:00Z,-149.372,59.9614,198.42,10.2,200.41,200.53,-0.35,0.55,0.0,1020.6,15.8,85.1,212.3,4.9,351.58,491.59,1366.05
SKQ201915S,TSG,2019-06-29T19:59:00Z,-149.3739,59.9588,211.03,10.2,200.37,200.37,-0.29,0.55,-0.0,1020.6,15.8,85.4,213.2,4.7,351.49,487.18,1357.76
SKQ201915S,TSG,2019-06-29T20:00:00Z,-149.3759,59.9561,221.25,10.2,200.32,200.34,-0.28,0.56,0.0,1020.6,15.8,85.1,214.9,4.2,351.42,484.64,1351.7
SKQ201915S,TSG,2019-06-29T20:01:00Z,-149.3779,59.9535,225.94,10.2,200.52,200.38,-0.24,0.55,0.01,1020.6,15.8,85.1,215.5,4.7,351.81,480.35,1343.48
SKQ201915S,TSG,2019-06-29T20:02:00Z,-149.3798,59.9508,229.87,10.2,200.74,200.62,-0.25,0.55,0.0,1020.6,15.8,84.7,214.1,5.8,351.76,485.19,1358.23
SKQ201915S,TSG,2019-06-29T20:03:00Z,-149.3819,59.9482,233.42,10.2,200.88,200.67,-0.23,0.55,0.0,1020.6,15.8,83.6,208.3,6.5,351.27,492.38,1378.58
SKQ201915S,TSG,2019-06-29T20:04:00Z,-149.3839,59.9455,237.06,10.2,200.77,200.58,-0.23,0.55,0.0,1020.59,15.8,83.5,203.6,6.6,350.94,497.47,1396.63
SKQ201915S,TSG,2019-06-29T20:05:00Z,-149.3859,59.9429,241.3,10.2,200.68,200.57,-0.2,0.56,0.0,1020.6,15.8,84.1,198.1,6.4,351.1,508.09,1429.02
SKQ201915S,TSG,2019-06-29T20:06:00Z,-149.3879,59.9402,245.18,10.2,200.62,200.58,-0.14,0.55,0.01,1020.6,15.8,84.3,193.8,6.2,350.84,518.21,1460.09
SKQ201915S,TSG,2019-06-29T20:07:00Z,-149.3899,59.9376,248.19,10.2,201.54,201.46,-0.13,0.56,0.0,1020.6,15.8,83.2,193.8,6.0,349.98,527.57,1486.47
SKQ201915S,TSG,2019-06-29T20:08:00Z,-149.392,59.935,248.06,10.2,201.76,201.58,-0.14,0.56,-0.0,1020.6,15.8,82.9,193.4,6.3,349.79,529.78,1494.76
SKQ201915S,TSG,2019-06-29T20:09:00Z,-149.3941,59.9323,244.92,10.2,201.76,201.28,-0.08,0.56,-0.0,1020.61,15.8,82.4,192.8,6.4,349.84,532.53,1500.08
SKQ201915S,TSG,2019-06-29T20:10:00Z,-149.3962,59.9297,251.97,10.2,202.36,202.09,-0.18,0.55,0.0,1020.6,15.9,82.0,192.0,6.7,349.71,534.14,1502.82
SKQ201915S,TSG,2019-06-29T20:11:00Z,-149.3983,59.9271,257.24,10.2,202.19,201.72,-0.15,0.56,-0.0,1020.6,15.9,81.8,188.7,6.7,349.51,536.38,1510.16
SKQ201915S,TSG,2019-06-29T20:12:00Z,-149.4005,59.9245,259.07,10.2,202.32,201.82,-0.18,0.56,-0.0,1020.6,16.0,82.6,187.2,6.5,350.2,540.35,1520.56
SKQ201915S,TSG,2019-06-29T20:13:00Z,-149.4026,59.9218,261.34,10.2,202.05,202.0,-0.32,0.55,0.0,1020.61,16.0,83.2,185.7,6.2,349.91,547.42,1536.09
SKQ201915S,TSG,2019-06-29T20:14:00Z,-149.4047,59.9192,263.46,10.1,202.03,201.68,-0.21,0.56,0.0,1020.64,16.1,84.3,181.7,5.5,349.5,551.1,1546.19
SKQ201915S,TSG,2019-06-29T20:15:00Z,-149.4068,59.9166,264.7,10.1,201.61,201.42,-0.24,0.55,-0.0,1020.7,16.1,85.2,183.0,4.8,349.93,554.05,1552.85
SKQ201915S,TSG,2019-06-29T20:16:00Z,-149.4088,59.914,265.07,10.1,201.56,201.55,-0.28,0.55,0.0,1020.7,16.1,86.0,188.2,5.2,350.82,552.54,1546.76
SKQ201915S,TSG,2019-06-29T20:17:00Z,-149.4109,59.9114,265.23,10.1,201.73,201.71,-0.23,0.55,-0.0,1020.7,16.2,85.2,181.0,5.4,350.68,552.26,1545.52
SKQ201915S,TSG,2019-06-29T20:18:00Z,-149.4129,59.9089,265.1,10.0,201.53,201.47,-0.2,0.55,-0.0,1020.7,16.3,82.2,180.6,5.4,349.39,547.91,1536.12
SKQ201915S,TSG,2019-06-29T20:19:00Z,-149.415,59.9063,264.54,10.0,201.54,201.56,-0.19,0.55,0.0,1020.71,16.4,81.2,177.5,5.3,348.75,549.15,1538.17
SKQ201915S,TSG,2019-06-29T20:20:00Z,-149.417,59.9037,264.33,10.0,201.5,201.59,-0.2,0.56,0.0,1020.7,16.5,81.3,170.2,5.1,348.52,554.63,1550.76
SKQ201915S,TSG,2019-06-29T20:21:00Z,-149.419,59.9011,265.66,10.0,201.43,201.42,-0.15,0.56,0.0,1020.7,16.5,80.7,160.5,4.8,347.89,549.29,1534.75
SKQ201915S,TSG,2019-06-29T20:22:00Z,-149.421,59.8985,266.59,10.0,201.62,201.68,-0.19,0.55,0.0,1020.7,16.5,82.3,159.7,4.4,347.91,549.64,1533.47
SKQ201915S,TSG,2019-06-29T20:23:00Z,-149.4231,59.896,267.25,10.1,202.03,202.45,-0.32,0.56,0.0,1020.8,16.4,82.4,206.8,1.7,349.19,545.7,1523.85
SKQ201915S,TSG,2019-06-29T20:24:00Z,-149.4252,59.8934,268.66,10.1,202.56,202.95,-0.29,0.55,-0.0,1020.8,16.3,81.4,203.5,1.3,349.94,549.72,1534.31
SKQ201915S,TSG,2019-06-29T20:25:00Z,-149.4274,59.8908,270.94,10.1,203.22,203.85,-0.33,0.54,0.0,1020.8,16.3,80.2,225.0,1.5,349.96,546.3,1526.02
SKQ201915S,TSG,2019-06-29T20:26:00Z,-149.4296,59.8882,272.51,10.1,203.03,203.67,-0.32,0.54,0.0,1020.8,16.4,79.5,234.0,1.4,350.13,544.62,1518.48
SKQ201915S,TSG,2019-06-29T20:27:00Z,-149.4318,59.8856,273.24,10.1,202.96,204.03,-0.35,0.56,0.0,1020.82,16.4,79.8,251.8,1.4,350.13,549.81,1536.5
SKQ201915S,TSG,2019-06-29T20:28:00Z,-149.4339,59.883,273.18,10.1,202.98,203.93,-0.34,0.54,-0.0,1020.88,16.3,79.9,280.4,1.6,350.34,565.34,1574.91
SKQ201915S,TSG,2019-06-29T20:29:00Z,-149.4361,59.8805,272.73,10.1,202.86,203.55,-0.32,0.56,0.0,1020.88,16.4,80.8,276.3,1.2,350.6,568.61,1584.92
SKQ201915S,TSG,2019-06-29T20:30:00Z,-149.4383,59.8779,270.92,10.2,202.67,203.29,-0.32,0.55,0.0,1020.9,16.4,81.3,272.4,1.6,350.39,571.48,1594.95
SKQ201915S,TSG,2019-06-29T20:31:00Z,-149.4404,59.8753,269.65,10.2,202.83,203.42,-0.3,0.54,-0.0,1020.89,16.6,82.7,247.4,1.3,351.45,574.64,1600.52
SKQ201915S,TSG,2019-06-29T20:32:00Z,-149.4426,59.8727,268.95,10.2,203.06,203.49,-0.22,0.55,0.0,1020.85,16.9,80.2,197.7,2.1,351.72,581.92,1621.54
SKQ201915S,TSG,2019-06-29T20:33:00Z,-149.4448,59.8701,267.77,10.2,202.78,203.2,-0.14,0.56,0.0,1020.84,17.1,78.7,184.9,3.0,351.58,580.56,1613.69
SKQ201915S,TSG,2019-06-29T20:34:00Z,-149.447,59.8675,266.74,10.2,202.91,203.31,-0.16,0.56,0.0,1020.82,17.1,79.5,169.4,3.5,349.93,581.0,1622.27
SKQ201915S,TSG,2019-06-29T20:35:00Z,-149.4492,59.8649,266.97,10.1,202.97,203.29,-0.16,0.55,0.0,1020.82,16.8,82.5,154.8,4.2,347.79,588.07,1643.25
SKQ201915S,TSG,2019-06-29T20:36:00Z,-149.4514,59.8623,267.76,10.1,203.36,203.53,-0.07,0.56,-0.0,1020.84,16.5,85.3,151.0,4.4,346.11,593.36,1656.53
SKQ201915S,TSG,2019-06-29T20:37:00Z,-149.4536,59.8597,268.55,10.1,203.09,203.38,-0.04,0.57,-0.0,1020.85,16.2,87.2,155.5,4.7,345.55,590.82,1653.71
SKQ201915S,TSG,2019-06-29T20:38:00Z,-149.4558,59.8572,268.42,10.2,203.49,203.61,-0.01,0.55,-0.0,1020.86,16.2,88.0,159.6,5.1,345.37,597.08,1672.7
SKQ201915S,TSG,2019-06-29T20:39:00Z,-149.458,59.8546,269.11,9.9,203.59,203.56,0.04,0.55,0.0,1020.87,16.1,88.9,159.3,5.1,345.15,600.32,1679.9
SKQ201915S,TSG,2019-06-29T20:40:00Z,-149.4601,59.8522,269.34,9.2,203.27,203.26,-0.08,0.54,0.01,1020.88,16.1,89.3,159.5,4.9,345.27,606.07,1695.01
SKQ201915S,TSG,2019-06-29T20:41:00Z,-149.4621,59.8499,270.08,8.7,203.89,203.38,-0.07,0.53,0.0,1020.9,16.0,89.6,159.2,4.6,345.44,601.8,1677.41
SKQ201915S,TSG,2019-06-29T20:42:00Z,-149.4638,59.8478,270.18,7.2,199.03,196.29,0.15,0.55,0.0,1020.93,16.0,89.9,154.3,4.0,345.74,569.41,1573.75
SKQ201915S,TSG,2019-06-29T20:43:00Z,-149.4648,59.8463,269.73,4.3,201.56,204.02,-0.17,0.52,-0.0,1020.98,16.0,90.2,156.5,3.5,347.83,588.45,1654.91
SKQ201915S,TSG,2019-06-29T20:44:00Z,-149.4655,59.8455,270.13,2.1,206.54,183.97,-0.22,0.53,0.01,1020.99,16.1,90.5,143.6,4.0,347.44,435.33,1458.37
SKQ201915S,TSG,2019-06-29T20:45:00Z,-149.4658,59.8452,270.55,0.5,222.74,157.3,-0.07,0.53,0.0,1021.03,16.1,90.7,157.4,3.4,349.54,597.24,1686.91
SKQ201915S,TSG,2019-06-29T20:46:00Z,-149.4659,59.8452,270.43,0.0,253.68,151.83,-0.22,0.53,-0.0,1021.05,16.2,90.5,166.8,3.5,350.11,597.88,1702.66
SKQ201915S,TSG,2019-06-29T20:47:00Z,-149.4659,59.8452,269.94,0.0,87.57,151.55,-0.22,0.52,0.01,1021.08,16.2,89.9,160.0,4.1,350.35,603.35,1722.05
SKQ201915S,TSG,2019-06-29T20:48:00Z,-149.4659,59.8452,269.99,0.0,97.07,150.84,-0.21,0.52,0.0,1021.08,16.2,89.3,159.4,4.0,350.47,608.0,1737.65
SKQ201915S,TSG,2019-06-29T20:49:00Z,-149.4659,59.8452,270.0,0.0,183.1,152.28,-0.11,0.53,-0.0,1021.08,16.3,89.2,158.6,3.9,350.87,614.97,1756.4
SKQ201915S,TSG,2019-06-29T20:50:00Z,-149.4659,59.8452,270.23,0.0,68.6,153.17,0.16,0.54,0.0,1021.06,16.3,89.3,157.4,3.7,351.61,614.41,1754.68
SKQ201915S,TSG,2019-06-29T20:51:00Z,-149.4659,59.8452,270.13,0.0,232.91,152.53,0.12,0.55,0.0,1021.03,16.3,88.8,155.4,4.0,351.04,619.2,1773.43
SKQ201915S,TSG,2019-06-29T20:52:00Z,-149.4659,59.8452,270.06,0.0,183.41,151.46,0.12,0.52,0.0,1021.03,16.3,88.8,156.1,3.9,351.23,622.95,1789.06
SKQ201915S,TSG,2019-06-29T20:53:00Z,-149.4659,59.8452,270.12,0.0,46.34,151.73,0.12,0.54,0.0,1021.0,16.3,88.8,155.3,3.7,351.66,622.49,1792.42
SKQ201915S,TSG,2019-06-29T20:54:00Z,-149.4659,59.8452,269.95,0.0,158.14,152.02,0.12,0.54,-0.0,1021.02,16.4,88.7,155.1,3.7,351.58,621.27,1793.2
SKQ201915S,TSG,2019-06-29T20:55:00Z,-149.4659,59.8452,269.9,0.0,260.4,152.34,0.22,0.54,-0.0,1021.03,16.4,88.8,152.9,3.8,351.55,624.33,1807.85
SKQ201915S,TSG,2019-06-29T20:56:00Z,-149.4659,59.8452,270.2,0.0,193.44,152.11,0.2,0.54,0.0,1021.03,16.4,88.5,151.6,3.8,351.47,624.69,1812.53
SKQ201915S,TSG,2019-06-29T20:57:00Z,-149.4659,59.8452,270.22,0.0,14.3,151.4,0.13,0.54,0.0,1021.03,16.4,88.6,151.9,3.7,351.14,626.99,1825.16
SKQ201915S,TSG,2019-06-29T20:58:00Z,-149.4659,59.8452,270.31,0.0,63.76,151.6,0.15,0.53,0.01,1021.03,16.4,89.0,150.2,3.4,350.89,626.01,1825.61
SKQ201915S,TSG,2019-06-29T20:59:00Z,-149.4659,59.8452,269.87,0.0,128.45,151.99,0.15,0.55,0.0,1021.03,16.4,88.9,151.4,3.5,351.05,626.41,1827.75
SKQ201915S,TSG,2019-06-29T21:00:00Z,-149.4659,59.8452,269.88,0.0,65.46,152.22,0.14,0.53,0.01,1021.02,16.4,88.7,152.8,3.7,351.12,624.95,1826.57
SKQ201915S,TSG,2019-06-29T21:01:00Z,-149.4659,59.8452,270.3,0.0,177.17,151.69,0.16,0.53,-0.0,1021.0,16.4,88.2,156.9,3.5,351.04,625.11,1829.61
SKQ201915S,TSG,2019-06-29T21:02:00Z,-149.4659,59.8452,270.15,0.0,258.33,151.46,0.18,0.53,-0.0,1021.0,16.4,88.2,161.3,3.5,350.73,626.86,1835.63
SKQ201915S,TSG,2019-06-29T21:03:00Z,-149.4659,59.8452,270.18,0.0,182.7,151.77,0.18,0.54,0.01,1021.01,16.4,88.2,161.5,3.5,350.85,623.82,1825.37
SKQ201915S,TSG,2019-06-29T21:04:00Z,-149.4659,59.8452,270.32,0.0,25.65,151.6,0.19,0.53,0.0,1021.01,16.4,88.4,154.0,3.3,351.27,620.56,1817.88
SKQ201915S,TSG,2019-06-29T21:05:00Z,-149.4659,59.8452,270.1,0.0,55.72,151.85,0.22,0.53,0.0,1021.03,16.4,88.4,155.5,3.2,351.43,620.86,1821.29
SKQ201915S,TSG,2019-06-29T21:06:00Z,-149.4659,59.8452,270.05,0.0,153.21,151.91,0.16,0.52,0.0,1021.01,16.5,88.6,161.0,2.8,350.73,621.5,1822.58
SKQ201915S,TSG,2019-06-29T21:07:00Z,-149.4659,59.8452,269.85,0.0,206.48,152.4,0.33,0.56,-0.0,1021.01,16.5,88.7,155.8,2.8,350.93,620.04,1816.69
SKQ201915S,TSG,2019-06-29T21:08:00Z,-149.4659,59.8452,270.24,0.0,312.63,151.71,0.5,0.54,0.0,1021.0,16.5,88.7,153.3,2.8,351.09,622.69,1824.33
SKQ201915S,TSG,2019-06-29T21:09:00Z,-149.4659,59.8452,270.13,0.0,21.19,151.48,0.49,0.55,0.0,1021.0,16.5,88.1,150.5,3.3,350.62,623.83,1828.92
SKQ201915S,TSG,2019-06-29T21:10:00Z,-149.4659,59.8452,270.03,0.0,95.96,151.87,0.49,0.56,0.0,1021.0,16.4,87.9,152.9,3.2,350.71,623.51,1827.21
SKQ201915S,TSG,2019-06-29T21:11:00Z,-149.4659,59.8452,270.03,0.0,221.12,152.22,0.52,0.54,0.0,1021.0,16.4,87.6,154.1,3.4,350.79,621.54,1822.6
SKQ201915S,TSG,2019-06-29T21:12:00Z,-149.4659,59.8452,270.13,0.0,332.08,151.88,0.54,0.55,-0.0,1021.02,16.4,87.5,156.8,3.4,350.72,622.47,1827.62
SKQ201915S,TSG,2019-06-29T21:13:00Z,-149.4659,59.8452,270.09,0.0,125.11,151.61,0.67,0.57,0.01,1021.02,16.5,87.7,158.7,3.4,351.02,626.21,1834.77
SKQ201915S,TSG,2019-06-29T21:14:00Z,-149.4659,59.8452,269.99,0.0,97.45,151.96,0.61,0.56,0.0,1021.0,16.5,87.5,157.7,3.4,350.52,625.53,1834.37
SKQ201915S,TSG,2019-06-29T21:15:00Z,-149.4659,59.8452,270.09,0.0,328.01,152.09,0.63,0.56,0.0,1021.01,16.5,87.6,159.4,3.3,350.36,627.85,1841.5
SKQ201915S,TSG,2019-06-29T21:16:00Z,-149.4659,59.8452,270.1,0.0,10.37,151.77,0.69,0.57,0.02,1021.01,16.5,87.7,159.7,3.5,350.49,627.53,1840.67
SKQ201915S,TSG,2019-06-29T21:17:00Z,-149.4659,59.8452,270.07,0.0,7.12,151.68,0.63,0.55,0.0,1021.03,16.5,88.0,159.3,3.5,350.67,628.65,1844.99
SKQ201915S,TSG,2019-06-29T21:18:00Z,-149.4659,59.8452,270.04,0.0,32.94,151.76,0.65,0.55,0.01,1021.04,16.5,87.9,154.9,3.5,350.92,630.19,1846.41
SKQ201915S,TSG,2019-06-29T21:19:00Z,-149.4659,59.8452,269.9,0.0,63.28,152.11,0.62,0.56,-0.0,1021.03,16.5,87.9,152.5,3.3,351.29,621.59,1823.78
SKQ201915S,TSG,2019-06-29T21:20:00Z,-149.4659,59.8452,269.99,0.0,97.51,152.09,0.6,0.55,-0.0,1021.04,16.5,87.5,148.8,3.4,351.04,618.68,1816.61
SKQ201915S,TSG,2019-06-29T21:21:00Z,-149.4659,59.8452,270.39,0.0,80.44,151.82,0.2,0.54,0.01,1021.03,16.5,87.8,144.7,3.3,350.7,615.19,1811.03
SKQ201915S,TSG,2019-06-29T21:22:00Z,-149.4659,59.8452,270.3,0.0,123.41,151.74,0.19,0.52,-0.0,1021.06,16.5,88.1,149.2,3.4,351.23,616.77,1816.8
SKQ201915S,TSG,2019-06-29T21:23:00Z,-149.4659,59.8452,269.98,0.0,192.14,151.89,0.2,0.54,0.0,1021.03,16.5,87.6,150.2,3.5,351.07,617.19,1818.19
SKQ201915S,TSG,2019-06-29T21:24:00Z,-149.4659,59.8452,270.1,0.0,13.06,151.87,0.17,0.54,0.01,1021.03,16.5,87.3,151.6,3.7,351.04,620.29,1828.18
SKQ201915S,TSG,2019-06-29T21:25:00Z,-149.4659,59.8452,270.0,0.0,30.89,151.84,0.17,0.54,0.0,1021.03,16.5,87.2,153.5,3.7,350.94,627.11,1848.96
SKQ201915S,TSG,2019-06-29T21:26:00Z,-149.4659,59.8452,269.95,0.0,181.63,151.86,0.15,0.53,-0.0,1021.06,16.5,87.2,153.8,3.6,351.0,631.67,1861.27
SKQ201915S,TSG,2019-06-29T21:27:00Z,-149.4659,59.8452,270.06,0.0,50.51,151.83,0.12,0.54,-0.0,1021.03,16.5,87.0,151.7,3.6,351.06,634.85,1870.13
SKQ201915S,TSG,2019-06-29T21:28:00Z,-149.4659,59.8452,269.98,0.0,152.51,151.99,0.13,0.53,0.0,1021.03,16.5,86.9,150.6,3.6,351.39,639.21,1885.25
SKQ201915S,TSG,2019-06-29T21:29:00Z,-149.4659,59.8452,270.02,0.0,5.47,151.94,0.15,0.54,0.0,1021.03,16.5,86.8,151.1,3.6,351.57,643.11,1895.49
SKQ201915S,TSG,2019-06-29T21:30:00Z,-149.4659,59.8452,270.01,0.0,45.71,151.9,0.14,0.53,0.0,1021.03,16.5,87.0,148.0,3.5,350.93,644.56,1899.03
SKQ201915S,TSG,2019-06-29T21:31:00Z,-149.4659,59.8452,270.07,0.0,320.5,151.9,0.17,0.53,0.0,1021.03,16.5,87.0,147.0,3.3,350.5,645.33,1901.33
SKQ201915S,TSG,2019-06-29T21:32:00Z,-149.4659,59.8452,270.04,0.0,139.03,151.82,0.16,0.54,0.01,1021.03,16.5,86.5,148.9,3.3,350.78,646.41,1903.44
SKQ201915S,TSG,2019-06-29T21:33:00Z,-149.4659,59.8452,270.08,0.0,220.94,151.8,0.13,0.54,0.0,1021.03,16.6,86.3,154.4,3.3,350.39,645.48,1899.9
SKQ201915S,TSG,2019-06-29T21:34:00Z,-149.4659,59.8452,270.29,0.0,17.11,151.96,0.22,0.53,0.0,1021.03,16.6,86.5,157.8,3.1,350.42,646.25,1901.56
SKQ201915S,TSG,2019-06-29T21:35:00Z,-149.4659,59.8452,270.03,0.0,34.06,151.97,-0.06,0.52,-0.0,1021.03,16.6,86.4,157.6,3.2,349.92,644.03,1894.96
SKQ201915S,TSG,2019-06-29T21:36:00Z,-149.4659,59.8452,270.0,0.0,225.85,151.93,-0.18,0.54,0.01,1021.05,16.7,86.6,155.5,3.2,350.31,642.31,1892.89
SKQ201915S,TSG,2019-06-29T21:37:00Z,-149.4659,59.8452,270.0,0.0,176.75,151.83,-0.21,0.52,0.01,1021.04,16.6,85.9,157.7,3.3,350.27,643.01,1895.51
SKQ201915S,TSG,2019-06-29T21:38:00Z,-149.4659,59.8452,270.06,0.0,80.69,151.77,-0.22,0.51,0.0,1021.04,16.6,85.2,160.6,3.5,349.95,642.39,1896.62
SKQ201915S,TSG,2019-06-29T21:39:00Z,-149.4659,59.8452,269.93,0.0,11.1,151.91,-0.23,0.52,0.0,1021.03,16.7,85.4,162.0,3.2,349.66,644.71,1903.16
SKQ201915S,TSG,2019-06-29T21:40:00Z,-149.4659,59.8452,270.0,0.0,239.92,151.9,-0.24,0.51,0.01,1021.02,16.7,86.1,157.5,3.5,350.1,646.95,1913.21
SKQ201915S,TSG,2019-06-29T21:41:00Z,-149.4659,59.8452,270.12,0.0,192.59,151.73,-0.19,0.52,0.0,1021.03,16.7,85.7,157.2,3.7,349.98,653.74,1934.35
SKQ201915S,TSG,2019-06-29T21:42:00Z,-149.4659,59.8452,269.99,0.0,56.76,152.03,-0.21,0.53,-0.0,1021.02,16.7,85.0,159.0,3.7,349.98,656.68,1940.54
SKQ201915S,TSG,2019-06-29T21:43:00Z,-149.4659,59.8452,270.04,0.0,178.92,151.86,-0.22,0.54,0.0,1021.0,16.7,85.2,161.9,3.7,349.48,651.71,1924.3
SKQ201915S,TSG,2019-06-29T21:44:00Z,-149.4659,59.8452,270.0,0.0,334.33,151.89,-0.21,0.54,-0.0,1021.02,16.7,85.2,161.4,3.8,349.62,646.71,1913.11
SKQ201915S,TSG,2019-06-29T21:45:00Z,-149.4659,59.8452,269.97,0.0,197.71,151.9,-0.19,0.52,-0.0,1021.03,16.7,83.1,162.5,3.9,348.8,647.58,1918.3
SKQ201915S,TSG,2019-06-29T21:46:00Z,-149.4659,59.8452,269.95,0.0,136.22,151.79,-0.19,0.55,0.01,1021.02,16.7,80.9,159.9,3.8,348.99,652.25,1933.85
SKQ201915S,TSG,2019-06-29T21:47:00Z,-149.4659,59.8452,269.85,0.0,321.23,152.19,-0.21,0.53,0.0,1021.03,16.9,77.5,162.7,3.7,349.54,653.07,1933.07
SKQ201915S,TSG,2019-06-29T21:48:00Z,-149.4659,59.8452,270.05,0.0,342.46,151.98,-0.23,0.55,-0.0,1021.04,17.0,75.8,156.1,3.8,349.77,649.0,1924.3
SKQ201915S,TSG,2019-06-29T21:49:00Z,-149.4659,59.8452,270.02,0.0,147.94,151.94,-0.2,0.53,0.01,1021.04,17.2,75.7,159.0,3.7,349.86,649.5,1928.51
SKQ201915S,TSG,2019-06-29T21:50:00Z,-149.4659,59.8452,270.0,0.0,17.18,151.83,-0.21,0.53,-0.0,1021.03,17.2,77.6,159.7,3.5,349.99,651.06,1931.79
SKQ201915S,TSG,2019-06-29T21:51:00Z,-149.4659,59.8452,269.99,0.0,299.95,151.96,-0.16,0.52,0.0,1021.07,17.2,77.3,162.8,3.4,349.57,644.91,1913.83
SKQ201915S,TSG,2019-06-29T21:52:00Z,-149.4659,59.8452,269.95,0.0,358.65,151.98,-0.14,0.52,0.0,1021.05,17.2,78.3,170.9,3.3,348.89,647.73,1923.15
SKQ201915S,TSG,2019-06-29T21:53:00Z,-149.4659,59.8452,269.94,0.0,142.89,151.91,-0.17,0.52,0.01,1021.08,17.1,78.3,176.1,3.4,348.32,648.57,1924.75
SKQ201915S,TSG,2019-06-29T21:54:00Z,-149.4659,59.8452,269.95,0.0,244.78,151.85,-0.22,0.52,0.01,1021.07,17.1,80.7,177.2,3.6,348.07,650.29,1929.81
SKQ201915S,TSG,2019-06-29T21:55:00Z,-149.4659,59.8452,269.92,0.0,327.63,151.76,-0.22,0.51,0.0,1021.08,17.1,75.2,171.0,3.8,347.72,650.94,1930.91
SKQ201915S,TSG,2019-06-29T21:56:00Z,-149.4659,59.8452,269.84,0.0,24.82,151.93,-0.23,0.52,0.0,1021.09,17.2,77.1,174.4,3.8,347.93,650.19,1926.47
SKQ201915S,TSG,2019-06-29T21:57:00Z,-149.4659,59.8452,269.9,0.0,295.87,152.08,-0.23,0.51,-0.0,1021.07,17.2,76.9,169.9,3.8,348.43,641.59,1901.75
SKQ201915S,TSG,2019-06-29T21:58:00Z,-149.4659,59.8452,269.93,0.0,163.44,152.05,-0.21,0.52,-0.0,1021.08,17.2,77.4,167.5,3.7,348.61,640.15,1901.52
SKQ201915S,TSG,2019-06-29T21:59:00Z,-149.4659,59.8452,270.0,0.0,275.06,151.89,-0.21,0.52,0.0,1021.09,17.2,74.8,159.6,3.7,349.34,644.82,1916.98
SKQ201915S,TSG,2019-06-29T22:00:00Z,-149.4659,59.8452,269.91,0.0,139.89,152.02,-0.17,0.52,-0.0,1021.1,17.4,71.7,155.0,3.9,349.91,647.18,1921.46
SKQ201915S,TSG,2019-06-29T22:01:00Z,-149.4659,59.8452,269.96,0.0,65.88,152.11,-0.2,0.51,0.0,1021.09,17.6,69.5,155.8,4.0,349.69,644.83,1916.71
SKQ201915S,TSG,2019-06-29T22:02:00Z,-149.4659,59.8452,269.98,0.0,51.11,151.85,-0.23,0.51,0.0,1021.09,17.7,67.1,157.7,4.1,349.66,640.03,1903.2
SKQ201915S,TSG,2019-06-29T22:03:00Z,-149.4659,59.8452,269.92,0.0,170.34,151.77,-0.18,0.52,0.01,1021.1,17.9,65.8,158.8,3.9,350.12,638.85,1903.06
SKQ201915S,TSG,2019-06-29T22:04:00Z,-149.4659,59.8452,269.81,0.0,17.1,152.06,-0.17,0.52,0.0,1021.11,17.8,73.3,152.8,4.4,349.97,640.07,1906.38
SKQ201915S,TSG,2019-06-29T22:05:00Z,-149.4659,59.8452,269.83,0.0,39.15,152.1,-0.12,0.52,0.0,1021.13,17.5,75.2,147.7,4.6,350.13,639.64,1907.24
SKQ201915S,TSG,2019-06-29T22:06:00Z,-149.4659,59.8452,269.91,0.0,261.88,151.96,-0.13,0.52,0.0,1021.14,17.3,79.8,147.9,4.2,350.32,641.77,1913.96
SKQ201915S,TSG,2019-06-29T22:07:00Z,-149.4659,59.8452,269.9,0.0,336.31,151.91,-0.14,0.51,-0.0,1021.15,17.2,81.3,151.0,4.1,349.84,641.39,1914.42
SKQ201915S,TSG,2019-06-29T22:08:00Z,-149.4659,59.8452,269.89,0.0,150.02,151.82,-0.16,0.52,0.0,1021.16,17.1,80.4,151.9,4.3,350.42,645.31,1927.23
SKQ201915S,TSG,2019-06-29T22:09:00Z,-149.4659,59.8452,269.82,0.0,271.61,151.9,-0.09,0.51,0.0,1021.18,17.1,81.1,154.4,3.9,350.22,648.81,1938.94
SKQ201915S,TSG,2019-06-29T22:10:00Z,-149.4659,59.8452,269.84,0.0,210.22,151.89,-0.16,0.52,-0.0,1021.18,17.1,82.6,155.6,3.7,349.62,652.86,1953.58
SKQ201915S,TSG,2019-06-29T22:11:00Z,-149.4659,59.8452,269.87,0.0,327.38,151.87,-0.2,0.51,-0.0,1021.18,17.1,83.5,156.2,3.2,350.29,655.26,1959.67
SKQ201915S,TSG,2019-06-29T22:12:00Z,-149.4659,59.8452,269.77,0.0,115.56,151.95,-0.18,0.51,0.0,1021.16,17.1,82.9,148.8,3.9,350.4,655.29,1961.12
SKQ201915S,TSG,2019-06-29T22:13:00Z,-149.4659,59.8452,269.78,0.0,329.42,151.97,-0.18,0.51,0.0,1021.15,17.1,79.2,143.7,4.0,350.42,658.51,1971.74
SKQ201915S,TSG,2019-06-29T22:14:00Z,-149.4659,59.8452,269.81,0.0,211.4,152.01,-0.13,0.52,-0.0,1021.13,17.2,77.6,145.4,3.6,348.86,661.0,1979.55
SKQ201915S,TSG,2019-06-29T22:15:00Z,-149.4659,59.8452,269.86,0.0,207.14,151.88,-0.09,0.52,0.01,1021.13,17.3,74.1,154.5,3.3,349.4,661.59,1979.92
SKQ201915S,TSG,2019-06-29T22:16:00Z,-149.4659,59.8452,269.79,0.0,23.03,151.8,-0.12,0.52,0.0,1021.11,17.4,76.2,154.1,3.5,349.99,664.7,1992.13
SKQ201915S,TSG,2019-06-29T22:17:00Z,-149.4659,59.8452,269.71,0.0,81.48,151.74,-0.16,0.52,0.0,1021.1,17.4,75.1,159.2,3.4,350.22,665.94,1993.76
SKQ201915S,TSG,2019-06-29T22:18:00Z,-149.4659,59.8452,269.67,0.0,158.12,151.91,-0.19,0.51,0.0,1021.09,17.4,76.4,165.5,3.1,349.45,663.57,1987.78
SKQ201915S,TSG,2019-06-29T22:19:00Z,-149.4659,59.8452,269.67,0.0,262.09,152.04,-0.18,0.51,-0.0,1021.09,17.4,76.0,167.3,2.9,348.38,668.01,2002.6
SKQ201915S,TSG,2019-06-29T22:20:00Z,-149.4659,59.8452,269.61,0.0,238.42,152.06,-0.19,0.51,0.0,1021.1,17.4,76.9,171.9,2.8,347.64,674.57,2021.48
SKQ201915S,TSG,2019-06-29T22:21:00Z,-149.4659,59.8452,269.73,0.0,227.71,151.9,-0.1,0.52,-0.0,1021.1,17.4,77.5,181.0,2.9,346.77,681.37,2039.35
SKQ201915S,TSG,2019-06-29T22:22:00Z,-149.4659,59.8452,269.7,0.0,27.18,151.57,-0.04,0.52,-0.0,1021.1,17.3,77.6,184.4,3.2,345.97,684.2,2045.95
SKQ201915S,TSG,2019-06-29T22:23:00Z,-149.4659,59.8452,269.65,0.0,114.58,151.64,-0.13,0.51,0.01,1021.1,17.3,78.0,185.2,3.0,345.76,686.3,2051.85
SKQ201915S,TSG,2019-06-29T22:24:00Z,-149.4659,59.8452,269.56,0.0,16.72,152.09,-0.03,0.54,0.0,1021.1,17.3,79.5,186.8,3.4,345.69,687.57,2057.3
SKQ201915S,TSG,2019-06-29T22:25:00Z,-149.4659,59.8452,269.54,0.0,296.94,152.08,0.52,0.54,0.0,1021.1,17.2,80.4,187.0,3.4,345.64,692.3,2064.7
SKQ201915S,TSG,2019-06-29T22:26:00Z,-149.4659,59.8452,269.52,0.0,288.16,152.0,0.59,0.54,-0.0,1021.1,17.2,81.0,188.0,3.6,345.66,694.74,2071.22
SKQ201915S,TSG,2019-06-29T22:27:00Z,-149.4659,59.8452,269.59,0.0,182.26,151.78,0.6,0.54,-0.0,1021.1,17.1,80.9,189.9,3.2,345.38,697.26,2075.6
SKQ201915S,TSG,2019-06-29T22:28:00Z,-149.4659,59.8452,269.59,0.0,144.88,151.84,0.59,0.55,0.01,1021.1,17.1,81.7,187.7,3.5,345.01,696.23,2070.68
SKQ201915S,TSG,2019-06-29T22:29:00Z,-149.4659,59.8452,269.58,0.0,296.46,151.85,0.6,0.56,-0.0,1021.1,17.1,82.1,183.1,3.7,345.79,695.61,2069.43
SKQ201915S,TSG,2019-06-29T22:30:00Z,-149.4659,59.8452,269.54,0.0,204.39,151.86,0.6,0.55,0.0,1021.08,17.1,82.6,187.7,3.8,345.87,694.89,2065.34
SKQ201915S,TSG,2019-06-29T22:31:00Z,-149.4659,59.8452,269.51,0.0,41.18,151.91,0.64,0.54,-0.0,1021.1,17.1,83.2,174.4,4.3,346.48,691.05,2054.1
SKQ201915S,TSG,2019-06-29T22:32:00Z,-149.4659,59.8452,269.54,0.0,148.6,151.84,0.63,0.55,-0.0,1021.1,17.0,84.4,175.5,4.2,346.77,688.03,2046.42
SKQ201915S,TSG,2019-06-29T22:33:00Z,-149.4659,59.8452,269.62,0.0,287.74,151.91,0.6,0.55,-0.0,1021.1,17.0,85.0,180.4,4.3,346.6,689.23,2050.34
SKQ201915S,TSG,2019-06-29T22:34:00Z,-149.4659,59.8452,269.6,0.0,217.57,151.84,0.62,0.56,0.0,1021.1,16.9,85.3,181.0,4.5,346.06,684.9,2037.92
SKQ201915S,TSG,2019-06-29T22:35:00Z,-149.4659,59.8452,269.56,0.0,79.71,151.79,0.61,0.55,-0.0,1021.1,16.9,85.5,175.9,4.8,346.21,686.61,2048.86
SKQ201915S,TSG,2019-06-29T22:36:00Z,-149.4659,59.8452,269.55,0.0,270.53,151.76,0.65,0.57,-0.0,1021.1,16.8,85.8,177.0,4.7,346.63,690.61,2059.31
SKQ201915S,TSG,2019-06-29T22:37:00Z,-149.4659,59.8452,269.58,0.0,56.35,151.9,0.61,0.54,-0.0,1021.1,16.8,86.1,177.1,4.3,346.42,687.46,2052.38
SKQ201915S,TSG,2019-06-29T22:38:00Z,-149.4659,59.8452,269.42,0.0,212.07,152.14,0.64,0.56,0.01,1021.1,16.8,86.3,177.0,4.5,346.79,686.45,2048.64
SKQ201915S,TSG,2019-06-29T22:39:00Z,-149.4659,59.8452,269.47,0.0,314.97,152.06,0.63,0.56,0.0,1021.1,16.8,86.2,173.2,4.4,347.0,682.44,2039.37
SKQ201915S,TSG,2019-06-29T22:40:00Z,-149.4659,59.8452,269.59,0.0,102.1,151.84,0.63,0.55,0.0,1021.1,16.7,86.3,161.6,4.7,347.65,682.52,2042.07
SKQ201915S,TSG,2019-06-29T22:41:00Z,-149.4659,59.8452,269.61,0.0,115.36,151.87,0.58,0.55,0.0,1021.1,16.7,86.3,160.2,4.8,347.83,680.03,2035.74
SKQ201915S,TSG,2019-06-29T22:42:00Z,-149.4659,59.8452,269.49,0.0,268.63,152.12,0.64,0.56,-0.0,1021.1,16.7,86.5,159.5,4.5,347.82,677.9,2029.3
SKQ201915S,TSG,2019-06-29T22:43:00Z,-149.4659,59.8452,269.5,0.0,25.28,151.86,0.7,0.55,0.0,1021.11,16.7,86.8,166.4,4.0,348.39,678.69,2033.56
SKQ201915S,TSG,2019-06-29T22:44:00Z,-149.4659,59.8452,269.61,0.0,115.23,151.61,0.15,0.52,0.0,1021.1,16.7,86.6,169.6,4.4,347.62,678.08,2040.47
SKQ201915S,TSG,2019-06-29T22:45:00Z,-149.4659,59.8452,269.38,0.0,274.72,151.92,0.06,0.53,0.0,1021.1,16.7,87.1,172.2,4.3,347.18,677.85,2041.61
SKQ201915S,TSG,2019-06-29T22:46:00Z,-149.4659,59.8452,269.46,0.0,239.26,152.03,0.05,0.51,0.0,1021.1,16.7,86.7,169.8,4.7,347.31,679.29,2049.54
SKQ201915S,TSG,2019-06-29T22:47:00Z,-149.4659,59.8452,269.6,0.0,91.36,151.88,0.07,0.52,0.0,1021.1,16.7,86.8,168.0,4.6,347.53,682.43,2062.39
SKQ201915S,TSG,2019-06-29T22:48:00Z,-149.4659,59.8452,269.51,0.0,252.85,151.91,0.02,0.52,0.0,1021.1,16.7,87.0,161.9,5.1,347.73,688.44,2085.38
SKQ201915S,TSG,2019-06-29T22:49:00Z,-149.4659,59.8452,269.56,0.0,156.94,151.97,0.15,0.52,0.0,1021.11,16.7,87.2,162.0,5.1,347.89,696.71,2113.0
SKQ201915S,TSG,2019-06-29T22:50:00Z,-149.4659,59.8452,269.56,0.0,63.3,151.85,0.14,0.52,-0.0,1021.11,16.6,87.3,162.1,5.5,347.36,698.41,2117.53
SKQ201915S,TSG,2019-06-29T22:51:00Z,-149.4659,59.8452,269.47,0.0,280.4,151.91,0.13,0.53,0.0,1021.1,16.6,87.2,165.9,5.9,347.53,700.65,2128.25
SKQ201915S,TSG,2019-06-29T22:52:00Z,-149.4659,59.8452,269.53,0.0,307.52,151.96,0.13,0.53,-0.0,1021.1,16.6,87.2,160.2,6.4,347.67,701.55,2130.03
SKQ201915S,TSG,2019-06-29T22:53:00Z,-149.4659,59.8452,269.54,0.0,135.43,151.86,0.1,0.51,-0.0,1021.11,16.6,87.4,161.8,6.4,347.62,701.32,2131.59
SKQ201915S,TSG,2019-06-29T22:54:00Z,-149.4659,59.8452,269.52,0.0,264.5,151.92,0.14,0.52,0.0,1021.1,16.6,87.5,159.9,6.9,347.66,704.39,2145.88
SKQ201915S,TSG,2019-06-29T22:55:00Z,-149.4659,59.8452,269.52,0.0,125.9,151.93,0.14,0.53,0.01,1021.1,16.5,87.4,158.4,7.0,348.38,706.99,2151.55
SKQ201915S,TSG,2019-06-29T22:56:00Z,-149.4659,59.8452,269.4,0.0,132.3,151.97,0.08,0.5,0.0,1021.13,16.5,87.6,157.4,6.7,347.66,705.28,2148.37
SKQ201915S,TSG,2019-06-29T22:57:00Z,-149.4659,59.8452,269.51,0.0,309.03,151.99,0.14,0.53,-0.0,1021.12,16.5,87.8,153.3,7.1,347.24,707.06,2154.87
SKQ201915S,TSG,2019-06-29T22:58:00Z,-149.4659,59.8452,269.44,0.0,43.95,151.94,0.1,0.53,0.0,1021.13,16.5,87.6,150.7,7.0,346.81,706.17,2152.68
SKQ201915S,TSG,2019-06-29T22:59:00Z,-149.4659,59.8452,269.38,0.0,321.25,152.08,0.13,0.52,-0.0,1021.11,16.5,87.7,149.6,7.0,346.79,707.52,2158.41
SKQ201915S,TSG,2019-06-29T23:00:00Z,-149.4659,59.8452,269.41,0.0,321.49,151.88,0.11,0.53,-0.0,1021.1,16.5,87.5,152.7,6.9,346.77,709.2,2162.3
SKQ201915S,TSG,2019-06-29T23:01:00Z,-149.4659,59.8452,269.48,0.0,94.21,151.85,0.1,0.52,0.0,1021.1,16.5,87.8,153.6,7.0,347.11,707.46,2158.57
SKQ201915S,TSG,2019-06-29T23:02:00Z,-149.4659,59.8452,269.44,0.0,301.33,151.74,0.12,0.53,-0.0,1021.1,16.5,87.8,154.8,7.1,347.25,707.64,2159.38
SKQ201915S,TSG,2019-06-29T23:03:00Z,-149.4659,59.8452,269.42,0.0,1.41,151.79,0.11,0.51,-0.0,1021.1,16.5,87.6,154.8,7.3,346.94,706.04,2154.19
SKQ201915S,TSG,2019-06-29T23:04:00Z,-149.4659,59.8452,269.39,0.0,330.09,151.97,0.1,0.52,-0.0,1021.1,16.5,87.6,150.6,7.1,347.3,702.11,2144.96
SKQ201915S,TSG,2019-06-29T23:05:00Z,-149.4659,59.8452,269.37,0.0,352.5,151.77,0.15,0.52,0.0,1021.1,16.5,87.8,147.5,6.9,347.21,702.63,2146.69
SKQ201915S,TSG,2019-06-29T23:06:00Z,-149.4659,59.8452,269.27,0.0,91.32,152.02,0.15,0.52,-0.0,1021.11,16.5,87.9,149.0,7.1,346.7,700.49,2140.4
SKQ201915S,TSG,2019-06-29T23:07:00Z,-149.4659,59.8452,269.36,0.0,249.26,149.25,0.16,0.54,0.01,1021.1,16.5,87.9,151.7,7.3,346.86,702.2,2144.76
SKQ201915S,TSG,2019-06-29T23:08:00Z,-149.4659,59.8452,269.21,0.0,323.55,146.96,0.26,0.53,0.0,1021.11,16.5,87.8,156.7,7.1,346.4,700.49,2130.36
SKQ201915S,TSG,2019-06-29T23:09:00Z,-149.4659,59.8452,269.08,0.0,180.63,146.61,0.39,0.51,0.01,1021.11,16.5,88.1,154.7,7.4,347.38,697.16,2118.98
SKQ201915S,TSG,2019-06-29T23:10:00Z,-149.4659,59.8452,268.95,0.0,308.62,146.59,0.68,0.55,0.0,1021.1,16.5,88.1,152.4,7.2,347.18,699.44,2125.63
SKQ201915S,TSG,2019-06-29T23:11:00Z,-149.4659,59.8452,269.06,0.0,321.57,146.94,0.8,0.56,0.01,1021.1,16.5,88.4,156.1,6.9,347.35,703.09,2134.89
SKQ201915S,TSG,2019-06-29T23:12:00Z,-149.4659,59.8452,268.96,0.0,30.32,146.9,0.81,0.54,0.0,1021.1,16.5,88.7,160.0,6.8,347.62,703.32,2137.02
SKQ201915S,TSG,2019-06-29T23:13:00Z,-149.4659,59.8452,268.9,0.0,198.47,147.0,0.79,0.56,0.0,1021.1,16.5,89.0,158.5,6.8,347.8,701.49,2132.43
SKQ201915S,TSG,2019-06-29T23:14:00Z,-149.4659,59.8452,268.96,0.0,112.66,147.04,0.81,0.56,0.0,1021.11,16.5,89.0,160.6,6.7,347.93,698.57,2124.43
SKQ201915S,TSG,2019-06-29T23:15:00Z,-149.4658,59.8451,269.48,0.7,147.18,146.91,0.81,0.57,0.01,1021.1,16.5,89.1,160.9,6.5,347.63,695.14,2114.54
SKQ201915S,TSG,2019-06-29T23:16:00Z,-149.4655,59.8448,269.53,1.6,149.48,147.43,0.82,0.58,0.0,1021.11,16.5,89.3,161.6,6.6,346.93,690.96,2102.32
SKQ201915S,TSG,2019-06-29T23:17:00Z,-149.4649,59.8444,269.28,2.3,149.88,146.72,0.86,0.59,-0.0,1021.1,16.5,89.5,162.8,6.9,346.11,688.3,2095.5
SKQ201915S,TSG,2019-06-29T23:18:00Z,-149.4642,59.8438,269.09,2.6,148.81,146.35,0.86,0.59,0.0,1021.1,16.4,89.6,164.5,7.2,345.86,688.28,2097.31
SKQ201915S,TSG,2019-06-29T23:19:00Z,-149.4635,59.8431,269.32,2.8,148.65,146.64,0.9,0.6,0.0,1021.1,16.4,89.7,164.1,7.1,345.53,687.14,2093.15
SKQ201915S,TSG,2019-06-29T23:20:00Z,-149.4627,59.8425,269.46,2.9,149.14,146.94,0.88,0.6,0.0,1021.1,16.4,89.6,161.5,7.2,345.37,686.99,2095.37
SKQ201915S,TSG,2019-06-29T23:21:00Z,-149.4619,59.8418,269.97,2.9,149.22,146.92,0.88,0.58,0.0,1021.1,16.4,89.4,158.2,7.3,345.82,691.7,2110.39
SKQ201915S,TSG,2019-06-29T23:22:00Z,-149.461,59.8411,270.12,3.0,149.46,147.03,0.88,0.6,0.01,1021.09,16.4,89.3,155.2,7.7,345.3,693.04,2115.22
SKQ201915S,TSG,2019-06-29T23:23:00Z,-149.4602,59.8404,269.83,3.0,149.75,147.15,0.91,0.59,-0.0,1021.11,16.4,89.3,158.1,7.3,345.22,693.82,2118.37
SKQ201915S,TSG,2019-06-29T23:24:00Z,-149.4594,59.8397,270.34,3.0,149.91,147.23,0.9,0.6,-0.0,1021.1,16.4,89.4,159.1,7.2,345.05,693.77,2117.46
SKQ201915S,TSG,2019-06-29T23:25:00Z,-149.4586,59.8389,269.86,3.0,149.55,147.34,0.98,0.59,0.01,1021.12,16.4,89.4,158.6,7.1,344.95,690.16,2104.15
SKQ201915S,TSG,2019-06-29T23:26:00Z,-149.4577,59.8382,269.9,3.0,149.25,147.39,0.88,0.6,0.0,1021.16,16.4,89.3,157.8,6.7,345.11,684.06,2087.92
SKQ201915S,TSG,2019-06-29T23:27:00Z,-149.4569,59.8375,269.73,3.0,149.22,147.34,0.88,0.59,0.0,1021.17,16.4,89.5,159.8,6.2,345.14,686.42,2099.94
SKQ201915S,TSG,2019-06-29T23:28:00Z,-149.456,59.8368,269.7,3.2,148.9,145.74,0.88,0.58,-0.0,1021.18,16.4,89.5,160.0,6.1,345.07,687.29,2101.34
SKQ201915S,TSG,2019-06-29T23:29:00Z,-149.4549,59.836,270.36,3.9,137.64,133.86,0.92,0.59,0.0,1021.19,16.4,89.5,163.1,5.6,344.49,686.64,2098.16
SKQ201915S,TSG,2019-06-29T23:30:00Z,-149.4532,59.8352,270.59,4.4,132.91,130.19,0.95,0.57,-0.0,1021.2,16.4,89.6,160.5,5.7,344.21,683.74,2090.14
SKQ201915S,TSG,2019-06-29T23:31:00Z,-149.4513,59.8344,270.53,4.7,130.24,131.53,0.77,0.57,0.01,1021.19,16.4,89.5,158.8,6.2,344.47,678.86,2078.81
SKQ201915S,TSG,2019-06-29T23:32:00Z,-149.4494,59.8334,271.51,5.3,141.65,143.35,0.69,0.57,0.0,1021.14,16.4,89.5,154.8,6.2,344.11,670.88,2054.48
SKQ201915S,TSG,2019-06-29T23:33:00Z,-149.4476,59.8321,272.09,6.3,144.8,143.31,0.99,0.59,0.01,1021.15,16.4,89.4,151.5,6.3,342.77,666.04,2032.35
SKQ201915S,TSG,2019-06-29T23:34:00Z,-149.4453,59.8306,274.42,7.4,141.77,139.98,1.07,0.61,0.0,1021.17,16.4,89.4,149.8,6.4,342.4,660.16,2020.22
SKQ201915S,TSG,2019-06-29T23:35:00Z,-149.4425,59.8289,275.22,8.2,138.02,138.65,0.72,0.58,0.0,1021.12,16.4,89.3,152.7,6.6,341.85,659.9,2016.21
SKQ201915S,TSG,2019-06-29T23:36:00Z,-149.4396,59.8271,275.96,8.9,146.42,145.66,0.92,0.6,0.0,1021.09,16.4,89.4,138.8,6.0,340.13,651.02,1993.27
SKQ201915S,TSG,2019-06-29T23:37:00Z,-149.4366,59.8251,276.2,9.2,136.89,135.41,1.14,0.62,0.0,1021.1,16.4,89.7,132.4,5.6,340.81,655.44,1993.0
SKQ201915S,TSG,2019-06-29T23:38:00Z,-149.4331,59.8232,276.32,9.5,138.15,138.28,0.8,0.58,0.0,1021.09,16.4,89.5,131.1,5.5,339.7,648.72,1984.65
SKQ201915S,TSG,2019-06-29T23:39:00Z,-149.4297,59.8212,276.6,9.7,140.86,140.41,0.92,0.58,-0.0,1021.1,16.4,89.6,129.2,4.8,338.46,648.4,1983.87
SKQ201915S,TSG,2019-06-29T23:40:00Z,-149.4263,59.8191,276.59,9.3,140.33,140.0,0.94,0.59,-0.0,1021.13,16.4,89.5,127.0,4.2,339.64,648.52,1982.17
SKQ201915S,TSG,2019-06-29T23:41:00Z,-149.4236,59.8172,276.71,7.5,155.06,160.79,0.29,0.54,0.0,1021.16,16.4,89.4,126.6,3.5,337.22,637.89,1956.23
SKQ201915S,TSG,2019-06-29T23:42:00Z,-149.423,59.8154,276.8,6.3,182.48,181.85,0.88,0.56,0.0,1021.19,16.5,89.5,114.9,4.2,338.41,630.85,1913.39
SKQ201915S,TSG,2019-06-29T23:43:00Z,-149.423,59.8138,277.06,5.4,168.26,157.23,1.61,0.64,-0.0,1021.19,16.5,89.3,106.3,4.5,338.1,638.36,1942.52
SKQ201915S,TSG,2019-06-29T23:44:00Z,-149.422,59.8126,276.82,3.7,150.07,146.54,0.93,0.57,0.0,1021.21,16.5,88.7,117.9,3.7,339.46,638.63,1956.09
SKQ201915S,TSG,2019-06-29T23:45:00Z,-149.4213,59.8119,276.98,1.8,157.13,149.43,0.84,0.58,-0.0,1021.23,16.5,89.0,115.4,3.5,340.44,635.32,1951.36
SKQ201915S,TSG,2019-06-29T23:46:00Z,-149.4211,59.8116,276.75,0.9,169.1,148.62,0.9,0.56,0.01,1021.27,16.5,89.3,115.7,3.7,343.16,634.48,1948.48
SKQ201915S,TSG,2019-06-29T23:47:00Z,-149.421,59.8114,276.81,0.7,173.8,148.53,0.76,0.56,0.01,1021.27,16.5,88.7,116.2,4.0,342.93,630.92,1941.26
SKQ201915S,TSG,2019-06-29T23:48:00Z,-149.421,59.8112,277.15,0.6,174.2,150.74,0.49,0.52,-0.0,1021.24,16.5,88.2,113.1,3.9,344.04,629.43,1943.69
SKQ201915S,TSG,2019-06-29T23:49:00Z,-149.421,59.811,276.83,0.7,178.91,155.27,0.43,0.55,0.0,1021.23,16.6,88.2,115.4,4.1,344.44,630.19,1939.09
SKQ201915S,TSG,2019-06-29T23:50:00Z,-149.4208,59.8107,276.81,2.1,154.82,132.65,0.55,0.6,-0.0,1021.24,16.6,87.9,107.9,4.5,344.09,625.75,1944.39
SKQ201915S,TSG,2019-06-29T23:51:00Z,-149.4196,59.8102,276.81,3.8,107.1,96.34,0.49,0.59,0.01,1021.27,16.6,87.7,126.1,3.8,345.3,618.39,1931.38
SKQ201915S,TSG,2019-06-29T23:52:00Z,-149.417,59.8101,277.16,5.9,88.09,86.56,0.3,0.57,0.0,1021.24,16.6,87.7,134.3,4.2,346.15,611.04,1912.32
SKQ201915S,TSG,2019-06-29T23:53:00Z,-149.4131,59.8102,276.91,7.9,87.13,86.43,0.37,0.57,-0.0,1021.24,16.5,87.6,135.9,4.3,345.73,611.49,1910.37
SKQ201915S,TSG,2019-06-29T23:54:00Z,-149.4084,59.8103,277.13,8.9,87.45,87.19,0.19,0.56,0.01,1021.23,16.5,87.8,138.1,4.6,345.15,604.95,1898.95
SKQ201915S,TSG,2019-06-29T23:55:00Z,-149.4034,59.8104,277.31,9.2,89.75,89.34,0.18,0.56,0.0,1021.19,16.5,88.1,137.0,4.9,344.81,612.79,1911.06
SKQ201915S,TSG,2019-06-29T23:56:00Z,-149.3983,59.8104,277.11,9.6,90.31,89.64,0.2,0.56,0.0,1021.21,16.5,88.0,137.6,4.9,344.83,616.15,1940.08
SKQ201915S,TSG,2019-06-29T23:57:00Z,-149.3929,59.8104,277.81,9.9,89.87,89.25,0.16,0.57,0.01,1021.2,16.5,88.2,135.2,5.0,344.47,616.32,1943.67
SKQ201915S,TSG,2019-06-29T23:58:00Z,-149.3874,59.8104,275.92,10.0,90.27,89.58,0.18,0.56,0.0,1021.23,16.5,87.9,136.9,4.8,343.99,617.24,1947.29
SKQ201915S,TSG,2019-06-29T23:59:00Z,-149.3819,59.8104,272.52,10.2,90.28,89.44,0.0,0.55,0.0,1021.2,16.5,88.2,133.9,4.7,344.28,613.44,1939.43
SKQ201915S,TSG,2019-06-30T00:00:00Z,-149.3776,59.8104,270.44,10.3,90.01,89.3,0.26,0.55,0.0,1021.2,16.5,87.8,138.0,5.1,344.54,608.97,1921.2
SKQ201915S,TSG,2019-06-30T00:00:00Z,-149.3748,59.8104,268.26,10.3,90.24,89.55,0.21,0.57,0.0,1021.22,16.5,88.1,137.7,5.1,344.01,609.95,1929.58
SKQ201915S,TSG,2019-06-30T00:01:00Z,-149.3705,59.8103,255.38,10.4,90.21,89.4,0.19,0.57,0.0,1021.21,16.5,88.2,137.2,5.5,344.15,614.26,1946.96
SKQ201915S,TSG,2019-06-30T00:02:00Z,-149.3648,59.8103,254.74,10.4,90.42,89.51,0.07,0.56,0.0,1021.21,16.4,88.1,135.6,5.6,343.86,610.94,1936.17
SKQ201915S,TSG,2019-06-30T00:03:00Z,-149.3591,59.8103,256.35,10.4,90.24,89.41,0.21,0.56,0.01,1021.19,16.5,88.1,134.1,5.3,343.71,614.68,1952.93
SKQ201915S,TSG,2019-06-30T00:04:00Z,-149.3534,59.8103,259.56,10.4,90.48,89.59,0.17,0.56,0.0,1021.18,16.5,88.2,134.9,5.6,343.69,617.05,1958.84
SKQ201915S,TSG,2019-06-30T00:05:00Z,-149.3477,59.8103,266.06,10.4,90.66,89.66,0.07,0.56,0.0,1021.2,16.5,88.2,135.0,5.6,343.37,618.87,1967.01
SKQ201915S,TSG,2019-06-30T00:06:00Z,-149.342,59.8102,248.28,10.4,90.39,89.52,0.17,0.57,0.0,1021.2,16.5,88.3,138.0,5.7,343.33,620.11,1976.46
SKQ201915S,TSG,2019-06-30T00:07:00Z,-149.3363,59.8102,237.3,10.4,90.8,89.91,0.23,0.55,0.01,1021.2,16.4,88.1,137.8,5.5,343.23,622.99,1986.97
SKQ201915S,TSG,2019-06-30T00:08:00Z,-149.3306,59.8102,214.45,10.4,90.68,89.72,0.24,0.57,-0.0,1021.2,16.4,88.1,135.5,5.4,343.33,621.61,1983.39
SKQ201915S,TSG,2019-06-30T00:09:00Z,-149.3249,59.8102,188.44,10.4,89.66,88.14,0.17,0.58,0.01,1021.2,16.4,88.1,137.6,5.2,343.48,627.97,2004.13
SKQ201915S,TSG,2019-06-30T00:10:00Z,-149.3191,59.8102,197.95,10.4,89.06,87.64,0.16,0.56,0.0,1021.2,16.4,88.1,137.6,5.1,343.54,630.37,2011.81
SKQ201915S,TSG,2019-06-30T00:11:00Z,-149.3134,59.8102,206.19,10.3,87.51,85.06,0.31,0.56,0.0,1021.2,16.4,88.1,133.8,5.0,343.58,635.24,2023.15
SKQ201915S,TSG,2019-06-30T00:12:00Z,-149.3078,59.8106,205.55,10.3,81.38,79.82,0.39,0.57,0.01,1021.23,16.4,87.5,136.6,5.4,344.36,628.79,1991.87
SKQ201915S,TSG,2019-06-30T00:13:00Z,-149.3022,59.811,190.5,10.3,83.18,82.24,-0.03,0.56,0.0,1021.22,16.3,88.1,141.5,5.8,343.97,627.85,1997.34
SKQ201915S,TSG,2019-06-30T00:14:00Z,-149.2966,59.8113,163.33,10.3,84.04,82.82,0.04,0.57,0.0,1021.22,16.3,88.7,140.8,5.6,344.27,628.01,1997.89
SKQ201915S,TSG,2019-06-30T00:15:00Z,-149.291,59.8116,142.91,10.2,84.16,82.87,0.1,0.54,0.01,1021.22,16.3,88.8,141.9,5.8,343.99,626.58,1990.46
SKQ201915S,TSG,2019-06-30T00:16:00Z,-149.2854,59.8118,117.48,10.2,83.79,82.47,0.08,0.55,0.01,1021.23,16.3,89.0,140.5,5.7,344.62,618.04,1966.23
SKQ201915S,TSG,2019-06-30T00:17:00Z,-149.2798,59.8122,103.25,10.2,83.92,82.68,0.05,0.55,0.0,1021.2,16.3,89.0,140.9,5.9,344.45,614.83,1955.41
SKQ201915S,TSG,2019-06-30T00:18:00Z,-149.2743,59.8124,100.61,10.1,84.12,82.7,0.2,0.57,0.01,1021.21,16.3,89.0,140.8,5.7,343.72,612.82,1950.4
SKQ201915S,TSG,2019-06-30T00:19:00Z,-149.2687,59.8127,101.41,10.1,83.66,82.12,0.09,0.55,0.01,1021.2,16.3,89.2,140.3,5.6,344.16,617.72,1971.55
SKQ201915S,TSG,2019-06-30T00:20:00Z,-149.2632,59.8131,102.79,10.1,83.78,82.82,0.05,0.57,0.01,1021.21,16.3,89.2,141.1,5.6,343.77,618.52,1980.6
SKQ201915S,TSG,2019-06-30T00:21:00Z,-149.2577,59.8134,105.02,10.1,84.13,83.03,0.12,0.56,0.0,1021.22,16.3,89.1,142.4,5.5,344.01,620.04,1979.53
SKQ201915S,TSG,2019-06-30T00:22:00Z,-149.2521,59.8137,105.61,10.1,83.51,82.59,0.23,0.56,-0.0,1021.21,16.3,88.6,142.1,5.4,343.78,611.44,1956.31
SKQ201915S,TSG,2019-06-30T00:23:00Z,-149.2466,59.814,106.24,10.2,83.83,82.71,-0.01,0.56,0.01,1021.21,16.3,88.5,142.0,5.4,343.94,618.25,1976.47
SKQ201915S,TSG,2019-06-30T00:24:00Z,-149.241,59.8143,107.14,10.2,83.71,82.6,0.09,0.54,0.01,1021.2,16.3,88.6,138.4,5.2,344.3,610.93,1957.29
SKQ201915S,TSG,2019-06-30T00:25:00Z,-149.2355,59.8146,108.36,10.2,83.69,82.71,0.03,0.56,0.0,1021.21,16.3,88.4,139.8,5.1,343.71,615.39,1972.93
SKQ201915S,TSG,2019-06-30T00:26:00Z,-149.2299,59.8149,109.86,10.2,83.47,82.51,0.02,0.57,0.02,1021.21,16.3,88.4,142.6,5.0,343.67,611.56,1962.45
SKQ201915S,TSG,2019-06-30T00:27:00Z,-149.2243,59.8152,111.95,10.3,83.88,82.93,0.12,0.53,0.0,1021.22,16.3,88.3,143.4,4.9,343.37,612.83,1968.44
SKQ201915S,TSG,2019-06-30T00:28:00Z,-149.2187,59.8155,113.97,10.2,83.91,82.91,0.11,0.58,0.0,1021.24,16.3,88.6,142.6,5.2,344.08,609.18,1954.57
SKQ201915S,TSG,2019-06-30T00:29:00Z,-149.2131,59.8158,116.29,10.2,83.05,82.27,0.07,0.55,0.0,1021.23,16.3,88.7,142.2,4.9,344.38,608.21,1955.62
SKQ201915S,TSG,2019-06-30T00:30:00Z,-149.2075,59.8162,123.01,10.2,83.54,82.66,0.13,0.55,0.01,1021.25,16.3,88.5,139.6,4.9,344.01,609.46,1961.79
SKQ201915S,TSG,2019-06-30T00:31:00Z,-149.2019,59.8165,129.94,10.2,83.72,82.89,0.14,0.56,0.0,1021.23,16.3,88.5,142.2,4.8,343.77,612.77,1974.12
SKQ201915S,TSG,2019-06-30T00:32:00Z,-149.1963,59.8168,136.37,10.2,83.48,82.54,0.11,0.58,0.01,1021.24,16.3,88.4,141.3,5.0,343.62,609.97,1964.47
SKQ201915S,TSG,2019-06-30T00:33:00Z,-149.1908,59.8171,144.22,10.2,83.56,82.58,0.11,0.56,0.0,1021.23,16.3,88.4,139.6,5.3,344.28,606.81,1952.76
SKQ201915S,TSG,2019-06-30T00:34:00Z,-149.1852,59.8174,154.45,10.2,83.55,82.33,0.18,0.56,0.01,1021.24,16.3,88.3,139.3,5.2,344.42,600.53,1931.69
SKQ201915S,TSG,2019-06-30T00:35:00Z,-149.1796,59.8178,163.86,10.2,83.35,82.5,0.1,0.57,0.0,1021.22,16.3,88.6,138.4,5.2,344.18,604.22,1950.76
SKQ201915S,TSG,2019-06-30T00:36:00Z,-149.1741,59.8181,179.46,10.2,83.96,82.69,0.2,0.56,0.0,1021.25,16.3,88.4,139.0,5.1,343.88,594.02,1912.37
SKQ201915S,TSG,2019-06-30T00:37:00Z,-149.1685,59.8184,201.39,10.2,83.55,82.17,0.17,0.56,0.02,1021.25,16.3,88.8,137.7,5.0,343.51,601.29,1944.85
SKQ201915S,TSG,2019-06-30T00:38:00Z,-149.1629,59.8187,208.05,10.2,83.82,82.67,0.02,0.56,0.0,1021.24,16.3,88.5,138.3,4.9,343.44,600.48,1943.21
SKQ201915S,TSG,2019-06-30T00:39:00Z,-149.1573,59.819,208.57,10.2,84.08,82.72,0.09,0.57,-0.0,1021.24,16.2,88.7,142.9,4.5,342.94,600.5,1946.31
SKQ201915S,TSG,2019-06-30T00:40:00Z,-149.1517,59.8193,204.92,10.2,83.98,82.68,0.16,0.6,0.0,1021.25,16.2,88.6,144.7,3.8,342.64,604.34,1969.15
SKQ201915S,TSG,2019-06-30T00:41:00Z,-149.1461,59.8196,203.56,10.2,83.94,82.52,0.18,0.57,0.01,1021.28,16.2,88.6,151.5,3.8,342.89,623.62,2042.66
SKQ201915S,TSG,2019-06-30T00:42:00Z,-149.1405,59.8199,204.31,10.2,83.91,82.69,0.09,0.58,0.0,1021.28,16.2,88.7,146.7,3.9,342.98,626.9,2053.34
SKQ201915S,TSG,2019-06-30T00:43:00Z,-149.135,59.8202,204.54,10.2,83.91,82.53,0.22,0.56,0.01,1021.24,16.2,88.6,147.5,4.1,342.98,621.14,2028.6
SKQ201915S,TSG,2019-06-30T00:44:00Z,-149.1294,59.8205,204.74,10.2,84.46,82.98,0.13,0.57,0.0,1021.27,16.2,88.4,155.3,3.7,342.81,620.26,2029.48
SKQ201915S,TSG,2019-06-30T00:45:00Z,-149.1238,59.8208,205.04,10.2,84.04,82.39,0.1,0.56,0.0,1021.27,16.2,88.2,161.1,3.4,342.7,621.07,2036.98
SKQ201915S,TSG,2019-06-30T00:46:00Z,-149.1182,59.8211,204.7,10.2,84.01,82.67,-0.06,0.55,0.0,1021.25,16.1,88.0,161.3,3.3,342.89,623.73,2046.36
SKQ201915S,TSG,2019-06-30T00:47:00Z,-149.1126,59.8213,205.01,10.2,84.31,82.52,0.23,0.56,-0.0,1021.28,16.1,87.6,164.9,3.2,342.85,620.15,2036.03
SKQ201915S,TSG,2019-06-30T00:48:00Z,-149.1071,59.8216,205.52,10.2,84.21,82.44,-0.11,0.56,0.0,1021.26,16.2,87.6,162.8,3.3,343.31,618.49,2037.29
SKQ201915S,TSG,2019-06-30T00:49:00Z,-149.1015,59.8219,206.37,10.2,83.85,82.43,0.05,0.56,0.0,1021.26,16.2,87.7,162.7,3.2,342.92,624.92,2056.05
SKQ201915S,TSG,2019-06-30T00:50:00Z,-149.0959,59.8222,207.37,10.2,84.01,82.35,0.04,0.53,-0.0,1021.28,16.2,87.5,165.6,2.8,342.72,622.43,2053.19
SKQ201915S,TSG,2019-06-30T00:51:00Z,-149.0903,59.8225,208.0,10.2,84.27,82.77,0.12,0.59,0.01,1021.28,16.2,87.5,164.3,2.8,343.17,612.62,2012.33
SKQ201915S,TSG,2019-06-30T00:52:00Z,-149.0847,59.8228,208.87,10.2,84.29,82.69,0.16,0.54,0.0,1021.26,16.2,87.9,157.4,2.5,343.18,604.86,1993.37
SKQ201915S,TSG,2019-06-30T00:53:00Z,-149.0791,59.8231,210.52,10.2,84.32,82.68,0.14,0.56,-0.0,1021.24,16.2,88.4,151.8,2.5,343.58,608.36,2014.27
SKQ201915S,TSG,2019-06-30T00:54:00Z,-149.0735,59.8234,213.35,10.2,84.07,82.33,0.14,0.55,0.01,1021.25,16.1,88.7,156.5,2.5,343.52,614.77,2039.3
SKQ201915S,TSG,2019-06-30T00:55:00Z,-149.0679,59.8236,216.34,10.2,84.79,83.14,0.06,0.58,0.0,1021.24,16.1,88.7,155.0,2.2,343.26,611.34,2026.03
SKQ201915S,TSG,2019-06-30T00:56:00Z,-149.0623,59.8239,218.52,10.1,84.5,82.55,0.15,0.56,-0.0,1021.24,16.1,88.9,159.7,2.2,343.4,604.8,2003.55
SKQ201915S,TSG,2019-06-30T00:57:00Z,-149.0568,59.8242,221.08,10.1,84.39,82.53,0.11,0.56,0.01,1021.25,16.1,88.9,155.4,2.1,342.95,601.2,1989.9
SKQ201915S,TSG,2019-06-30T00:58:00Z,-149.0512,59.8244,221.53,10.1,84.62,82.67,0.11,0.55,-0.0,1021.25,16.1,88.8,155.9,2.1,342.92,592.01,1957.73
SKQ201915S,TSG,2019-06-30T00:59:00Z,-149.0457,59.8247,219.56,10.1,84.13,82.24,0.22,0.59,0.01,1021.24,16.1,88.9,151.7,1.9,343.24,586.98,1945.13
SKQ201915S,TSG,2019-06-30T01:00:00Z,-149.0402,59.825,218.55,10.0,84.73,82.93,0.04,0.54,0.0,1021.24,16.1,89.2,148.6,2.1,342.5,584.65,1941.2
SKQ201915S,TSG,2019-06-30T01:01:00Z,-149.0347,59.8253,214.78,10.0,84.72,82.79,0.1,0.56,0.01,1021.23,16.1,89.6,154.2,2.1,342.48,583.76,1942.95
SKQ201915S,TSG,2019-06-30T01:02:00Z,-149.0292,59.8255,208.59,10.0,84.51,82.44,-0.24,0.56,0.0,1021.22,16.1,89.7,155.5,2.1,341.98,585.83,1955.86
SKQ201915S,TSG,2019-06-30T01:03:00Z,-149.0237,59.8258,201.22,10.1,85.06,82.72,0.08,0.55,0.0,1021.21,16.1,89.8,152.9,2.2,342.28,585.36,1954.67
SKQ201915S,TSG,2019-06-30T01:04:00Z,-149.0182,59.826,196.82,10.0,84.71,82.39,-0.06,0.56,-0.0,1021.19,16.0,89.7,156.5,2.2,342.16,583.55,1954.23
SKQ201915S,TSG,2019-06-30T01:05:00Z,-149.0127,59.8263,181.22,10.0,85.48,82.82,0.02,0.56,0.0,1021.18,16.1,89.7,163.3,2.2,342.18,585.44,1962.91
SKQ201915S,TSG,2019-06-30T01:06:00Z,-149.0072,59.8265,166.03,10.0,85.08,82.14,0.07,0.55,-0.0,1021.17,16.0,89.7,162.2,2.5,341.72,581.04,1945.82
SKQ201915S,TSG,2019-06-30T01:07:00Z,-149.0017,59.8267,152.5,10.0,84.97,82.27,0.03,0.55,-0.0,1021.2,16.0,89.5,163.7,2.5,341.72,573.52,1922.96
SKQ201915S,TSG,2019-06-30T01:08:00Z,-148.9962,59.827,140.88,10.0,85.32,82.59,-0.0,0.57,0.01,1021.19,16.0,89.4,168.4,2.6,341.38,572.86,1919.27
SKQ201915S,TSG,2019-06-30T01:09:00Z,-148.9908,59.8272,135.99,9.9,84.34,82.22,-0.05,0.55,-0.0,1021.17,16.0,89.6,166.4,2.9,341.56,570.54,1920.39
