Cruise,Type,Date_Time_[UTC],Longitude_[decimal_degrees_east],Latitude_[decimal_degrees_north],Bottom_Depth_[m],Speed_[knots],Course_[degrees_true],Heading_[degree],Roll_[degree],Pitch_[degree],Heave,Atmos_Pressure_[hPa],Air_Temperature_[C],Relative_Humidity_[%],Wind_Dir_[degrees_true],Wind_Speed_[knots],Longwave_Downwelling_[W/m2],Shortwave_Downwelling_[W/m2],PAR_[uE/m2/s]
SKQ202110S,TSG,2021-06-28T00:00:00Z,-149.372,60.0493,293.16,0.3,249.58,179.09,-0.61,0.41,0.01,1022.01,12.9,67.0,179.3,15.8,352.17,879.94,2207.85
SKQ202110S,TSG,2021-06-28T00:01:00Z,-149.3721,60.0493,293.22,0.3,221.52,178.93,-0.68,0.39,-0.0,1022.01,12.9,70.0,178.5,14.8,351.91,805.96,2016.2
SKQ202110S,TSG,2021-06-28T00:02:00Z,-149.3722,60.0492,293.18,0.2,202.23,179.28,-0.7,0.39,0.0,1022.02,12.8,68.1,177.8,16.1,351.46,710.36,1808.7
SKQ202110S,TSG,2021-06-28T00:03:00Z,-149.3722,60.0492,293.2,0.2,197.2,179.22,-0.75,0.38,-0.0,1022.02,12.8,69.8,177.9,15.2,351.56,539.62,1377.04
SKQ202110S,TSG,2021-06-28T00:04:00Z,-149.3723,60.0491,293.41,0.2,190.94,179.28,-0.73,0.38,-0.0,1022.02,12.7,69.5,178.1,15.5,351.59,548.7,1573.75
SKQ202110S,TSG,2021-06-28T00:05:00Z,-149.3723,60.0491,293.54,0.2,193.83,179.67,-0.75,0.38,-0.0,1022.01,12.6,69.7,178.5,15.4,352.72,546.16,1585.37
SKQ202110S,TSG,2021-06-28T00:06:00Z,-149.3723,60.049,293.44,0.2,195.99,179.65,-0.76,0.38,-0.0,1022.01,12.6,70.0,178.5,15.2,354.87,888.85,2234.21
SKQ202110S,TSG,2021-06-28T00:07:00Z,-149.3724,60.0489,293.31,0.2,194.3,179.67,-0.8,0.38,0.0,1022.0,12.7,70.7,179.4,15.9,356.51,900.5,2265.26
SKQ202110S,TSG,2021-06-28T00:08:00Z,-149.3724,60.0489,293.32,0.2,188.72,179.52,-0.78,0.37,0.0,1022.01,12.6,70.5,179.4,15.4,357.48,914.36,2294.3
SKQ202110S,TSG,2021-06-28T00:09:00Z,-149.3724,60.0488,293.27,0.2,179.44,179.45,-0.8,0.38,0.0,1022.01,12.7,69.5,181.8,16.2,357.96,856.31,2123.95
SKQ202110S,TSG,2021-06-28T00:10:00Z,-149.3724,60.0488,293.38,0.2,172.59,179.48,-0.82,0.37,-0.0,1022.01,12.7,69.6,181.8,16.1,357.17,792.51,2024.14
SKQ202110S,TSG,2021-06-28T00:11:00Z,-149.3724,60.0487,293.26,0.2,167.52,179.48,-0.82,0.38,0.0,1022.02,12.7,68.2,181.7,16.3,355.94,866.29,2201.05
SKQ202110S,TSG,2021-06-28T00:12:00Z,-149.3723,60.0487,293.24,0.2,168.95,179.6,-0.83,0.37,-0.0,1022.02,12.7,67.2,181.5,16.3,354.34,755.51,1927.17
SKQ202110S,TSG,2021-06-28T00:13:00Z,-149.3723,60.0486,293.33,0.2,174.46,179.66,-0.87,0.37,-0.0,1022.03,12.7,69.0,180.6,15.2,353.21,702.75,1751.32
SKQ202110S,TSG,2021-06-28T00:14:00Z,-149.3723,60.0486,293.27,0.2,178.96,179.77,-0.87,0.37,0.0,1022.03,12.7,71.3,180.5,14.5,352.53,792.56,2172.74
SKQ202110S,TSG,2021-06-28T00:15:00Z,-149.3723,60.0485,293.3,0.2,179.91,179.63,-0.87,0.37,-0.0,1022.02,12.7,71.2,181.8,15.0,352.8,866.52,2208.57
SKQ202110S,TSG,2021-06-28T00:16:00Z,-149.3723,60.0485,293.26,0.2,170.98,179.2,-0.8,0.38,0.0,1022.01,12.7,69.1,182.6,15.4,352.17,850.71,2181.88
SKQ202110S,TSG,2021-06-28T00:17:00Z,-149.3723,60.0484,293.31,0.2,163.33,179.22,-0.76,0.38,-0.0,1022.0,12.7,69.3,184.0,15.1,351.44,838.69,2156.78
SKQ202110S,TSG,2021-06-28T00:18:00Z,-149.3723,60.0483,293.28,1.1,177.27,173.4,-0.75,0.4,0.01,1021.97,12.7,68.2,184.1,15.6,350.99,829.88,2145.36
SKQ202110S,TSG,2021-06-28T00:19:00Z,-149.372,60.0478,293.49,2.4,157.49,161.79,-0.85,0.4,0.01,1021.91,12.7,68.3,188.7,15.6,350.91,823.48,2143.84
SKQ202110S,TSG,2021-06-28T00:20:00Z,-149.3714,60.0471,293.34,3.3,157.6,162.9,-0.92,0.38,-0.0,1021.88,12.8,69.1,189.0,15.5,350.65,820.03,2138.71
SKQ202110S,TSG,2021-06-28T00:21:00Z,-149.3707,60.0461,293.16,3.9,160.29,164.14,-0.95,0.38,-0.0,1021.88,12.8,67.9,188.6,15.4,350.36,820.92,2140.57
SKQ202110S,TSG,2021-06-28T00:22:00Z,-149.3699,60.0451,293.26,4.3,161.79,164.33,-0.92,0.38,-0.0,1021.89,12.8,68.5,187.7,14.3,351.15,827.77,2154.73
SKQ202110S,TSG,2021-06-28T00:23:00Z,-149.3692,60.0439,293.11,4.5,162.05,164.19,-0.91,0.38,0.0,1021.9,12.8,67.4,185.3,14.1,352.89,842.83,2186.21
SKQ202110S,TSG,2021-06-28T00:24:00Z,-149.3684,60.0427,293.15,4.7,162.49,164.02,-0.89,0.38,0.0,1021.92,12.8,67.3,184.7,13.5,355.1,865.93,2234.79
SKQ202110S,TSG,2021-06-28T00:25:00Z,-149.3676,60.0414,293.33,4.7,162.05,163.69,-0.89,0.38,0.0,1021.9,12.8,67.6,186.6,13.8,357.32,897.26,2306.2
SKQ202110S,TSG,2021-06-28T00:26:00Z,-149.3668,60.0402,293.38,4.7,161.39,163.33,-0.92,0.38,0.0,1021.89,12.9,67.2,190.3,13.9,358.14,775.05,1958.06
SKQ202110S,TSG,2021-06-28T00:27:00Z,-149.3659,60.0389,293.63,4.8,160.71,162.78,-0.93,0.37,-0.0,1021.87,12.9,67.3,193.7,14.8,358.38,535.8,1382.57
SKQ202110S,TSG,2021-06-28T00:28:00Z,-149.3651,60.0377,293.62,4.7,161.77,164.78,-0.95,0.37,-0.0,1021.89,12.8,66.7,191.8,14.0,358.75,482.94,1373.92
SKQ202110S,TSG,2021-06-28T00:29:00Z,-149.3643,60.0364,293.58,4.8,163.19,165.28,-0.92,0.38,0.01,1021.89,12.8,66.0,193.0,13.6,359.78,538.52,1469.98
SKQ202110S,TSG,2021-06-28T00:30:00Z,-149.3635,60.0351,293.53,5.0,163.87,165.76,-0.92,0.38,0.0,1021.88,12.8,68.2,194.6,13.3,360.63,596.9,1723.71
SKQ202110S,TSG,2021-06-28T00:31:00Z,-149.3627,60.0338,293.53,5.1,163.88,165.95,-0.91,0.38,-0.0,1021.87,12.8,67.3,195.7,13.6,361.82,927.05,2394.55
SKQ202110S,TSG,2021-06-28T00:32:00Z,-149.3619,60.0324,293.69,5.2,163.98,166.05,-0.88,0.38,0.0,1021.87,12.8,66.8,195.0,13.4,361.0,961.95,2436.21
SKQ202110S,TSG,2021-06-28T00:33:00Z,-149.3612,60.031,293.95,4.9,163.54,166.07,-0.9,0.38,-0.0,1021.86,12.8,65.8,198.4,13.5,358.37,836.37,2050.74
SKQ202110S,TSG,2021-06-28T00:34:00Z,-149.3604,60.0298,293.65,4.1,163.42,166.56,-0.85,0.39,0.01,1021.87,12.8,66.9,199.1,13.1,353.66,521.36,1416.83
SKQ202110S,TSG,2021-06-28T00:35:00Z,-149.3598,60.0289,294.36,3.4,162.47,166.02,-0.84,0.39,-0.0,1021.87,12.8,67.5,199.8,13.1,349.46,500.89,1441.89
SKQ202110S,TSG,2021-06-28T00:36:00Z,-149.3593,60.028,294.43,3.1,161.33,165.81,-0.87,0.39,-0.0,1021.88,12.8,67.3,198.9,12.5,346.2,384.63,1086.71
SKQ202110S,TSG,2021-06-28T00:37:00Z,-149.3588,60.0272,294.38,2.8,161.3,165.58,-0.83,0.4,-0.0,1021.89,12.8,69.2,198.2,12.0,344.44,339.1,1060.91
SKQ202110S,TSG,2021-06-28T00:38:00Z,-149.3583,60.0266,294.02,2.0,160.62,168.23,-0.81,0.38,-0.0,1021.9,12.7,70.9,196.1,11.4,342.07,557.08,1592.9
SKQ202110S,TSG,2021-06-28T00:39:00Z,-149.3581,60.0262,295.21,1.1,171.2,174.25,-0.91,0.37,0.0,1021.91,12.7,70.8,194.5,11.1,342.57,717.59,1955.19
SKQ202110S,TSG,2021-06-28T00:40:00Z,-149.3581,60.026,294.19,0.3,190.15,173.96,-0.87,0.37,0.0,1021.91,12.7,69.7,195.5,11.0,343.69,518.92,1535.41
SKQ202110S,TSG,2021-06-28T00:41:00Z,-149.3581,60.026,294.23,0.1,71.76,172.09,-0.75,0.38,0.0,1021.9,12.8,66.7,197.5,12.1,342.77,799.36,2119.93
SKQ202110S,TSG,2021-06-28T00:42:00Z,-149.3579,60.026,294.36,0.3,111.11,177.11,-0.71,0.38,-0.0,1021.9,12.8,65.3,195.4,11.6,342.64,793.7,2107.01
SKQ202110S,TSG,2021-06-28T00:43:00Z,-149.3578,60.0259,294.51,0.1,115.19,182.94,-0.34,0.4,-0.0,1021.92,12.9,66.6,190.7,11.3,343.29,777.73,2065.14
SKQ202110S,TSG,2021-06-28T00:44:00Z,-149.3578,60.0259,294.55,0.1,167.76,185.59,-0.27,0.41,-0.0,1021.9,12.9,67.4,190.6,11.5,342.58,749.51,1993.6
SKQ202110S,TSG,2021-06-28T00:45:00Z,-149.3578,60.0259,294.67,0.0,176.51,186.0,-0.23,0.41,-0.0,1021.88,12.8,68.4,187.7,11.3,341.84,657.73,1775.18
SKQ202110S,TSG,2021-06-28T00:46:00Z,-149.3578,60.0259,296.97,0.1,166.29,185.97,-0.23,0.41,0.01,1021.86,12.8,67.5,189.8,11.0,341.31,587.55,1632.77
SKQ202110S,TSG,2021-06-28T00:47:00Z,-149.3578,60.0259,296.19,0.1,169.69,186.03,-0.21,0.41,0.0,1021.83,12.8,66.5,188.2,10.7,341.32,720.8,1925.07
SKQ202110S,TSG,2021-06-28T00:48:00Z,-149.3578,60.0259,294.56,0.1,196.04,186.34,-0.23,0.39,0.0,1021.81,12.8,68.2,189.1,10.6,341.01,722.61,1944.87
SKQ202110S,TSG,2021-06-28T00:49:00Z,-149.3578,60.0259,294.07,0.1,186.26,186.01,-0.39,0.39,0.01,1021.79,12.8,66.9,186.0,10.9,340.92,724.16,1944.72
SKQ202110S,TSG,2021-06-28T00:50:00Z,-149.3578,60.0258,294.28,0.1,158.93,185.98,-0.63,0.39,0.0,1021.77,12.8,67.3,188.4,11.1,340.47,713.53,1920.67
SKQ202110S,TSG,2021-06-28T00:51:00Z,-149.3578,60.0258,294.39,0.1,177.63,186.0,-0.66,0.37,0.0,1021.75,12.8,67.7,187.7,11.2,340.29,691.01,1868.32
SKQ202110S,TSG,2021-06-28T00:52:00Z,-149.3578,60.0258,294.32,0.1,178.3,186.15,-0.7,0.38,0.0,1021.74,12.8,68.2,185.8,11.2,339.7,695.3,1903.29
SKQ202110S,TSG,2021-06-28T00:53:00Z,-149.3578,60.0258,296.91,0.1,199.61,186.27,-0.69,0.38,-0.0,1021.73,12.7,68.9,185.6,11.4,339.68,716.57,1938.63
SKQ202110S,TSG,2021-06-28T00:54:00Z,-149.3578,60.0258,295.67,0.0,192.86,186.11,-0.71,0.37,-0.0,1021.71,12.7,71.0,186.4,10.5,339.74,669.22,1831.07
SKQ202110S,TSG,2021-06-28T00:55:00Z,-149.3578,60.0258,296.58,0.0,178.4,186.03,-0.7,0.39,0.01,1021.7,12.7,71.8,190.4,11.0,339.36,680.03,1865.29
SKQ202110S,TSG,2021-06-28T00:56:00Z,-149.3578,60.0258,295.15,0.1,145.12,185.8,-0.73,0.38,-0.0,1021.7,12.7,69.5,194.3,11.6,339.18,696.61,1909.17
SKQ202110S,TSG,2021-06-28T00:57:00Z,-149.3578,60.0257,294.91,0.1,144.14,185.89,-0.73,0.37,-0.0,1021.7,12.7,69.6,190.8,11.6,339.0,698.76,1908.88
SKQ202110S,TSG,2021-06-28T00:58:00Z,-149.3577,60.0257,296.58,0.1,152.54,186.25,-0.71,0.38,-0.0,1021.7,12.7,70.4,192.2,11.8,338.78,588.99,1623.46
SKQ202110S,TSG,2021-06-28T00:59:00Z,-149.3577,60.0257,294.7,0.1,152.34,186.26,-0.75,0.37,0.01,1021.71,12.7,69.0,193.6,12.0,338.66,588.15,1723.89
SKQ202110S,TSG,2021-06-28T01:00:00Z,-149.3577,60.0257,294.5,0.1,155.67,186.26,-0.74,0.37,0.0,1021.71,12.7,70.4,190.9,11.5,339.56,697.83,1921.35
SKQ202110S,TSG,2021-06-28T01:01:00Z,-149.3577,60.0257,294.23,0.1,171.02,186.33,-0.74,0.37,-0.0,1021.7,12.7,71.8,192.3,11.4,339.8,691.86,1915.42
SKQ202110S,TSG,2021-06-28T01:02:00Z,-149.3577,60.0257,294.53,0.0,175.84,186.15,-0.74,0.38,-0.0,1021.7,12.7,70.5,193.4,11.8,339.55,688.27,1911.47
SKQ202110S,TSG,2021-06-28T01:03:00Z,-149.3577,60.0257,294.17,0.1,150.73,186.03,-0.74,0.38,0.0,1021.69,12.8,70.4,192.0,11.4,340.18,683.75,1905.14
SKQ202110S,TSG,2021-06-28T01:04:00Z,-149.3577,60.0256,294.06,0.1,170.58,186.22,-0.75,0.37,-0.0,1021.68,12.8,70.6,192.2,11.6,340.82,686.9,1914.31
SKQ202110S,TSG,2021-06-28T01:05:00Z,-149.3577,60.0256,295.89,0.0,190.56,186.37,-0.73,0.38,0.0,1021.67,12.8,69.5,192.0,12.4,340.62,671.36,1877.37
SKQ202110S,TSG,2021-06-28T01:06:00Z,-149.3577,60.0256,296.92,0.1,141.75,186.07,-0.5,0.39,0.0,1021.68,12.8,68.9,194.1,12.2,340.57,681.05,1904.7
SKQ202110S,TSG,2021-06-28T01:07:00Z,-149.3576,60.0256,295.46,0.1,135.64,185.95,-0.74,0.4,-0.0,1021.67,12.8,68.9,195.4,12.7,340.63,682.33,1916.8
SKQ202110S,TSG,2021-06-28T01:08:00Z,-149.3576,60.0256,294.76,0.1,134.83,186.14,-0.8,0.38,0.0,1021.68,12.8,68.3,191.9,13.3,340.94,681.49,1919.69
SKQ202110S,TSG,2021-06-28T01:09:00Z,-149.3576,60.0256,294.76,0.1,157.02,186.2,-0.87,0.38,0.01,1021.68,12.8,69.9,190.1,12.3,341.61,680.28,1921.8
SKQ202110S,TSG,2021-06-28T01:10:00Z,-149.3576,60.0256,296.17,0.1,153.02,186.37,-0.92,0.38,-0.0,1021.66,12.8,70.0,192.7,13.1,342.24,676.58,1919.29
SKQ202110S,TSG,2021-06-28T01:11:00Z,-149.3576,60.0255,295.38,0.1,150.32,186.35,-0.94,0.38,-0.0,1021.66,12.8,69.8,193.4,12.9,342.34,675.29,1921.89
SKQ202110S,TSG,2021-06-28T01:12:00Z,-149.3575,60.0255,294.17,0.1,138.85,186.16,-0.95,0.38,0.0,1021.65,12.8,70.4,194.4,12.8,343.04,675.1,1925.27
SKQ202110S,TSG,2021-06-28T01:13:00Z,-149.3575,60.0255,294.57,0.1,140.07,186.12,-0.97,0.38,-0.0,1021.65,12.8,69.7,194.3,12.5,343.18,674.91,1926.73
SKQ202110S,TSG,2021-06-28T01:14:00Z,-149.3575,60.0255,294.09,0.1,133.32,186.33,-1.02,0.38,-0.0,1021.64,12.8,70.1,194.4,12.6,343.93,660.15,1894.89
SKQ202110S,TSG,2021-06-28T01:15:00Z,-149.3574,60.0255,294.43,0.1,133.76,186.26,-1.05,0.37,0.0,1021.64,12.8,70.5,193.7,12.6,344.27,677.24,1943.38
SKQ202110S,TSG,2021-06-28T01:16:00Z,-149.3574,60.0255,294.05,0.1,123.75,186.08,-0.89,0.38,-0.0,1021.63,12.8,70.1,192.9,13.2,347.07,681.5,1954.46
SKQ202110S,TSG,2021-06-28T01:17:00Z,-149.3574,60.0255,293.92,0.1,120.36,185.94,-0.65,0.4,0.0,1021.63,12.8,69.5,194.4,13.9,345.92,688.9,1967.24
SKQ202110S,TSG,2021-06-28T01:18:00Z,-149.3573,60.0254,294.54,0.2,115.36,185.89,-0.66,0.39,0.0,1021.63,12.8,68.9,195.6,13.9,346.72,695.64,1984.31
SKQ202110S,TSG,2021-06-28T01:19:00Z,-149.3572,60.0254,295.08,0.1,121.46,186.27,-0.74,0.39,0.01,1021.63,12.8,69.9,196.5,13.6,346.9,659.91,1851.77
SKQ202110S,TSG,2021-06-28T01:20:00Z,-149.3572,60.0254,294.52,0.1,123.62,186.17,-1.03,0.38,0.0,1021.63,12.8,70.0,195.8,13.8,346.52,608.07,1778.68
SKQ202110S,TSG,2021-06-28T01:21:00Z,-149.3571,60.0254,295.85,0.1,120.56,186.05,-0.75,0.39,-0.0,1021.63,12.7,69.0,195.7,14.3,346.28,614.18,1844.19
SKQ202110S,TSG,2021-06-28T01:22:00Z,-149.3571,60.0254,295.01,0.1,116.45,186.46,-0.76,0.39,0.0,1021.62,12.7,68.5,197.1,14.1,346.71,712.5,2003.51
SKQ202110S,TSG,2021-06-28T01:23:00Z,-149.357,60.0254,294.18,0.1,126.54,190.4,-0.72,0.39,-0.0,1021.61,12.7,70.2,196.0,14.3,346.09,603.56,1739.31
SKQ202110S,TSG,2021-06-28T01:24:00Z,-149.357,60.0253,294.67,0.1,170.7,192.79,-0.73,0.39,-0.0,1021.61,12.7,69.1,197.2,14.2,345.88,554.74,1635.54
SKQ202110S,TSG,2021-06-28T01:25:00Z,-149.357,60.0253,295.15,0.1,165.95,193.05,-0.71,0.39,-0.0,1021.61,12.8,70.0,198.5,13.9,345.07,482.23,1460.36
SKQ202110S,TSG,2021-06-28T01:26:00Z,-149.357,60.0253,293.89,0.0,180.32,192.73,-0.71,0.39,0.0,1021.6,12.8,68.7,197.8,14.1,344.95,596.24,1796.71
SKQ202110S,TSG,2021-06-28T01:27:00Z,-149.357,60.0253,294.12,0.1,188.67,192.71,-0.69,0.39,0.0,1021.6,12.8,70.7,201.5,13.1,345.9,675.07,1983.07
SKQ202110S,TSG,2021-06-28T01:28:00Z,-149.357,60.0253,294.23,0.0,199.12,192.82,-0.69,0.39,-0.0,1021.6,12.8,70.1,201.3,13.2,346.17,596.82,1738.73
SKQ202110S,TSG,2021-06-28T01:29:00Z,-149.357,60.0253,293.93,0.1,235.28,192.9,-0.7,0.39,-0.0,1021.6,12.8,71.3,200.3,12.3,345.8,573.0,1730.62
SKQ202110S,TSG,2021-06-28T01:30:00Z,-149.357,60.0253,294.8,0.1,254.54,192.71,-0.73,0.39,0.01,1021.59,12.8,71.4,200.1,12.3,346.28,663.57,1970.72
SKQ202110S,TSG,2021-06-28T01:31:00Z,-149.3571,60.0253,295.9,0.1,228.34,191.55,-0.71,0.39,0.0,1021.57,12.8,70.5,203.0,12.5,346.63,609.93,1785.88
SKQ202110S,TSG,2021-06-28T01:32:00Z,-149.3571,60.0253,296.54,0.1,166.48,191.41,-0.72,0.39,0.0,1021.55,12.8,68.6,203.6,13.2,346.67,598.31,1834.51
SKQ202110S,TSG,2021-06-28T01:33:00Z,-149.3571,60.0252,295.01,0.1,134.79,191.47,-0.7,0.39,-0.0,1021.55,12.9,68.1,203.8,12.9,347.86,657.35,1935.12
SKQ202110S,TSG,2021-06-28T01:34:00Z,-149.357,60.0252,293.85,0.1,129.74,191.74,-0.7,0.39,-0.0,1021.54,12.9,68.3,205.1,12.1,348.33,635.34,1914.06
SKQ202110S,TSG,2021-06-28T01:35:00Z,-149.357,60.0252,293.82,0.1,149.26,191.77,-0.69,0.39,-0.0,1021.53,12.9,70.2,204.7,12.0,349.75,663.31,1966.67
SKQ202110S,TSG,2021-06-28T01:36:00Z,-149.357,60.0252,293.91,0.1,160.04,191.66,-0.69,0.39,0.0,1021.53,12.9,69.7,203.3,12.1,350.74,656.04,1951.63
SKQ202110S,TSG,2021-06-28T01:37:00Z,-149.357,60.0252,293.77,0.1,174.75,191.7,-0.71,0.39,0.0,1021.53,12.9,70.6,202.9,12.1,352.02,660.15,1970.74
SKQ202110S,TSG,2021-06-28T01:38:00Z,-149.357,60.0252,295.12,0.0,161.74,191.68,-0.68,0.39,-0.0,1021.51,12.9,69.8,203.7,12.8,353.37,668.41,1990.9
SKQ202110S,TSG,2021-06-28T01:39:00Z,-149.357,60.0252,293.97,0.1,172.92,191.59,-0.68,0.39,-0.0,1021.51,12.8,69.6,200.9,12.8,355.07,674.25,2004.56
SKQ202110S,TSG,2021-06-28T01:40:00Z,-149.357,60.0252,296.5,0.0,178.06,191.62,-0.69,0.39,0.0,1021.49,12.8,69.4,199.9,13.7,356.13,676.96,2008.54
SKQ202110S,TSG,2021-06-28T01:41:00Z,-149.357,60.0251,293.85,0.0,201.43,191.87,-0.68,0.39,0.0,1021.5,12.8,69.4,197.3,12.7,357.0,679.32,2017.8
SKQ202110S,TSG,2021-06-28T01:42:00Z,-149.357,60.0251,293.76,0.0,208.32,191.82,-0.64,0.39,0.0,1021.49,12.8,69.4,201.7,12.8,356.76,679.7,2020.13
SKQ202110S,TSG,2021-06-28T01:43:00Z,-149.357,60.0251,293.94,0.1,192.32,191.63,-0.63,0.39,0.0,1021.49,12.8,70.2,196.4,12.2,355.84,651.42,1939.83
SKQ202110S,TSG,2021-06-28T01:44:00Z,-149.357,60.0251,294.03,0.0,169.89,191.47,-0.61,0.39,0.0,1021.49,12.8,68.6,198.1,13.4,354.84,651.59,1962.65
SKQ202110S,TSG,2021-06-28T01:45:00Z,-149.357,60.0251,293.78,0.0,200.3,191.65,-0.6,0.4,-0.0,1021.49,12.8,69.9,194.5,12.5,355.55,650.52,1971.39
SKQ202110S,TSG,2021-06-28T01:46:00Z,-149.357,60.0251,293.83,0.0,232.72,191.77,-0.62,0.39,-0.0,1021.5,12.8,68.7,194.3,13.1,357.03,661.1,1997.34
SKQ202110S,TSG,2021-06-28T01:47:00Z,-149.357,60.0251,293.82,0.1,254.11,192.07,-0.63,0.4,0.0,1021.51,12.8,68.6,192.5,13.2,358.96,661.04,1995.51
SKQ202110S,TSG,2021-06-28T01:48:00Z,-149.3571,60.0251,294.44,0.1,237.71,191.48,-0.6,0.39,-0.0,1021.51,12.8,70.7,194.4,12.0,360.32,670.27,2029.19
SKQ202110S,TSG,2021-06-28T01:49:00Z,-149.3571,60.0251,293.68,0.1,236.42,191.66,-0.6,0.39,0.0,1021.5,12.8,70.0,193.4,12.2,360.95,677.6,2047.13
SKQ202110S,TSG,2021-06-28T01:50:00Z,-149.3571,60.0251,294.4,0.1,230.6,191.56,-0.61,0.4,0.0,1021.49,12.8,69.9,192.4,11.9,360.23,674.23,2041.57
SKQ202110S,TSG,2021-06-28T01:51:00Z,-149.3572,60.025,293.71,0.1,242.96,191.65,-0.61,0.39,0.01,1021.47,12.8,69.5,190.9,12.7,358.54,669.16,2034.43
SKQ202110S,TSG,2021-06-28T01:52:00Z,-149.3572,60.025,293.72,0.1,247.18,191.66,-0.62,0.39,-0.0,1021.45,12.8,67.5,191.5,13.7,356.76,666.43,2032.05
SKQ202110S,TSG,2021-06-28T01:53:00Z,-149.3572,60.025,293.64,0.1,273.34,191.47,-0.62,0.39,-0.0,1021.44,12.8,67.8,191.3,13.6,355.44,663.26,2026.27
SKQ202110S,TSG,2021-06-28T01:54:00Z,-149.3572,60.025,293.61,0.0,269.29,191.72,-0.62,0.4,-0.0,1021.43,12.7,68.0,190.7,12.9,354.71,645.99,1977.44
SKQ202110S,TSG,2021-06-28T01:55:00Z,-149.3573,60.025,293.62,0.1,286.56,191.96,-0.63,0.39,-0.0,1021.42,12.8,69.0,190.0,13.4,354.34,649.88,2002.93
SKQ202110S,TSG,2021-06-28T01:56:00Z,-149.3573,60.025,293.59,0.0,276.07,191.5,-0.65,0.39,0.01,1021.41,12.7,68.1,191.6,13.6,354.45,648.8,1991.43
SKQ202110S,TSG,2021-06-28T01:57:00Z,-149.3573,60.025,293.49,0.0,282.79,191.3,-0.62,0.39,-0.0,1021.4,12.7,67.7,192.5,13.9,353.72,641.23,1986.61
SKQ202110S,TSG,2021-06-28T01:58:00Z,-149.3573,60.025,294.37,0.0,268.16,191.55,-0.6,0.39,0.0,1021.4,12.7,68.1,192.2,13.4,352.85,649.1,2004.39
SKQ202110S,TSG,2021-06-28T01:59:00Z,-149.3573,60.025,293.6,0.0,287.41,191.82,-0.6,0.4,-0.0,1021.39,12.7,69.4,191.3,13.2,351.13,638.01,1989.19
SKQ202110S,TSG,2021-06-28T02:00:00Z,-149.3573,60.025,293.69,0.0,281.3,191.65,-0.57,0.39,-0.0,1021.38,12.7,68.3,191.3,13.7,349.01,635.7,1983.52
SKQ202110S,TSG,2021-06-28T02:01:00Z,-149.3574,60.025,293.62,0.0,272.52,191.56,-0.58,0.4,-0.0,1021.38,12.7,68.3,191.4,14.0,347.66,599.86,1874.25
SKQ202110S,TSG,2021-06-28T02:02:00Z,-149.3574,60.025,293.47,0.0,275.43,191.63,-0.55,0.4,0.0,1021.39,12.7,66.8,189.8,13.3,346.1,529.87,1715.37
SKQ202110S,TSG,2021-06-28T02:03:00Z,-149.3574,60.0251,293.5,0.0,290.25,191.77,-0.53,0.4,-0.0,1021.38,12.7,68.3,189.0,13.0,345.12,547.21,1786.31
SKQ202110S,TSG,2021-06-28T02:04:00Z,-149.3574,60.0251,293.27,0.0,276.45,191.65,-0.51,0.4,0.01,1021.37,12.7,69.1,188.3,12.6,344.03,569.87,1819.85
SKQ202110S,TSG,2021-06-28T02:05:00Z,-149.3574,60.0251,293.59,0.0,238.78,191.51,-0.47,0.4,-0.0,1021.35,12.7,68.7,190.5,13.0,345.11,515.59,1673.82
SKQ202110S,TSG,2021-06-28T02:06:00Z,-149.3574,60.0251,293.55,0.0,260.39,191.53,-0.73,0.4,0.01,1021.33,12.7,69.6,192.3,12.2,344.83,516.62,1699.94
SKQ202110S,TSG,2021-06-28T02:07:00Z,-149.3574,60.0251,293.55,0.0,210.34,191.52,-0.76,0.38,-0.0,1021.31,12.8,68.8,193.3,12.2,344.74,511.8,1690.91
SKQ202110S,TSG,2021-06-28T02:08:00Z,-149.3574,60.0251,293.62,0.0,305.59,191.73,-0.78,0.38,-0.0,1021.3,12.8,71.3,193.2,11.8,344.48,543.44,1804.21
SKQ202110S,TSG,2021-06-28T02:09:00Z,-149.3574,60.0251,293.58,0.0,292.2,191.74,-0.79,0.38,-0.0,1021.28,12.7,68.0,192.7,12.5,344.19,566.94,1874.19
SKQ202110S,TSG,2021-06-28T02:10:00Z,-149.3575,60.0251,293.53,0.0,262.67,191.55,-0.89,0.38,0.0,1021.28,12.8,68.6,196.0,11.6,343.96,563.64,1861.17
SKQ202110S,TSG,2021-06-28T02:11:00Z,-149.3575,60.0251,293.54,0.0,304.99,191.84,-0.9,0.38,-0.0,1021.27,12.8,70.9,196.7,11.2,343.83,539.64,1774.19
SKQ202110S,TSG,2021-06-28T02:12:00Z,-149.3575,60.0251,293.79,0.0,265.28,191.76,-0.9,0.38,-0.0,1021.26,12.8,67.3,195.5,13.1,343.04,519.43,1755.14
SKQ202110S,TSG,2021-06-28T02:13:00Z,-149.3575,60.0251,294.17,0.0,286.55,191.43,-0.88,0.38,-0.0,1021.25,12.8,66.6,195.1,13.0,342.22,514.21,1711.66
SKQ202110S,TSG,2021-06-28T02:14:00Z,-149.3575,60.0251,294.39,0.0,189.69,191.32,-0.72,0.38,0.0,1021.24,12.8,66.6,195.2,12.9,341.94,465.21,1597.36
SKQ202110S,TSG,2021-06-28T02:15:00Z,-149.3575,60.0251,293.88,0.0,165.44,191.56,-0.69,0.38,0.0,1021.22,12.8,66.6,194.5,13.0,342.27,467.44,1620.77
SKQ202110S,TSG,2021-06-28T02:16:00Z,-149.3575,60.0251,293.82,0.0,173.71,191.64,-0.71,0.37,0.0,1021.22,12.8,67.0,195.2,13.0,342.41,513.69,1763.61
SKQ202110S,TSG,2021-06-28T02:17:00Z,-149.3575,60.0251,293.79,0.0,128.6,191.68,-0.77,0.38,-0.0,1021.21,12.8,67.8,199.3,12.8,342.1,526.84,1781.54
SKQ202110S,TSG,2021-06-28T02:18:00Z,-149.3575,60.0251,293.61,0.1,86.8,191.86,-0.82,0.36,-0.0,1021.2,12.8,67.3,198.6,13.2,342.1,496.86,1696.21
SKQ202110S,TSG,2021-06-28T02:19:00Z,-149.3574,60.0251,293.61,0.2,35.09,191.65,-0.8,0.38,-0.0,1021.19,12.8,65.5,199.9,13.3,341.7,485.82,1671.24
SKQ202110S,TSG,2021-06-28T02:20:00Z,-149.3573,60.0251,293.75,0.3,33.32,191.63,-0.8,0.36,-0.0,1021.18,12.8,65.3,201.1,13.2,342.48,487.0,1687.4
SKQ202110S,TSG,2021-06-28T02:21:00Z,-149.3572,60.0252,294.68,0.4,30.38,191.77,-0.78,0.37,0.0,1021.17,12.8,65.5,201.1,12.5,342.66,499.62,1709.15
SKQ202110S,TSG,2021-06-28T02:22:00Z,-149.3571,60.0253,294.95,0.4,29.57,191.85,-0.76,0.38,0.0,1021.17,12.8,64.3,199.5,13.2,343.42,497.92,1706.85
SKQ202110S,TSG,2021-06-28T02:23:00Z,-149.357,60.0254,295.06,0.3,40.2,191.58,-0.69,0.37,-0.0,1021.17,12.8,65.8,199.0,12.4,343.5,489.35,1670.89
SKQ202110S,TSG,2021-06-28T02:24:00Z,-149.3569,60.0254,294.82,0.2,35.25,191.81,-0.31,0.4,-0.0,1021.18,12.8,67.3,198.3,11.7,343.98,481.43,1627.5
SKQ202110S,TSG,2021-06-28T02:25:00Z,-149.3569,60.0255,294.61,0.3,22.88,192.35,-0.29,0.39,-0.0,1021.18,12.8,67.3,194.6,12.6,344.22,464.8,1587.04
SKQ202110S,TSG,2021-06-28T02:26:00Z,-149.3568,60.0256,294.8,0.4,19.48,192.34,-0.24,0.4,0.0,1021.2,12.8,67.5,195.6,12.7,344.82,454.37,1546.84
SKQ202110S,TSG,2021-06-28T02:27:00Z,-149.3567,60.0257,294.14,0.5,18.01,191.93,-0.21,0.4,-0.0,1021.2,12.7,68.8,191.8,12.3,345.25,441.26,1516.01
SKQ202110S,TSG,2021-06-28T02:28:00Z,-149.3566,60.0258,294.3,0.5,11.6,191.97,-0.19,0.4,0.01,1021.2,12.7,69.1,189.4,12.4,345.18,434.52,1505.12
SKQ202110S,TSG,2021-06-28T02:29:00Z,-149.3566,60.026,294.56,0.4,8.04,191.85,-0.18,0.41,-0.0,1021.19,12.7,68.5,188.6,12.5,345.28,460.4,1592.53
SKQ202110S,TSG,2021-06-28T02:30:00Z,-149.3566,60.0261,294.02,0.3,357.98,192.12,-0.3,0.39,0.0,1021.18,12.7,67.6,187.3,13.1,344.84,467.47,1600.03
SKQ202110S,TSG,2021-06-28T02:31:00Z,-149.3566,60.0261,294.08,0.2,335.91,192.03,-0.63,0.39,0.01,1021.17,12.7,67.8,185.0,13.1,344.84,440.93,1524.43
SKQ202110S,TSG,2021-06-28T02:32:00Z,-149.3567,60.0261,293.98,0.2,218.69,191.37,-0.72,0.37,-0.0,1021.17,12.7,67.9,184.1,13.1,345.05,422.9,1464.71
SKQ202110S,TSG,2021-06-28T02:33:00Z,-149.3567,60.0261,293.85,0.3,204.18,191.31,-0.74,0.38,-0.0,1021.16,12.6,68.1,180.5,13.6,343.97,400.06,1395.12
SKQ202110S,TSG,2021-06-28T02:34:00Z,-149.3568,60.026,294.09,0.4,201.5,191.67,-0.74,0.38,0.0,1021.16,12.6,69.7,176.4,11.9,343.18,366.37,1285.14
SKQ202110S,TSG,2021-06-28T02:35:00Z,-149.3569,60.0259,295.22,0.5,199.6,191.85,-0.74,0.38,0.0,1021.14,12.5,70.3,187.0,12.9,344.38,391.5,1401.67
SKQ202110S,TSG,2021-06-28T02:36:00Z,-149.357,60.0257,294.37,0.6,193.37,191.52,-0.7,0.39,-0.0,1021.14,12.5,69.3,187.2,13.0,345.81,428.42,1506.57
SKQ202110S,TSG,2021-06-28T02:37:00Z,-149.3571,60.0255,294.69,1.0,192.48,191.92,-0.72,0.39,-0.0,1021.14,12.5,71.4,188.9,12.9,345.75,413.82,1452.45
SKQ202110S,TSG,2021-06-28T02:38:00Z,-149.3573,60.0252,293.91,1.5,193.64,192.01,-0.71,0.41,0.01,1021.14,12.5,69.0,187.4,13.9,345.8,429.85,1528.14
SKQ202110S,TSG,2021-06-28T02:39:00Z,-149.3575,60.0246,294.13,2.4,192.91,191.43,-0.66,0.42,-0.0,1021.15,12.5,67.1,190.2,13.6,345.39,450.35,1596.5
SKQ202110S,TSG,2021-06-28T02:40:00Z,-149.3578,60.0238,294.72,3.9,188.9,188.17,-0.65,0.41,0.0,1021.13,12.5,67.9,194.3,14.1,345.98,482.76,1701.32
SKQ202110S,TSG,2021-06-28T02:41:00Z,-149.3582,60.0225,295.01,6.0,185.71,186.33,-0.66,0.42,-0.0,1021.12,12.5,66.4,193.3,14.1,345.14,456.73,1609.26
SKQ202110S,TSG,2021-06-28T02:42:00Z,-149.3585,60.0205,294.39,7.8,185.73,186.58,-0.76,0.4,-0.0,1021.11,12.5,66.2,198.1,13.7,344.14,469.31,1675.87
SKQ202110S,TSG,2021-06-28T02:43:00Z,-149.3589,60.0182,294.38,8.7,182.88,182.99,-0.65,0.4,-0.0,1021.05,12.6,67.9,203.9,13.2,343.94,455.41,1620.41
SKQ202110S,TSG,2021-06-28T02:44:00Z,-149.359,60.0158,294.47,9.1,178.94,179.99,-0.94,0.39,-0.0,1021.0,12.6,68.7,208.0,13.4,343.24,432.2,1563.2
SKQ202110S,TSG,2021-06-28T02:45:00Z,-149.3589,60.0132,294.14,9.7,178.93,179.86,-0.93,0.39,0.0,1021.03,12.5,69.2,207.7,12.3,343.21,456.92,1672.07
SKQ202110S,TSG,2021-06-28T02:46:00Z,-149.3588,60.0104,295.21,10.0,179.07,179.81,-0.93,0.39,0.0,1021.04,12.6,69.4,207.7,12.8,343.72,447.46,1630.11
SKQ202110S,TSG,2021-06-28T02:47:00Z,-149.3587,60.0076,295.13,10.2,179.05,179.91,-1.04,0.39,0.0,1021.03,12.5,69.6,213.9,13.4,343.15,451.99,1656.67
SKQ202110S,TSG,2021-06-28T02:48:00Z,-149.3586,60.0048,294.61,10.3,179.21,180.06,-1.08,0.39,0.0,1021.04,12.5,68.4,220.6,13.5,344.19,443.85,1629.18
SKQ202110S,TSG,2021-06-28T02:49:00Z,-149.3585,60.0019,294.28,10.4,179.22,180.04,-1.15,0.39,0.01,1021.07,12.5,68.3,224.5,12.9,344.92,402.99,1469.34
SKQ202110S,TSG,2021-06-28T02:50:00Z,-149.3584,59.999,294.9,10.4,179.22,179.98,-1.18,0.38,0.0,1021.07,12.5,69.6,228.5,12.6,345.39,358.59,1334.84
SKQ202110S,TSG,2021-06-28T02:51:00Z,-149.3583,59.9961,295.22,10.5,179.19,180.08,-1.25,0.38,0.01,1021.05,12.5,69.6,236.8,12.4,345.95,359.17,1358.92
SKQ202110S,TSG,2021-06-28T02:52:00Z,-149.3583,59.9932,295.09,10.5,179.35,180.04,-1.1,0.39,-0.0,1021.1,12.6,72.3,227.8,9.4,346.63,371.99,1371.69
SKQ202110S,TSG,2021-06-28T02:53:00Z,-149.3582,59.9903,295.91,10.6,179.42,179.83,-1.0,0.39,-0.0,1021.14,12.7,67.9,205.7,9.9,347.67,374.36,1392.74
SKQ202110S,TSG,2021-06-28T02:54:00Z,-149.3582,59.9874,296.71,10.5,179.4,179.68,-0.9,0.39,-0.0,1021.19,12.9,65.2,188.7,9.0,348.0,392.67,1434.77
SKQ202110S,TSG,2021-06-28T02:55:00Z,-149.3581,59.9845,297.63,10.5,180.37,181.39,-0.96,0.4,0.01,1021.19,13.1,68.2,160.9,7.3,347.43,372.58,1368.44
SKQ202110S,TSG,2021-06-28T02:56:00Z,-149.3584,59.9816,294.07,10.4,185.21,186.08,-0.89,0.4,-0.0,1021.19,13.1,66.0,161.5,7.6,345.25,363.05,1342.9
SKQ202110S,TSG,2021-06-28T02:57:00Z,-149.359,59.9787,282.18,10.4,185.6,186.78,-0.88,0.4,-0.0,1021.21,13.1,66.7,175.4,6.7,345.99,360.25,1334.79
SKQ202110S,TSG,2021-06-28T02:58:00Z,-149.3596,59.9758,260.91,10.4,188.01,190.27,-1.14,0.39,-0.0,1021.23,13.1,63.7,191.4,6.8,347.32,363.51,1354.82
SKQ202110S,TSG,2021-06-28T02:59:00Z,-149.3607,59.973,221.56,10.4,193.81,195.75,-1.06,0.39,-0.0,1021.22,13.2,64.7,192.1,7.5,347.43,358.06,1324.59
SKQ202110S,TSG,2021-06-28T03:00:00Z,-149.3622,59.9702,184.76,10.4,195.6,197.6,-1.04,0.39,0.01,1021.22,13.2,67.1,195.3,8.5,347.02,354.02,1332.0
SKQ202110S,TSG,2021-06-28T03:01:00Z,-149.3639,59.9675,168.76,10.4,198.54,199.98,-0.88,0.39,0.0,1021.2,13.1,66.1,196.2,8.7,346.92,374.33,1396.62
SKQ202110S,TSG,2021-06-28T03:02:00Z,-149.3657,59.9647,181.22,10.4,198.91,200.11,-0.88,0.4,-0.0,1021.18,13.1,66.8,200.1,9.5,347.07,375.49,1377.93
SKQ202110S,TSG,2021-06-28T03:03:00Z,-149.3676,59.962,194.99,10.5,198.97,200.12,-0.87,0.4,-0.0,1021.17,13.1,68.2,204.4,9.0,346.69,357.46,1326.97
SKQ202110S,TSG,2021-06-28T03:04:00Z,-149.3695,59.9593,207.62,10.5,199.25,200.03,-0.86,0.39,0.0,1021.16,13.0,68.7,199.7,8.4,346.47,358.96,1343.53
SKQ202110S,TSG,2021-06-28T03:05:00Z,-149.3714,59.9565,219.2,10.5,199.2,199.95,-0.85,0.4,0.0,1021.15,13.0,68.1,197.2,9.0,346.66,337.33,1268.98
SKQ202110S,TSG,2021-06-28T03:06:00Z,-149.3733,59.9538,227.89,10.4,199.37,199.84,-0.8,0.4,-0.0,1021.13,13.0,65.0,188.6,9.8,345.78,348.4,1357.87
SKQ202110S,TSG,2021-06-28T03:07:00Z,-149.3752,59.9511,232.73,10.4,199.47,199.76,-0.77,0.39,0.0,1021.12,13.1,66.1,182.6,10.0,345.39,424.43,1628.07
SKQ202110S,TSG,2021-06-28T03:08:00Z,-149.3772,59.9483,233.58,10.4,199.56,199.65,-0.68,0.41,-0.0,1021.13,13.1,67.3,174.7,9.9,344.08,456.51,1709.12
SKQ202110S,TSG,2021-06-28T03:09:00Z,-149.3791,59.9456,235.92,10.4,199.9,199.54,-0.62,0.4,-0.0,1021.09,13.0,65.1,160.6,9.9,343.62,467.11,1725.99
SKQ202110S,TSG,2021-06-28T03:10:00Z,-149.3811,59.9429,239.73,10.4,200.02,199.46,-0.56,0.41,-0.0,1021.09,13.1,64.6,160.6,10.7,344.29,466.56,1729.5
SKQ202110S,TSG,2021-06-28T03:11:00Z,-149.383,59.9402,243.22,10.4,200.11,199.58,-0.52,0.41,-0.0,1021.09,13.0,68.0,155.5,10.2,344.47,429.96,1606.93
SKQ202110S,TSG,2021-06-28T03:12:00Z,-149.3851,59.9375,240.51,10.4,202.56,202.13,-0.53,0.41,0.01,1021.08,12.8,68.6,151.6,10.0,346.34,417.77,1597.9
SKQ202110S,TSG,2021-06-28T03:13:00Z,-149.3874,59.9349,235.4,10.4,203.55,202.87,-0.42,0.42,-0.0,1021.1,12.8,70.1,155.7,9.7,346.97,454.46,1727.22
SKQ202110S,TSG,2021-06-28T03:14:00Z,-149.3897,59.9322,219.45,10.4,203.52,202.92,-0.48,0.42,0.0,1021.12,12.7,71.8,161.4,9.6,343.74,461.31,1764.6
SKQ202110S,TSG,2021-06-28T03:15:00Z,-149.392,59.9296,228.31,10.4,203.6,202.95,-0.47,0.42,0.0,1021.11,12.5,73.8,162.9,10.3,342.75,465.05,1782.7
SKQ202110S,TSG,2021-06-28T03:16:00Z,-149.3943,59.9269,229.28,10.5,203.78,202.85,-0.39,0.41,-0.0,1021.09,12.3,73.7,159.5,11.1,342.04,464.13,1782.56
SKQ202110S,TSG,2021-06-28T03:17:00Z,-149.3966,59.9242,238.3,10.5,203.54,202.9,-0.39,0.42,0.0,1021.12,12.1,75.7,159.3,10.4,341.6,457.66,1760.42
SKQ202110S,TSG,2021-06-28T03:18:00Z,-149.399,59.9216,247.07,10.5,204.35,204.05,-0.48,0.42,0.0,1021.14,12.0,77.4,154.4,9.7,341.22,451.87,1754.15
SKQ202110S,TSG,2021-06-28T03:19:00Z,-149.4014,59.9189,255.08,10.6,204.42,203.92,-0.36,0.42,-0.0,1021.07,11.9,77.2,142.5,11.3,343.94,437.16,1703.91
SKQ202110S,TSG,2021-06-28T03:20:00Z,-149.4038,59.9163,259.08,10.6,204.2,203.96,-0.42,0.42,0.0,1021.08,11.8,78.8,139.4,10.5,344.9,442.8,1744.49
SKQ202110S,TSG,2021-06-28T03:21:00Z,-149.4062,59.9136,261.16,10.6,204.25,204.16,-0.43,0.42,-0.0,1021.08,11.8,80.1,136.9,10.0,345.07,440.95,1743.83
SKQ202110S,TSG,2021-06-28T03:22:00Z,-149.4086,59.9109,262.62,10.6,204.21,204.32,-0.47,0.41,0.0,1021.1,11.8,80.5,137.0,9.3,345.06,439.99,1751.52
SKQ202110S,TSG,2021-06-28T03:23:00Z,-149.411,59.9082,262.69,10.6,204.11,204.16,-0.47,0.42,0.01,1021.15,11.7,75.6,139.7,8.3,345.13,436.78,1749.1
SKQ202110S,TSG,2021-06-28T03:24:00Z,-149.4133,59.9055,262.06,10.6,203.58,204.1,-0.67,0.4,-0.0,1021.23,11.8,75.2,171.0,6.7,341.99,431.32,1745.28
SKQ202110S,TSG,2021-06-28T03:25:00Z,-149.4157,59.9029,262.86,10.5,203.57,204.16,-0.72,0.4,0.0,1021.24,11.9,76.4,183.1,6.8,340.57,427.6,1741.87
SKQ202110S,TSG,2021-06-28T03:26:00Z,-149.4179,59.9002,264.28,10.5,202.98,204.03,-0.8,0.43,-0.0,1021.25,12.0,78.3,190.3,7.3,341.41,423.93,1738.92
SKQ202110S,TSG,2021-06-28T03:27:00Z,-149.4202,59.8975,265.14,10.5,202.9,204.02,-0.68,0.39,0.0,1021.25,12.0,79.1,192.1,7.6,340.89,421.43,1733.54
SKQ202110S,TSG,2021-06-28T03:28:00Z,-149.4224,59.8948,266.39,10.5,202.72,203.95,-0.64,0.41,-0.0,1021.25,12.0,78.3,190.0,7.4,340.56,416.94,1723.24
SKQ202110S,TSG,2021-06-28T03:29:00Z,-149.4247,59.8922,268.35,10.5,202.53,203.84,-0.59,0.41,0.01,1021.23,12.0,79.3,187.1,7.3,340.21,411.45,1712.0
SKQ202110S,TSG,2021-06-28T03:30:00Z,-149.4269,59.8895,270.59,10.5,203.08,204.02,-0.68,0.4,-0.0,1021.21,12.0,81.4,177.4,7.2,338.65,404.45,1697.2
SKQ202110S,TSG,2021-06-28T03:31:00Z,-149.4292,59.8868,271.26,10.5,203.11,203.76,-0.58,0.4,-0.0,1021.18,12.0,81.7,176.4,7.0,337.77,400.47,1686.48
SKQ202110S,TSG,2021-06-28T03:32:00Z,-149.4315,59.8841,271.79,10.5,203.27,203.82,-0.63,0.43,0.01,1021.15,11.9,82.0,173.7,7.2,337.58,393.15,1662.23
SKQ202110S,TSG,2021-06-28T03:33:00Z,-149.4338,59.8814,271.39,10.5,203.62,203.95,-0.63,0.42,0.01,1021.13,11.9,81.6,174.9,6.7,337.46,390.09,1662.82
SKQ202110S,TSG,2021-06-28T03:34:00Z,-149.4361,59.8788,270.03,10.5,203.67,204.01,-0.67,0.39,0.01,1021.11,11.9,81.2,170.7,6.4,337.42,384.73,1648.24
SKQ202110S,TSG,2021-06-28T03:35:00Z,-149.4384,59.8761,268.1,10.5,203.8,204.01,-0.66,0.42,0.01,1021.1,11.9,81.8,172.5,6.4,337.58,385.07,1647.49
SKQ202110S,TSG,2021-06-28T03:36:00Z,-149.4408,59.8735,268.35,10.4,204.22,204.12,-0.6,0.41,0.0,1021.09,11.9,81.1,169.3,6.6,337.75,380.96,1626.08
SKQ202110S,TSG,2021-06-28T03:37:00Z,-149.4431,59.8708,267.76,10.5,203.92,203.99,-0.61,0.41,0.0,1021.11,11.9,80.4,171.3,6.5,337.86,358.84,1545.08
SKQ202110S,TSG,2021-06-28T03:38:00Z,-149.4455,59.8682,265.51,10.5,203.85,203.96,-0.63,0.44,0.01,1021.12,11.9,80.3,173.4,6.4,338.59,369.03,1607.67
SKQ202110S,TSG,2021-06-28T03:39:00Z,-149.4478,59.8655,266.01,10.5,204.24,204.07,-0.67,0.4,-0.0,1021.14,12.0,80.2,170.4,6.5,339.17,296.4,1217.58
SKQ202110S,TSG,2021-06-28T03:40:00Z,-149.4502,59.8629,266.45,10.5,204.16,203.84,-0.52,0.42,0.0,1021.15,12.0,79.5,166.9,6.7,339.18,206.34,923.67
SKQ202110S,TSG,2021-06-28T03:41:00Z,-149.4526,59.8602,267.12,10.6,204.01,203.98,-0.55,0.4,0.01,1021.16,11.9,79.2,168.4,6.6,339.98,190.63,850.42
SKQ202110S,TSG,2021-06-28T03:42:00Z,-149.4549,59.8575,267.25,10.6,203.68,203.84,-0.51,0.41,0.0,1021.17,12.0,79.4,170.1,6.8,340.93,161.88,732.57
SKQ202110S,TSG,2021-06-28T03:43:00Z,-149.4571,59.8549,267.88,9.5,202.3,202.06,-0.46,0.41,0.01,1021.19,12.0,80.3,171.4,7.2,342.22,160.07,691.27
SKQ202110S,TSG,2021-06-28T03:44:00Z,-149.4587,59.8527,268.19,7.5,196.09,196.68,-0.56,0.4,0.01,1021.2,11.9,79.7,174.1,7.3,343.49,181.84,789.76
SKQ202110S,TSG,2021-06-28T03:45:00Z,-149.46,59.851,268.81,5.7,211.39,215.27,-0.92,0.4,0.01,1021.17,11.9,79.8,172.9,7.9,344.98,156.74,659.97
SKQ202110S,TSG,2021-06-28T03:46:00Z,-149.4614,59.8498,268.84,4.3,205.97,201.04,-0.4,0.43,0.0,1021.2,11.9,78.9,171.3,7.8,344.5,125.65,513.11
SKQ202110S,TSG,2021-06-28T03:47:00Z,-149.4622,59.8488,268.69,3.5,198.05,201.28,-0.71,0.39,-0.0,1021.19,11.9,79.8,176.6,7.4,344.63,105.96,439.88
SKQ202110S,TSG,2021-06-28T03:48:00Z,-149.4628,59.848,268.47,2.8,207.9,211.22,-0.77,0.39,0.0,1021.16,11.9,80.9,171.1,7.6,346.42,103.49,424.39
SKQ202110S,TSG,2021-06-28T03:49:00Z,-149.4636,59.8474,268.47,2.4,215.09,214.45,-0.69,0.37,-0.0,1021.14,11.9,82.7,172.3,7.6,347.68,104.32,421.48
SKQ202110S,TSG,2021-06-28T03:50:00Z,-149.4643,59.8469,268.84,2.1,213.65,210.75,-0.71,0.37,-0.0,1021.13,11.9,83.3,167.0,7.5,347.27,106.37,422.91
SKQ202110S,TSG,2021-06-28T03:51:00Z,-149.4648,59.8465,268.94,1.4,214.5,203.66,-0.74,0.4,-0.0,1021.12,11.9,83.3,168.6,6.9,347.66,109.13,428.92
SKQ202110S,TSG,2021-06-28T03:52:00Z,-149.4651,59.8462,268.82,0.8,196.83,205.52,-0.56,0.39,0.0,1021.1,11.9,81.8,173.9,6.6,346.58,112.32,433.22
SKQ202110S,TSG,2021-06-28T03:53:00Z,-149.4653,59.8461,268.95,0.5,220.68,216.69,-0.71,0.39,0.0,1021.07,11.9,81.4,168.7,7.2,346.96,112.81,431.16
SKQ202110S,TSG,2021-06-28T03:54:00Z,-149.4654,59.846,268.31,0.4,233.91,216.21,-0.75,0.36,-0.0,1021.06,11.8,80.6,166.4,7.2,347.08,113.13,429.81
SKQ202110S,TSG,2021-06-28T03:55:00Z,-149.4656,59.8459,268.49,0.6,231.47,216.41,-0.7,0.38,-0.0,1021.04,11.9,81.3,166.3,7.3,347.37,112.97,426.68
SKQ202110S,TSG,2021-06-28T03:56:00Z,-149.466,59.8458,268.83,0.9,230.84,213.14,-0.66,0.39,0.0,1021.04,11.8,80.7,166.7,7.0,347.89,115.04,431.31
SKQ202110S,TSG,2021-06-28T03:57:00Z,-149.4663,59.8457,268.88,0.6,232.88,196.14,-0.64,0.39,0.0,1021.06,11.8,79.8,166.7,6.2,348.16,114.39,420.62
SKQ202110S,TSG,2021-06-28T03:58:00Z,-149.4665,59.8456,268.81,0.4,227.29,176.38,-0.73,0.35,0.0,1021.07,11.8,78.5,173.6,5.7,348.13,110.93,408.66
SKQ202110S,TSG,2021-06-28T03:59:00Z,-149.4666,59.8455,268.74,0.2,194.34,159.29,-0.76,0.37,0.01,1021.06,11.9,77.2,184.6,5.5,349.02,109.55,403.06
SKQ202110S,TSG,2021-06-28T04:00:00Z,-149.4666,59.8455,268.74,0.2,80.29,156.61,-0.77,0.35,0.0,1021.05,12.0,79.0,191.0,5.3,349.57,109.09,399.96
SKQ202110S,TSG,2021-06-28T04:01:00Z,-149.4665,59.8455,268.51,0.3,63.4,156.45,-0.72,0.39,0.0,1021.04,12.0,79.0,192.7,5.2,350.1,109.55,399.6
SKQ202110S,TSG,2021-06-28T04:02:00Z,-149.4663,59.8455,268.4,0.3,68.76,156.4,-0.75,0.36,0.0,1021.02,12.0,78.7,194.2,4.9,350.62,109.45,398.56
SKQ202110S,TSG,2021-06-28T04:03:00Z,-149.4662,59.8456,268.44,0.2,68.66,157.32,-0.4,0.4,0.0,1021.0,12.0,78.4,195.7,4.8,350.9,109.61,399.64
SKQ202110S,TSG,2021-06-28T04:04:00Z,-149.4661,59.8456,268.64,0.1,68.72,157.57,-0.25,0.39,0.0,1020.99,12.0,76.6,192.1,4.9,350.8,112.3,407.87
SKQ202110S,TSG,2021-06-28T04:05:00Z,-149.4661,59.8456,268.48,0.0,22.43,156.98,-0.19,0.39,-0.0,1020.98,12.1,79.0,197.2,5.2,350.59,116.26,421.66
SKQ202110S,TSG,2021-06-28T04:06:00Z,-149.4661,59.8456,268.43,0.0,102.37,156.43,-0.28,0.4,0.01,1020.98,12.1,78.5,201.9,5.4,350.56,116.88,420.48
SKQ202110S,TSG,2021-06-28T04:07:00Z,-149.4661,59.8456,268.31,0.0,37.71,156.48,-0.25,0.37,0.0,1020.97,12.1,79.8,202.0,5.2,350.5,115.92,414.16
SKQ202110S,TSG,2021-06-28T04:08:00Z,-149.466,59.8456,268.28,0.0,121.09,156.47,-0.31,0.39,0.01,1020.97,12.1,81.0,195.8,5.2,350.92,115.32,411.43
SKQ202110S,TSG,2021-06-28T04:09:00Z,-149.466,59.8456,268.35,0.0,336.17,156.47,-0.58,0.39,0.0,1020.97,12.0,79.4,193.3,5.2,351.07,115.53,412.54
SKQ202110S,TSG,2021-06-28T04:10:00Z,-149.4661,59.8456,268.28,0.0,207.73,156.47,-0.69,0.35,0.01,1020.98,12.0,78.7,192.4,4.9,351.13,115.08,412.72
SKQ202110S,TSG,2021-06-28T04:11:00Z,-149.4661,59.8456,268.22,0.0,8.08,156.33,-0.78,0.37,0.0,1020.96,12.0,77.6,193.5,4.8,351.43,114.35,411.41
SKQ202110S,TSG,2021-06-28T04:12:00Z,-149.4661,59.8456,268.22,0.0,214.59,156.47,-0.76,0.4,0.01,1020.95,12.0,76.0,191.3,4.8,351.68,111.75,404.47
SKQ202110S,TSG,2021-06-28T04:13:00Z,-149.4661,59.8456,268.23,0.0,235.96,156.59,-0.76,0.37,0.0,1020.94,12.1,76.5,195.8,4.8,351.39,108.71,398.2
SKQ202110S,TSG,2021-06-28T04:14:00Z,-149.4661,59.8456,268.3,0.0,271.06,156.47,-0.76,0.36,0.0,1020.93,12.1,75.8,195.2,4.8,350.99,108.37,400.88
SKQ202110S,TSG,2021-06-28T04:15:00Z,-149.4661,59.8456,268.34,0.0,175.4,156.43,-0.79,0.36,0.0,1020.93,12.1,75.9,194.4,4.8,350.83,111.56,416.94
SKQ202110S,TSG,2021-06-28T04:16:00Z,-149.4661,59.8456,268.25,0.0,318.06,156.59,-0.81,0.39,0.0,1020.92,12.1,76.6,197.5,4.5,350.53,117.71,446.08
SKQ202110S,TSG,2021-06-28T04:17:00Z,-149.4661,59.8456,268.5,0.0,291.52,156.61,-0.76,0.37,-0.0,1020.92,12.2,77.0,191.6,4.3,350.86,135.02,500.53
SKQ202110S,TSG,2021-06-28T04:18:00Z,-149.4661,59.8456,268.34,0.0,219.12,156.7,-0.42,0.38,-0.0,1020.91,12.2,77.5,194.2,4.0,350.78,130.25,472.7
SKQ202110S,TSG,2021-06-28T04:19:00Z,-149.4661,59.8456,268.11,0.0,236.01,156.68,-0.43,0.37,0.0,1020.91,12.2,77.0,189.4,3.8,350.23,128.0,467.05
SKQ202110S,TSG,2021-06-28T04:20:00Z,-149.4661,59.8456,268.25,0.1,249.54,156.69,-0.49,0.38,-0.0,1020.89,12.2,77.6,195.3,3.7,349.41,123.72,475.31
SKQ202110S,TSG,2021-06-28T04:21:00Z,-149.4662,59.8456,268.41,0.1,242.2,156.66,-0.43,0.4,0.01,1020.89,12.2,77.4,199.2,3.5,349.5,109.53,424.36
SKQ202110S,TSG,2021-06-28T04:22:00Z,-149.4662,59.8456,268.17,0.1,245.39,156.67,-0.42,0.36,-0.0,1020.9,12.3,77.6,196.5,3.2,348.7,104.25,418.65
SKQ202110S,TSG,2021-06-28T04:23:00Z,-149.4663,59.8455,268.15,0.1,253.42,156.59,-0.17,0.4,0.0,1020.89,12.3,75.7,207.8,3.3,348.38,121.25,510.93
SKQ202110S,TSG,2021-06-28T04:24:00Z,-149.4663,59.8455,268.28,0.1,250.52,156.31,-0.47,0.41,0.01,1020.89,12.3,74.4,209.6,3.2,348.35,120.62,497.38
SKQ202110S,TSG,2021-06-28T04:25:00Z,-149.4664,59.8455,268.24,0.0,229.41,156.0,-0.42,0.38,-0.0,1020.9,12.3,74.5,206.9,3.6,347.49,110.58,455.03
SKQ202110S,TSG,2021-06-28T04:26:00Z,-149.4664,59.8455,268.25,0.0,49.58,156.31,-0.47,0.42,0.0,1020.89,12.4,75.6,215.1,3.7,347.08,105.64,438.8
SKQ202110S,TSG,2021-06-28T04:27:00Z,-149.4664,59.8455,268.21,0.1,69.01,156.49,-0.45,0.39,0.0,1020.89,12.4,74.9,212.9,4.0,346.5,104.05,432.34
SKQ202110S,TSG,2021-06-28T04:28:00Z,-149.4663,59.8455,268.36,0.1,73.16,156.76,-0.53,0.4,0.01,1020.89,12.4,75.3,211.8,4.1,346.16,101.81,434.54
SKQ202110S,TSG,2021-06-28T04:29:00Z,-149.4663,59.8455,268.2,0.1,66.06,156.72,-0.51,0.36,0.0,1020.89,12.4,75.8,221.5,4.1,345.5,101.15,443.66
SKQ202110S,TSG,2021-06-28T04:30:00Z,-149.4663,59.8455,268.04,0.1,59.44,156.66,-0.49,0.42,-0.0,1020.89,12.4,75.3,224.0,4.5,345.68,139.5,682.27
SKQ202110S,TSG,2021-06-28T04:31:00Z,-149.4662,59.8456,268.02,0.1,74.61,156.69,-0.53,0.4,0.0,1020.89,12.4,77.1,224.3,5.3,345.2,93.78,397.47
SKQ202110S,TSG,2021-06-28T04:32:00Z,-149.4662,59.8456,268.31,0.1,64.29,156.67,-0.47,0.37,0.0,1020.91,12.4,77.4,221.8,4.9,344.79,82.96,384.27
SKQ202110S,TSG,2021-06-28T04:33:00Z,-149.4661,59.8456,268.09,0.1,66.49,156.72,-0.52,0.4,0.0,1020.9,12.4,76.5,216.6,4.6,344.82,78.68,368.36
SKQ202110S,TSG,2021-06-28T04:34:00Z,-149.4661,59.8456,268.04,0.1,67.81,156.71,-0.49,0.37,0.0,1020.9,12.4,77.6,220.1,4.7,344.59,78.57,370.79
SKQ202110S,TSG,2021-06-28T04:35:00Z,-149.466,59.8456,268.22,0.1,71.2,156.62,-0.5,0.4,-0.0,1020.9,12.4,76.5,219.9,4.5,344.7,82.94,389.22
SKQ202110S,TSG,2021-06-28T04:36:00Z,-149.466,59.8456,268.34,0.1,67.24,156.59,-0.4,0.38,-0.0,1020.89,12.4,77.0,219.4,4.9,344.34,89.15,413.32
SKQ202110S,TSG,2021-06-28T04:37:00Z,-149.466,59.8456,268.23,0.1,66.1,156.62,-0.45,0.4,0.0,1020.89,12.4,77.0,217.5,4.9,345.1,91.22,411.43
SKQ202110S,TSG,2021-06-28T04:38:00Z,-149.4659,59.8456,268.22,0.1,67.97,156.47,-0.45,0.4,0.01,1020.88,12.4,77.3,214.9,5.1,345.58,99.96,460.79
SKQ202110S,TSG,2021-06-28T04:39:00Z,-149.4659,59.8456,268.14,0.1,61.55,156.54,-0.48,0.38,0.0,1020.86,12.4,78.2,211.8,5.2,346.79,113.57,544.49
SKQ202110S,TSG,2021-06-28T04:40:00Z,-149.4659,59.8456,268.02,0.1,63.72,156.69,-0.47,0.41,0.01,1020.86,12.3,76.4,208.5,5.0,347.9,124.32,666.77
SKQ202110S,TSG,2021-06-28T04:41:00Z,-149.4658,59.8456,268.04,0.1,60.77,156.67,-0.4,0.38,0.01,1020.85,12.3,76.5,205.2,4.8,349.48,157.03,645.23
SKQ202110S,TSG,2021-06-28T04:42:00Z,-149.4658,59.8456,268.15,0.0,75.74,156.7,-0.53,0.4,0.0,1020.84,12.4,77.0,202.8,4.5,350.53,116.99,538.59
SKQ202110S,TSG,2021-06-28T04:43:00Z,-149.4658,59.8457,267.86,0.0,68.24,156.8,-0.47,0.36,0.0,1020.84,12.4,78.8,202.8,4.4,352.08,120.6,513.77
SKQ202110S,TSG,2021-06-28T04:44:00Z,-149.4658,59.8457,267.91,0.0,352.03,156.69,-0.44,0.44,0.0,1020.83,12.3,76.4,203.3,4.1,353.8,135.02,710.49
SKQ202110S,TSG,2021-06-28T04:45:00Z,-149.4658,59.8457,267.84,0.0,166.52,156.7,-0.4,0.38,-0.0,1020.83,12.4,75.1,204.0,3.9,355.8,197.22,913.09
SKQ202110S,TSG,2021-06-28T04:46:00Z,-149.4658,59.8456,267.85,0.0,266.34,156.7,-0.41,0.4,-0.0,1020.82,12.4,75.7,203.8,3.8,355.64,107.33,454.54
SKQ202110S,TSG,2021-06-28T04:47:00Z,-149.4658,59.8456,267.87,0.0,232.99,156.65,-0.43,0.39,0.01,1020.82,12.4,76.5,200.6,3.9,355.08,114.63,588.85
SKQ202110S,TSG,2021-06-28T04:48:00Z,-149.4658,59.8456,268.01,0.0,210.36,156.48,-0.43,0.39,0.0,1020.82,12.4,76.4,194.8,4.3,354.6,121.94,533.32
SKQ202110S,TSG,2021-06-28T04:49:00Z,-149.4658,59.8456,268.62,0.0,266.46,156.49,-0.44,0.41,0.0,1020.81,12.4,78.1,199.5,4.8,353.75,89.24,400.3
SKQ202110S,TSG,2021-06-28T04:50:00Z,-149.4658,59.8456,268.29,0.0,197.38,156.53,-0.46,0.38,0.0,1020.81,12.4,78.5,196.4,5.1,353.82,86.27,393.34
SKQ202110S,TSG,2021-06-28T04:51:00Z,-149.4658,59.8456,268.12,0.0,133.23,156.52,-0.41,0.39,0.02,1020.82,12.3,78.5,199.0,5.0,354.99,94.23,445.26
SKQ202110S,TSG,2021-06-28T04:52:00Z,-149.4658,59.8456,268.5,0.0,354.65,156.44,-0.4,0.42,0.0,1020.81,12.2,78.8,200.1,5.0,356.73,83.71,377.97
SKQ202110S,TSG,2021-06-28T04:53:00Z,-149.4658,59.8456,268.02,0.0,64.34,156.69,-0.46,0.37,-0.0,1020.81,12.2,79.5,200.1,5.0,359.44,87.52,386.43
SKQ202110S,TSG,2021-06-28T04:54:00Z,-149.4658,59.8456,268.13,0.0,223.01,156.75,-0.36,0.41,0.01,1020.81,12.2,79.6,200.3,4.7,362.1,93.74,428.51
SKQ202110S,TSG,2021-06-28T04:55:00Z,-149.4658,59.8456,268.84,0.0,227.78,156.57,-0.38,0.38,-0.0,1020.81,12.2,78.7,201.3,4.6,364.94,88.64,371.24
SKQ202110S,TSG,2021-06-28T04:56:00Z,-149.4658,59.8456,268.17,0.0,281.21,156.61,-0.39,0.4,0.0,1020.81,12.2,79.4,197.9,4.8,367.18,85.19,355.88
SKQ202110S,TSG,2021-06-28T04:57:00Z,-149.4658,59.8456,268.68,0.0,347.04,156.51,-0.52,0.4,-0.0,1020.82,12.2,78.9,196.6,5.1,368.82,81.94,339.43
SKQ202110S,TSG,2021-06-28T04:58:00Z,-149.4658,59.8456,267.93,0.0,81.37,156.45,-0.45,0.38,0.0,1020.84,12.1,78.3,197.0,5.3,368.38,76.55,322.91
SKQ202110S,TSG,2021-06-28T04:59:00Z,-149.4658,59.8457,267.73,0.0,66.08,156.63,-0.4,0.39,0.0,1020.84,12.1,78.7,202.1,5.4,367.83,72.45,335.3
SKQ202110S,TSG,2021-06-28T05:00:00Z,-149.4658,59.8457,267.67,0.0,61.65,156.56,-0.39,0.41,0.01,1020.86,12.1,77.7,203.2,5.6,366.74,75.94,354.16
SKQ202110S,TSG,2021-06-28T05:01:00Z,-149.4657,59.8457,267.82,0.1,57.21,156.59,-0.73,0.38,0.0,1020.87,12.1,77.7,202.5,5.4,366.34,60.77,274.2
SKQ202110S,TSG,2021-06-28T05:02:00Z,-149.4657,59.8457,267.96,0.1,71.26,156.67,-0.74,0.37,-0.0,1020.88,12.1,78.7,201.4,5.7,367.06,58.74,261.68
SKQ202110S,TSG,2021-06-28T05:03:00Z,-149.4657,59.8457,267.92,0.1,55.12,156.55,-0.78,0.37,-0.0,1020.9,12.1,78.3,199.5,5.6,368.36,57.75,251.64
SKQ202110S,TSG,2021-06-28T05:04:00Z,-149.4656,59.8457,267.92,0.1,78.06,156.46,-0.73,0.4,0.0,1020.91,12.1,78.6,199.5,5.3,369.38,56.65,242.95
SKQ202110S,TSG,2021-06-28T05:05:00Z,-149.4656,59.8457,268.02,0.0,72.72,156.75,-0.68,0.39,0.0,1020.92,12.1,79.4,198.8,4.9,369.97,54.83,234.79
SKQ202110S,TSG,2021-06-28T05:06:00Z,-149.4656,59.8457,268.54,0.0,74.02,156.59,-0.74,0.36,0.01,1020.92,12.1,79.7,203.1,5.4,369.97,52.18,225.38
SKQ202110S,TSG,2021-06-28T05:07:00Z,-149.4656,59.8457,268.71,0.0,59.94,156.5,-0.74,0.38,0.0,1020.91,12.1,77.9,204.1,5.5,370.05,49.88,224.74
SKQ202110S,TSG,2021-06-28T05:08:00Z,-149.4656,59.8457,268.13,0.1,62.02,156.64,-0.79,0.38,-0.0,1020.92,12.1,78.5,204.1,5.0,370.54,48.97,213.46
SKQ202110S,TSG,2021-06-28T05:09:00Z,-149.4655,59.8457,268.01,0.1,71.41,156.35,-0.81,0.37,0.0,1020.92,12.1,80.0,206.6,4.8,371.31,48.07,212.61
SKQ202110S,TSG,2021-06-28T05:10:00Z,-149.4655,59.8457,267.83,0.1,69.42,156.62,-0.79,0.38,0.0,1020.92,12.1,79.9,208.0,5.0,372.2,47.67,207.45
SKQ202110S,TSG,2021-06-28T05:11:00Z,-149.4654,59.8457,267.76,0.1,71.76,158.52,-0.76,0.38,0.0,1020.93,12.1,79.2,206.1,4.6,372.42,46.9,201.46
SKQ202110S,TSG,2021-06-28T05:12:00Z,-149.4653,59.8458,268.06,0.1,65.85,158.72,-0.83,0.35,-0.0,1020.93,12.1,78.5,204.8,4.9,372.77,46.01,198.06
SKQ202110S,TSG,2021-06-28T05:13:00Z,-149.4652,59.8458,267.74,0.1,67.14,158.58,-0.72,0.38,0.0,1020.92,12.2,79.0,203.6,5.3,372.58,44.77,194.36
SKQ202110S,TSG,2021-06-28T05:14:00Z,-149.4652,59.8458,267.93,0.1,75.23,158.83,-0.75,0.37,-0.0,1020.92,12.2,79.0,200.7,5.5,372.65,43.43,190.56
SKQ202110S,TSG,2021-06-28T05:15:00Z,-149.4651,59.8458,267.96,0.2,63.89,159.79,-0.77,0.38,0.0,1020.92,12.2,78.1,203.2,5.8,372.39,42.2,186.91
SKQ202110S,TSG,2021-06-28T05:16:00Z,-149.465,59.8458,267.75,0.2,69.05,160.44,-0.74,0.4,0.0,1020.91,12.2,79.5,202.5,5.7,371.8,40.87,182.92
SKQ202110S,TSG,2021-06-28T05:17:00Z,-149.4649,59.8458,268.0,0.2,77.39,162.78,-0.79,0.38,0.01,1020.91,12.1,78.7,199.3,5.6,371.27,39.52,179.25
SKQ202110S,TSG,2021-06-28T05:18:00Z,-149.4648,59.8458,268.19,0.1,81.1,165.82,-0.81,0.37,0.0,1020.9,12.1,79.1,203.5,5.1,370.55,38.58,176.15
SKQ202110S,TSG,2021-06-28T05:19:00Z,-149.4647,59.8458,267.86,0.1,79.68,165.66,-0.79,0.38,0.0,1020.9,12.1,78.3,205.0,5.0,369.04,37.75,172.95
SKQ202110S,TSG,2021-06-28T05:20:00Z,-149.4647,59.8459,267.75,0.1,75.92,165.65,-0.78,0.38,-0.0,1020.89,12.1,78.2,202.8,4.7,367.88,36.93,170.44
SKQ202110S,TSG,2021-06-28T05:21:00Z,-149.4646,59.8459,267.86,0.1,75.03,165.62,-0.82,0.34,-0.0,1020.88,12.1,78.1,202.4,4.4,366.34,36.23,168.92
SKQ202110S,TSG,2021-06-28T05:22:00Z,-149.4645,59.8459,268.21,0.1,78.76,165.69,-0.76,0.4,0.01,1020.86,12.1,78.7,202.5,4.1,365.33,35.97,169.07
SKQ202110S,TSG,2021-06-28T05:23:00Z,-149.4645,59.8459,267.89,0.2,73.2,166.82,-0.78,0.4,0.0,1020.85,12.2,79.3,199.7,4.1,365.39,36.71,171.15
SKQ202110S,TSG,2021-06-28T05:24:00Z,-149.4644,59.8459,267.83,0.1,85.71,171.7,-0.7,0.36,0.0,1020.85,12.1,79.9,172.6,3.3,367.23,38.97,175.69
SKQ202110S,TSG,2021-06-28T05:25:00Z,-149.4643,59.8459,268.06,0.1,90.71,171.75,-0.78,0.39,0.01,1020.86,12.1,80.6,169.4,3.7,370.26,42.09,180.7
SKQ202110S,TSG,2021-06-28T05:26:00Z,-149.4643,59.8459,267.69,0.0,66.34,171.8,-0.91,0.38,0.0,1020.86,12.0,79.1,174.6,3.8,371.6,45.23,185.89
SKQ202110S,TSG,2021-06-28T05:27:00Z,-149.4643,59.8459,267.74,0.0,84.76,171.62,-0.74,0.36,-0.0,1020.87,11.9,78.8,169.4,3.6,373.73,48.26,191.68
SKQ202110S,TSG,2021-06-28T05:28:00Z,-149.4642,59.8459,268.05,0.0,107.3,171.63,-0.8,0.37,0.01,1020.87,11.9,79.0,167.8,3.8,374.84,50.33,195.43
SKQ202110S,TSG,2021-06-28T05:29:00Z,-149.4642,59.8459,267.87,0.0,63.1,171.59,-0.8,0.38,0.0,1020.85,11.9,78.9,167.8,4.1,375.68,51.65,200.51
SKQ202110S,TSG,2021-06-28T05:30:00Z,-149.4642,59.8459,267.58,0.0,112.2,171.62,-0.82,0.38,0.01,1020.84,11.9,79.3,163.7,4.0,376.02,54.46,216.32
SKQ202110S,TSG,2021-06-28T05:31:00Z,-149.4642,59.8459,267.79,0.0,95.7,171.61,-0.82,0.38,0.0,1020.81,11.9,80.2,163.2,4.2,374.43,62.57,225.35
SKQ202110S,TSG,2021-06-28T05:32:00Z,-149.4642,59.8459,267.69,0.0,215.32,171.64,-0.84,0.37,0.01,1020.79,11.8,80.5,162.3,3.8,373.47,50.35,194.03
SKQ202110S,TSG,2021-06-28T05:33:00Z,-149.4642,59.8459,267.52,0.0,235.57,171.63,-0.75,0.36,0.0,1020.77,11.8,80.0,155.9,3.8,372.09,48.82,190.71
SKQ202110S,TSG,2021-06-28T05:34:00Z,-149.4642,59.8459,267.59,0.0,292.79,171.57,-0.78,0.39,0.0,1020.76,11.8,79.2,153.1,3.7,370.7,49.23,194.66
SKQ202110S,TSG,2021-06-28T05:35:00Z,-149.4642,59.8459,267.83,0.0,212.64,171.58,-0.85,0.37,0.0,1020.75,11.8,79.0,150.6,3.9,369.48,51.98,216.23
SKQ202110S,TSG,2021-06-28T05:36:00Z,-149.4642,59.8459,268.71,0.0,251.55,171.63,-0.78,0.37,0.01,1020.76,11.8,77.6,147.8,3.5,368.91,52.3,213.1
SKQ202110S,TSG,2021-06-28T05:37:00Z,-149.4642,59.8459,267.78,0.0,258.9,171.76,-0.82,0.38,0.01,1020.75,11.8,77.5,150.5,3.4,369.26,53.56,217.49
SKQ202110S,TSG,2021-06-28T05:38:00Z,-149.4643,59.8459,267.64,0.0,260.86,171.63,-0.77,0.37,0.0,1020.75,11.8,77.2,153.8,3.6,371.03,53.72,214.08
SKQ202110S,TSG,2021-06-28T05:39:00Z,-149.4643,59.8459,267.78,0.0,257.21,171.63,-0.82,0.38,-0.0,1020.75,11.8,77.3,154.0,4.0,371.89,53.77,210.51
SKQ202110S,TSG,2021-06-28T05:40:00Z,-149.4643,59.8459,267.76,0.0,215.9,171.7,-0.81,0.36,0.02,1020.75,11.8,77.4,154.9,4.2,373.92,52.53,206.17
SKQ202110S,TSG,2021-06-28T05:41:00Z,-149.4643,59.8459,267.53,0.0,327.59,171.59,-0.85,0.39,-0.0,1020.74,11.8,77.9,154.7,4.5,376.11,49.51,197.73
SKQ202110S,TSG,2021-06-28T05:42:00Z,-149.4643,59.8459,267.56,0.0,232.98,171.69,-0.8,0.39,0.0,1020.75,11.8,78.4,152.0,4.5,376.79,46.16,194.31
SKQ202110S,TSG,2021-06-28T05:43:00Z,-149.4643,59.8459,267.58,0.0,272.93,171.65,-0.77,0.36,0.01,1020.75,11.8,78.4,154.1,4.2,376.91,44.07,195.96
SKQ202110S,TSG,2021-06-28T05:44:00Z,-149.4643,59.8459,267.63,0.0,259.3,171.55,-0.78,0.39,0.0,1020.73,11.8,78.2,155.8,4.3,376.57,41.77,190.39
SKQ202110S,TSG,2021-06-28T05:45:00Z,-149.4643,59.8459,267.58,0.0,221.76,171.55,-0.86,0.35,-0.0,1020.71,11.8,76.8,157.5,3.6,375.04,39.08,181.81
SKQ202110S,TSG,2021-06-28T05:46:00Z,-149.4643,59.8459,267.59,0.0,159.92,171.6,-0.81,0.37,0.01,1020.67,11.8,77.4,160.3,3.7,373.16,36.02,172.08
SKQ202110S,TSG,2021-06-28T05:47:00Z,-149.4643,59.8459,267.59,0.0,341.29,171.67,-0.8,0.38,-0.0,1020.64,11.8,76.5,155.5,3.3,372.1,33.79,170.92
SKQ202110S,TSG,2021-06-28T05:48:00Z,-149.4643,59.8459,267.59,0.0,163.49,171.64,-0.81,0.38,0.01,1020.62,11.8,77.2,156.3,3.5,371.21,43.61,296.69
SKQ202110S,TSG,2021-06-28T05:49:00Z,-149.4643,59.8459,267.58,0.0,255.06,171.66,-0.8,0.37,0.0,1020.6,11.8,78.3,162.0,3.4,372.0,35.82,179.4
SKQ202110S,TSG,2021-06-28T05:50:00Z,-149.4643,59.8459,267.64,0.0,162.98,171.66,-0.8,0.37,0.0,1020.6,11.8,78.3,154.9,3.5,373.86,30.56,164.23
SKQ202110S,TSG,2021-06-28T05:51:00Z,-149.4643,59.8459,267.69,0.0,197.16,171.59,-0.8,0.36,-0.0,1020.59,11.8,78.5,157.2,3.6,375.66,29.62,158.65
SKQ202110S,TSG,2021-06-28T05:52:00Z,-149.4643,59.8459,267.66,0.0,291.63,171.64,-0.59,0.4,0.0,1020.58,11.8,77.9,159.2,2.7,378.45,28.82,156.0
SKQ202110S,TSG,2021-06-28T05:53:00Z,-149.4644,59.8459,267.71,0.0,225.86,171.69,-0.61,0.38,-0.0,1020.58,11.8,78.4,160.7,2.9,379.48,29.23,174.71
SKQ202110S,TSG,2021-06-28T05:54:00Z,-149.4644,59.8459,267.79,0.0,172.89,171.58,-0.79,0.38,0.01,1020.57,11.8,78.2,158.3,3.0,380.57,29.34,172.35
SKQ202110S,TSG,2021-06-28T05:55:00Z,-149.4644,59.8459,267.78,0.0,334.76,171.68,-0.83,0.39,0.0,1020.57,11.8,79.1,153.7,2.8,381.42,27.35,168.1
SKQ202110S,TSG,2021-06-28T05:56:00Z,-149.4644,59.8459,267.87,0.0,269.15,171.74,-0.82,0.35,0.0,1020.56,11.8,78.9,154.4,2.8,383.21,27.78,180.36
SKQ202110S,TSG,2021-06-28T05:57:00Z,-149.4644,59.8459,268.41,0.0,206.66,171.69,-0.76,0.37,0.01,1020.54,11.8,80.0,150.2,2.9,384.34,26.61,159.77
SKQ202110S,TSG,2021-06-28T05:58:00Z,-149.4644,59.8459,268.21,0.0,253.86,171.56,-0.78,0.38,0.0,1020.53,11.8,80.1,144.4,2.8,385.73,25.19,156.42
SKQ202110S,TSG,2021-06-28T05:59:00Z,-149.4644,59.8459,268.17,0.0,259.33,171.65,-0.76,0.4,0.0,1020.52,11.8,80.2,130.6,3.2,386.74,25.84,161.94
SKQ202110S,TSG,2021-06-28T06:00:00Z,-149.4644,59.8459,267.94,0.0,239.93,171.75,-0.74,0.36,0.01,1020.52,11.8,80.9,127.0,3.5,387.46,26.11,200.28
SKQ202110S,TSG,2021-06-28T06:01:00Z,-149.4644,59.8459,267.93,0.0,266.37,171.7,-0.74,0.38,0.0,1020.51,11.7,80.8,121.6,3.4,388.18,34.36,237.03
SKQ202110S,TSG,2021-06-28T06:02:00Z,-149.4644,59.8459,268.01,0.0,260.59,171.68,-0.74,0.39,-0.0,1020.51,11.7,80.7,112.3,3.1,388.65,29.5,195.19
SKQ202110S,TSG,2021-06-28T06:03:00Z,-149.4645,59.8459,268.04,0.0,266.97,171.64,-0.72,0.37,0.0,1020.5,11.7,81.1,114.4,3.4,388.56,23.58,142.58
SKQ202110S,TSG,2021-06-28T06:04:00Z,-149.4645,59.8459,267.98,0.0,251.06,171.59,-0.7,0.37,0.0,1020.49,11.6,81.2,114.4,3.1,388.57,24.59,141.93
SKQ202110S,TSG,2021-06-28T06:05:00Z,-149.4645,59.8459,268.4,0.0,247.32,171.62,-0.74,0.4,0.01,1020.47,11.6,82.2,109.0,3.3,388.11,25.02,140.98
SKQ202110S,TSG,2021-06-28T06:06:00Z,-149.4645,59.8459,267.82,0.0,266.21,171.66,-0.76,0.37,0.0,1020.45,11.6,82.6,100.4,3.3,386.6,24.17,136.7
SKQ202110S,TSG,2021-06-28T06:07:00Z,-149.4646,59.8459,267.84,0.0,240.94,171.6,-0.75,0.38,0.01,1020.43,11.6,79.5,99.8,3.7,385.76,21.98,129.84
SKQ202110S,TSG,2021-06-28T06:08:00Z,-149.4646,59.8459,267.73,0.1,267.98,171.73,-0.75,0.37,0.0,1020.42,11.6,76.8,91.5,3.9,385.27,19.45,123.01
SKQ202110S,TSG,2021-06-28T06:09:00Z,-149.4646,59.8459,267.84,0.0,269.99,171.65,-0.7,0.4,-0.0,1020.42,11.6,76.9,92.0,3.5,385.49,17.3,116.84
SKQ202110S,TSG,2021-06-28T06:10:00Z,-149.4646,59.8459,267.78,0.0,242.71,171.57,-0.69,0.37,0.0,1020.43,11.6,78.6,93.2,3.1,386.63,16.49,119.98
SKQ202110S,TSG,2021-06-28T06:11:00Z,-149.4647,59.8459,267.84,0.0,282.18,171.66,-0.77,0.38,0.01,1020.42,11.6,79.0,95.3,3.1,388.12,16.82,128.45
SKQ202110S,TSG,2021-06-28T06:12:00Z,-149.4647,59.8459,268.27,0.0,287.28,171.67,-0.75,0.38,0.0,1020.4,11.6,78.6,96.0,3.1,388.08,17.36,139.14
SKQ202110S,TSG,2021-06-28T06:13:00Z,-149.4647,59.8459,267.82,0.0,189.49,171.65,-0.75,0.37,0.01,1020.39,11.6,79.3,94.1,2.9,387.88,14.81,114.74
SKQ202110S,TSG,2021-06-28T06:14:00Z,-149.4647,59.8459,267.77,0.0,298.81,171.57,-0.72,0.38,0.0,1020.35,11.5,79.1,91.9,2.9,387.64,17.26,146.98
SKQ202110S,TSG,2021-06-28T06:15:00Z,-149.4647,59.8459,267.63,0.0,234.87,171.71,-0.76,0.38,0.0,1020.33,11.5,79.6,88.8,2.6,387.67,11.72,92.16
SKQ202110S,TSG,2021-06-28T06:16:00Z,-149.4647,59.8459,267.47,0.0,275.28,171.61,-0.74,0.36,-0.0,1020.3,11.5,79.7,88.7,2.9,387.7,10.66,86.0
SKQ202110S,TSG,2021-06-28T06:17:00Z,-149.4647,59.8459,267.52,0.0,349.06,171.59,-0.73,0.39,-0.0,1020.29,11.5,79.9,89.3,2.6,387.71,9.91,82.35
SKQ202110S,TSG,2021-06-28T06:18:00Z,-149.4647,59.8459,267.5,0.0,186.78,171.57,-0.73,0.36,0.0,1020.29,11.5,80.5,93.6,2.6,388.4,11.66,111.35
SKQ202110S,TSG,2021-06-28T06:19:00Z,-149.4647,59.8459,267.55,0.0,69.78,171.62,-0.65,0.39,0.0,1020.28,11.5,80.7,98.3,2.5,389.34,12.54,125.68
SKQ202110S,TSG,2021-06-28T06:20:00Z,-149.4647,59.8459,267.51,0.0,221.76,171.64,-0.75,0.39,-0.0,1020.28,11.5,80.8,109.6,2.3,390.21,10.65,99.3
SKQ202110S,TSG,2021-06-28T06:21:00Z,-149.4647,59.8459,267.53,0.0,108.99,171.61,-0.72,0.37,0.01,1020.27,11.5,81.2,107.2,2.3,390.23,8.44,83.67
SKQ202110S,TSG,2021-06-28T06:22:00Z,-149.4647,59.8458,267.9,0.3,168.42,171.78,-0.71,0.4,0.0,1020.26,11.4,79.4,111.0,1.6,390.58,11.28,120.3
SKQ202110S,TSG,2021-06-28T06:23:00Z,-149.4646,59.8456,267.86,1.5,170.12,172.36,-0.62,0.37,0.0,1020.26,11.5,80.1,119.6,1.6,391.2,8.6,81.45
SKQ202110S,TSG,2021-06-28T06:24:00Z,-149.4644,59.8451,268.08,2.4,171.59,173.03,-0.71,0.39,-0.0,1020.26,11.5,80.6,112.0,1.4,390.79,7.52,71.9
SKQ202110S,TSG,2021-06-28T06:25:00Z,-149.4642,59.8443,267.96,3.2,171.5,171.42,-0.65,0.41,0.0,1020.26,11.5,81.0,104.6,1.6,389.16,7.54,69.32
SKQ202110S,TSG,2021-06-28T06:26:00Z,-149.4638,59.8432,268.59,5.0,164.56,163.11,-0.42,0.42,-0.0,1020.27,11.5,81.2,101.2,1.9,386.58,7.44,67.62
SKQ202110S,TSG,2021-06-28T06:27:00Z,-149.4627,59.8417,268.64,6.9,159.16,159.5,-0.71,0.39,0.01,1020.28,11.5,81.1,97.4,1.6,385.49,6.76,65.85
SKQ202110S,TSG,2021-06-28T06:28:00Z,-149.4612,59.8397,268.8,7.9,159.35,159.78,-0.63,0.4,0.0,1020.29,11.5,81.2,94.4,1.7,384.66,6.08,64.09
SKQ202110S,TSG,2021-06-28T06:29:00Z,-149.4596,59.8376,268.63,8.3,159.45,159.77,-0.59,0.4,0.0,1020.3,11.4,81.2,84.5,1.9,384.94,5.45,62.33
SKQ202110S,TSG,2021-06-28T06:30:00Z,-149.458,59.8354,268.96,8.5,159.68,159.81,-0.63,0.41,0.01,1020.31,11.4,82.1,80.8,2.0,385.6,5.13,60.85
SKQ202110S,TSG,2021-06-28T06:31:00Z,-149.4564,59.8332,270.34,8.6,159.0,158.99,-0.61,0.39,0.0,1020.32,11.4,81.4,77.5,2.1,386.61,4.92,59.6
SKQ202110S,TSG,2021-06-28T06:32:00Z,-149.4545,59.831,272.05,9.1,155.74,155.58,-0.55,0.42,0.01,1020.33,11.4,81.5,82.5,2.0,387.85,4.86,58.43
SKQ202110S,TSG,2021-06-28T06:33:00Z,-149.4522,59.8286,274.59,9.8,148.21,146.11,0.01,0.47,0.0,1020.33,11.4,81.7,72.5,2.0,389.95,5.01,56.33
SKQ202110S,TSG,2021-06-28T06:34:00Z,-149.4486,59.8265,274.66,10.1,132.37,131.79,-0.43,0.43,0.0,1020.35,11.5,81.8,64.4,1.1,391.96,5.55,54.43
SKQ202110S,TSG,2021-06-28T06:35:00Z,-149.4443,59.8247,274.82,10.4,130.83,130.92,-0.59,0.41,0.01,1020.35,11.5,82.0,73.3,0.6,392.67,6.38,54.14
SKQ202110S,TSG,2021-06-28T06:36:00Z,-149.44,59.8228,275.0,10.4,130.72,130.84,-0.71,0.43,-0.0,1020.35,11.5,81.8,207.0,0.7,392.27,7.27,53.94
SKQ202110S,TSG,2021-06-28T06:37:00Z,-149.4356,59.8209,275.14,10.5,130.75,130.88,-0.71,0.41,-0.0,1020.34,11.5,82.0,205.8,1.5,391.58,8.1,53.92
SKQ202110S,TSG,2021-06-28T06:38:00Z,-149.4313,59.819,275.32,10.4,131.14,131.15,-0.77,0.4,0.0,1020.34,11.5,82.0,227.8,2.0,391.04,8.5,53.53
SKQ202110S,TSG,2021-06-28T06:39:00Z,-149.427,59.8171,275.54,10.6,131.24,131.26,-0.83,0.41,0.01,1020.34,11.5,81.5,210.3,2.4,390.29,8.54,52.64
SKQ202110S,TSG,2021-06-28T06:40:00Z,-149.4226,59.8151,275.73,10.7,131.53,131.22,-0.74,0.42,0.0,1020.36,11.6,83.8,185.8,2.0,389.21,8.48,51.71
SKQ202110S,TSG,2021-06-28T06:41:00Z,-149.4182,59.8132,275.72,10.7,131.42,131.18,-0.84,0.39,0.01,1020.38,11.5,84.8,188.7,2.1,388.93,8.25,50.45
SKQ202110S,TSG,2021-06-28T06:42:00Z,-149.4138,59.8112,275.93,10.7,131.49,131.07,-0.8,0.4,0.0,1020.39,11.4,85.2,196.7,2.2,389.12,7.64,48.68
SKQ202110S,TSG,2021-06-28T06:43:00Z,-149.4094,59.8092,275.98,10.8,131.77,131.24,-0.85,0.41,0.0,1020.38,11.3,84.4,210.8,2.0,389.42,6.87,46.96
SKQ202110S,TSG,2021-06-28T06:44:00Z,-149.4049,59.8072,275.72,10.8,131.6,130.93,-0.77,0.42,0.0,1020.36,11.3,84.2,209.5,2.8,389.34,5.94,45.07
SKQ202110S,TSG,2021-06-28T06:45:00Z,-149.4005,59.8053,275.62,10.8,131.91,131.44,-0.88,0.4,0.01,1020.35,11.3,84.8,208.3,4.0,388.61,4.88,43.11
SKQ202110S,TSG,2021-06-28T06:46:00Z,-149.3961,59.8032,276.23,10.8,131.59,130.93,-0.93,0.41,-0.0,1020.33,11.2,85.0,209.4,4.7,387.35,4.02,41.34
SKQ202110S,TSG,2021-06-28T06:47:00Z,-149.3916,59.8013,275.87,10.8,131.77,131.04,-0.97,0.4,-0.0,1020.31,11.2,86.0,211.2,5.7,385.77,3.29,39.92
SKQ202110S,TSG,2021-06-28T06:48:00Z,-149.3872,59.7993,273.32,10.7,132.42,131.6,-0.83,0.41,-0.0,1020.29,11.1,85.8,211.4,6.5,384.2,2.68,38.82
SKQ202110S,TSG,2021-06-28T06:49:00Z,-149.3829,59.7973,269.81,10.7,132.29,131.32,-1.07,0.4,-0.0,1020.27,11.1,85.8,216.1,7.6,382.39,2.16,37.73
SKQ202110S,TSG,2021-06-28T06:50:00Z,-149.3785,59.7953,267.49,10.8,132.14,131.06,-1.11,0.38,-0.0,1020.26,11.0,85.7,212.7,8.1,381.52,1.72,36.72
SKQ202110S,TSG,2021-06-28T06:51:00Z,-149.3741,59.7932,266.6,10.8,132.69,131.52,-1.06,0.42,0.01,1020.25,11.0,86.3,210.2,7.7,382.08,1.31,35.58
SKQ202110S,TSG,2021-06-28T06:52:00Z,-149.3697,59.7912,266.14,10.8,132.69,131.13,-1.18,0.39,-0.0,1020.27,10.9,87.0,212.1,7.4,384.13,0.85,34.24
SKQ202110S,TSG,2021-06-28T06:53:00Z,-149.3654,59.7892,266.44,10.9,132.55,130.77,-1.22,0.38,0.0,1020.29,10.9,87.0,212.0,7.5,387.29,0.24,32.58
SKQ202110S,TSG,2021-06-28T06:54:00Z,-149.361,59.7871,267.67,10.9,133.17,131.13,-1.08,0.42,0.0,1020.3,10.8,86.9,212.2,7.4,390.0,-0.6,30.47
SKQ202110S,TSG,2021-06-28T06:55:00Z,-149.3566,59.785,268.88,11.0,133.51,131.1,-1.02,0.39,0.0,1020.31,10.8,86.9,214.0,7.4,391.74,-1.56,28.08
SKQ202110S,TSG,2021-06-28T06:56:00Z,-149.3522,59.7829,268.61,11.0,133.54,131.1,-1.03,0.4,0.0,1020.31,10.8,87.1,213.6,7.4,392.51,-2.4,25.91
