Cruise,Type,Date_Time_[UTC],Longitude_[decimal_degrees_east],Latitude_[decimal_degrees_north],Bottom_Depth_[m],Speed_[knots],Course_[degrees_true],Heading_[degree],Roll_[degree],Pitch_[degree],Heave,Atmos_Pressure_[hPa],Air_Temperature_[C],Relative_Humidity_[%],Wind_Dir_[degrees_true],Wind_Speed_[knots],Longwave_Downwelling_[W/m2],Shortwave_Downwelling_[W/m2],PAR_[uE/m2/s]
SKQ201810S,TSG,2018-04-18T17:11:00Z,-149.4102,60.0858,186.66,5.5,125.69,124.5,0.18,0.64,-0.0,1002.4,2.8,90.0,188.4,6.5,521.81,49.5,239.89
SKQ201810S,TSG,2018-04-18T17:12:00Z,-149.4077,60.0849,191.64,5.5,125.61,124.45,0.17,0.64,-0.0,1002.43,2.7,90.4,172.7,7.6,516.11,51.03,244.51
SKQ201810S,TSG,2018-04-18T17:13:00Z,-149.4052,60.084,196.5,5.5,126.05,124.56,0.21,0.64,-0.0,1002.5,2.6,90.2,171.2,6.7,517.5,53.01,250.45
SKQ201810S,TSG,2018-04-18T17:14:00Z,-149.4028,60.0832,205.88,5.4,126.9,128.0,0.06,0.64,-0.0,1002.43,2.6,90.1,193.9,5.8,521.1,55.13,256.03
SKQ201810S,TSG,2018-04-18T17:15:00Z,-149.4006,60.0821,217.66,5.3,142.06,147.1,-0.16,0.63,0.0,1002.4,2.6,90.4,214.8,6.2,524.25,57.87,263.01
SKQ201810S,TSG,2018-04-18T17:16:00Z,-149.3992,60.0809,220.92,5.2,160.62,163.09,0.01,0.63,-0.0,1002.4,2.6,90.0,215.2,5.7,521.56,60.71,269.11
SKQ201810S,TSG,2018-04-18T17:17:00Z,-149.3984,60.0795,223.89,5.4,162.19,161.48,0.23,0.65,0.0,1002.4,2.6,90.3,193.9,4.7,520.38,62.32,273.8
SKQ201810S,TSG,2018-04-18T17:18:00Z,-149.3974,60.078,219.84,5.7,161.27,160.82,0.23,0.64,0.0,1002.47,2.6,90.7,166.6,4.8,523.27,64.34,279.38
SKQ201810S,TSG,2018-04-18T17:19:00Z,-149.3964,60.0765,217.28,5.8,161.48,161.04,0.24,0.64,-0.0,1002.5,2.6,90.8,153.1,4.3,520.45,66.84,285.71
SKQ201810S,TSG,2018-04-18T17:20:00Z,-149.3954,60.075,222.72,5.9,161.84,161.3,0.25,0.64,0.0,1002.5,2.6,90.8,146.8,4.4,522.09,68.75,290.94
SKQ201810S,TSG,2018-04-18T17:21:00Z,-149.3943,60.0734,236.2,5.9,161.88,161.44,0.24,0.64,0.0,1002.5,2.7,90.9,151.3,4.5,519.54,68.11,291.1
SKQ201810S,TSG,2018-04-18T17:22:00Z,-149.3933,60.0719,247.29,6.1,161.97,161.56,0.24,0.65,0.01,1002.47,2.7,90.8,152.8,4.7,514.58,67.49,291.15
SKQ201810S,TSG,2018-04-18T17:23:00Z,-149.3922,60.0702,257.73,6.9,162.01,161.73,0.24,0.66,0.0,1002.46,2.6,89.5,150.0,4.5,518.04,68.37,294.32
SKQ201810S,TSG,2018-04-18T17:24:00Z,-149.391,60.0682,269.22,7.6,161.86,161.78,0.25,0.66,0.0,1002.4,2.7,89.5,162.6,4.7,521.27,68.85,296.5
SKQ201810S,TSG,2018-04-18T17:25:00Z,-149.3896,60.0662,280.68,7.9,162.04,161.99,0.24,0.65,0.0,1002.4,2.7,89.5,167.6,5.8,525.98,68.43,297.96
SKQ201810S,TSG,2018-04-18T17:26:00Z,-149.3882,60.0641,286.31,8.0,161.76,161.88,0.25,0.65,-0.0,1002.49,2.6,89.6,166.9,5.5,516.47,70.68,304.87
SKQ201810S,TSG,2018-04-18T17:27:00Z,-149.3869,60.062,286.07,8.0,161.83,162.01,0.22,0.65,-0.0,1002.42,2.6,90.2,163.9,5.3,514.75,75.77,315.55
SKQ201810S,TSG,2018-04-18T17:28:00Z,-149.3855,60.0599,274.12,8.0,161.89,161.96,0.22,0.65,-0.0,1002.4,2.6,90.5,177.7,4.9,517.47,77.38,318.28
SKQ201810S,TSG,2018-04-18T17:29:00Z,-149.3841,60.0578,281.9,8.0,161.78,161.82,0.21,0.65,-0.0,1002.4,2.6,90.7,176.7,4.6,519.54,74.96,312.33
SKQ201810S,TSG,2018-04-18T17:30:00Z,-149.3827,60.0557,288.71,8.0,162.43,161.94,0.22,0.65,-0.0,1002.38,2.6,91.0,169.3,4.5,526.42,73.12,308.54
SKQ201810S,TSG,2018-04-18T17:31:00Z,-149.3814,60.0536,285.49,8.0,162.19,161.73,0.23,0.65,-0.0,1002.4,2.6,90.8,154.1,5.2,521.27,74.54,310.95
SKQ201810S,TSG,2018-04-18T17:32:00Z,-149.3801,60.0515,286.84,7.9,162.59,161.78,0.27,0.66,0.0,1002.37,2.6,91.2,133.5,5.8,520.17,75.18,310.73
SKQ201810S,TSG,2018-04-18T17:33:00Z,-149.3787,60.0494,289.17,7.9,162.48,161.85,0.28,0.66,-0.0,1002.3,2.4,92.4,128.1,5.5,518.88,72.95,304.15
SKQ201810S,TSG,2018-04-18T17:34:00Z,-149.3774,60.0473,290.44,8.0,162.55,161.92,0.29,0.66,0.01,1002.3,2.4,92.9,123.2,4.7,519.41,69.73,297.06
SKQ201810S,TSG,2018-04-18T17:35:00Z,-149.3761,60.0452,290.34,8.0,162.52,161.94,0.27,0.66,-0.0,1002.3,2.4,92.8,126.3,4.1,523.49,67.91,292.44
SKQ201810S,TSG,2018-04-18T17:36:00Z,-149.3748,60.0431,290.68,8.0,162.7,161.98,0.27,0.65,-0.0,1002.32,2.5,92.6,116.0,5.1,523.5,64.97,285.39
SKQ201810S,TSG,2018-04-18T17:37:00Z,-149.3735,60.041,290.74,8.0,162.54,161.73,0.29,0.66,-0.0,1002.3,2.5,91.8,117.2,5.0,520.84,61.7,277.68
SKQ201810S,TSG,2018-04-18T17:38:00Z,-149.3721,60.0388,290.36,8.0,162.66,161.86,0.29,0.65,-0.0,1002.3,2.6,91.7,112.0,3.3,518.94,59.63,273.3
SKQ201810S,TSG,2018-04-18T17:39:00Z,-149.3707,60.0367,290.71,8.1,160.87,160.15,0.3,0.66,-0.0,1002.3,2.6,91.8,88.3,2.0,518.39,60.06,274.76
SKQ201810S,TSG,2018-04-18T17:40:00Z,-149.3693,60.0346,290.62,8.1,160.45,160.0,0.3,0.66,-0.0,1002.3,2.6,92.1,86.5,3.0,524.1,61.61,279.17
SKQ201810S,TSG,2018-04-18T17:41:00Z,-149.3678,60.0325,290.48,8.1,160.36,159.7,0.33,0.66,-0.0,1002.38,2.5,92.1,95.8,4.6,525.17,61.71,279.19
SKQ201810S,TSG,2018-04-18T17:42:00Z,-149.3663,60.0304,290.44,8.1,160.56,160.01,0.32,0.66,-0.0,1002.38,2.5,91.6,95.4,5.3,522.62,59.98,273.35
SKQ201810S,TSG,2018-04-18T17:43:00Z,-149.3648,60.0283,290.71,8.1,160.69,160.08,0.33,0.66,0.0,1002.34,2.6,92.1,96.7,4.9,526.64,57.06,265.34
SKQ201810S,TSG,2018-04-18T17:44:00Z,-149.3633,60.0262,290.78,7.5,159.45,156.92,0.4,0.65,0.0,1002.32,2.6,91.5,87.7,3.6,520.12,55.75,261.04
SKQ201810S,TSG,2018-04-18T17:45:00Z,-149.3618,60.0245,290.78,6.4,154.79,156.7,0.2,0.66,0.01,1002.3,2.7,91.5,71.7,3.7,520.97,56.06,261.47
SKQ201810S,TSG,2018-04-18T17:46:00Z,-149.3607,60.023,291.22,4.9,164.08,162.91,0.27,0.66,-0.0,1002.3,2.7,91.5,69.1,4.4,524.98,57.91,265.55
SKQ201810S,TSG,2018-04-18T17:47:00Z,-149.36,60.0219,291.24,3.6,159.15,157.17,0.47,0.66,-0.0,1002.3,2.7,91.3,72.9,4.5,525.86,58.97,267.68
SKQ201810S,TSG,2018-04-18T17:48:00Z,-149.3594,60.0211,291.55,2.9,165.12,164.24,0.27,0.66,0.01,1002.33,2.7,90.4,78.2,5.4,525.85,58.55,265.93
SKQ201810S,TSG,2018-04-18T17:49:00Z,-149.359,60.0203,290.79,2.4,164.84,165.94,0.22,0.65,-0.0,1002.4,2.7,90.1,85.9,4.1,522.34,57.2,261.65
SKQ201810S,TSG,2018-04-18T17:50:00Z,-149.3588,60.0198,291.3,1.6,171.41,163.21,0.25,0.64,0.0,1002.4,2.8,90.2,91.0,3.1,525.89,55.28,255.35
SKQ201810S,TSG,2018-04-18T17:51:00Z,-149.3587,60.0195,291.93,0.5,156.67,156.96,0.52,0.67,-0.0,1002.32,2.8,90.0,70.5,1.8,526.89,52.75,248.5
SKQ201810S,TSG,2018-04-18T17:52:00Z,-149.3586,60.0194,292.03,0.7,174.56,183.51,0.17,0.64,0.0,1002.31,2.8,90.9,91.5,1.5,523.29,51.31,244.98
SKQ201810S,TSG,2018-04-18T17:53:00Z,-149.3586,60.0193,290.37,0.0,135.68,184.18,0.27,0.64,-0.0,1002.37,2.8,90.7,126.6,1.9,521.91,50.54,243.75
SKQ201810S,TSG,2018-04-18T17:54:00Z,-149.3585,60.0193,290.35,0.0,8.8,183.25,0.26,0.64,0.0,1002.34,2.8,90.4,94.4,1.8,521.33,50.76,245.18
SKQ201810S,TSG,2018-04-18T17:55:00Z,-149.3586,60.0193,290.52,0.0,207.69,183.63,0.29,0.64,-0.0,1002.3,2.8,90.0,74.5,2.3,525.94,51.54,247.49
SKQ201810S,TSG,2018-04-18T17:56:00Z,-149.3586,60.0193,290.54,0.0,178.71,183.61,0.29,0.64,-0.0,1002.3,2.8,89.6,64.8,3.4,526.71,52.54,249.46
SKQ201810S,TSG,2018-04-18T17:57:00Z,-149.3585,60.0193,290.44,0.0,268.12,183.51,0.29,0.64,0.01,1002.3,2.8,89.4,68.0,2.6,525.23,51.92,248.28
SKQ201810S,TSG,2018-04-18T17:58:00Z,-149.3585,60.0193,290.4,0.0,189.16,183.71,0.28,0.64,-0.0,1002.28,2.8,89.6,85.8,2.3,519.94,50.9,246.62
SKQ201810S,TSG,2018-04-18T17:59:00Z,-149.3585,60.0193,290.37,0.0,194.13,183.93,0.32,0.63,0.0,1002.3,2.8,90.1,95.0,4.1,519.83,50.5,247.09
SKQ201810S,TSG,2018-04-18T18:00:00Z,-149.3586,60.0193,290.36,0.0,214.61,183.97,0.33,0.64,0.0,1002.3,2.8,89.5,86.2,5.4,522.18,51.91,250.46
SKQ201810S,TSG,2018-04-18T18:01:00Z,-149.3586,60.0193,290.38,0.0,90.0,183.63,0.58,0.65,-0.0,1002.3,2.8,89.1,87.9,5.5,524.84,53.58,253.57
SKQ201810S,TSG,2018-04-18T18:02:00Z,-149.3585,60.0193,290.46,0.0,28.43,183.54,0.66,0.65,0.01,1002.3,2.8,89.5,85.1,4.7,525.34,53.82,253.9
SKQ201810S,TSG,2018-04-18T18:03:00Z,-149.3585,60.0193,290.49,0.0,90.0,183.62,0.67,0.65,-0.0,1002.3,2.8,89.9,77.6,4.3,524.44,53.16,251.73
SKQ201810S,TSG,2018-04-18T18:04:00Z,-149.3585,60.0193,290.64,0.0,150.29,183.74,0.67,0.66,0.0,1002.29,2.8,89.9,77.2,4.1,524.76,52.24,249.98
SKQ201810S,TSG,2018-04-18T18:05:00Z,-149.3585,60.0193,290.49,0.0,205.13,183.73,0.67,0.65,-0.0,1002.27,2.8,89.5,74.9,4.3,523.48,52.96,252.15
SKQ201810S,TSG,2018-04-18T18:06:00Z,-149.3585,60.0193,290.43,0.0,204.17,183.71,0.69,0.66,0.0,1002.3,2.9,89.9,81.0,4.4,520.71,53.91,256.32
SKQ201810S,TSG,2018-04-18T18:07:00Z,-149.3585,60.0193,290.76,0.0,203.47,183.79,0.69,0.65,0.0,1002.3,2.9,90.4,79.1,4.8,522.46,56.16,264.05
SKQ201810S,TSG,2018-04-18T18:08:00Z,-149.3585,60.0193,290.41,0.0,209.65,183.84,0.69,0.65,-0.0,1002.3,2.9,90.0,90.5,4.6,521.25,59.24,273.53
SKQ201810S,TSG,2018-04-18T18:09:00Z,-149.3585,60.0193,291.02,0.0,90.0,183.52,0.7,0.66,0.0,1002.3,2.9,90.3,80.3,4.4,524.6,62.11,281.54
SKQ201810S,TSG,2018-04-18T18:10:00Z,-149.3586,60.0193,290.6,0.0,90.0,183.49,0.72,0.66,0.0,1002.22,2.9,89.2,72.3,4.8,520.72,63.81,287.16
SKQ201810S,TSG,2018-04-18T18:11:00Z,-149.3585,60.0193,290.48,0.0,20.12,183.61,0.73,0.65,-0.0,1002.2,2.9,88.8,65.0,4.7,523.88,65.17,291.85
SKQ201810S,TSG,2018-04-18T18:12:00Z,-149.3585,60.0193,290.53,0.0,210.53,183.69,0.68,0.65,0.01,1002.2,2.9,88.6,61.2,3.8,524.48,67.08,298.48
SKQ201810S,TSG,2018-04-18T18:13:00Z,-149.3585,60.0193,290.64,0.0,195.21,183.76,0.68,0.65,0.0,1002.2,2.9,89.2,62.8,3.9,521.05,69.67,306.77
SKQ201810S,TSG,2018-04-18T18:14:00Z,-149.3585,60.0193,290.56,0.0,195.72,183.77,0.68,0.66,-0.0,1002.2,2.9,89.1,75.4,3.8,524.75,71.55,312.79
SKQ201810S,TSG,2018-04-18T18:15:00Z,-149.3585,60.0193,290.78,0.0,90.0,183.75,0.69,0.66,-0.0,1002.2,2.9,89.6,77.1,4.6,523.63,71.38,311.81
SKQ201810S,TSG,2018-04-18T18:16:00Z,-149.3585,60.0193,290.67,0.0,183.14,183.7,0.67,0.65,-0.0,1002.2,2.9,89.2,57.5,3.9,523.73,68.37,303.79
SKQ201810S,TSG,2018-04-18T18:17:00Z,-149.3585,60.0193,290.68,0.0,190.66,183.63,0.67,0.65,0.0,1002.2,2.9,89.2,63.4,3.3,523.41,65.64,296.71
SKQ201810S,TSG,2018-04-18T18:18:00Z,-149.3585,60.0193,325.53,0.0,225.63,183.72,0.67,0.66,-0.0,1002.16,2.9,89.3,73.6,2.8,524.23,64.85,294.38
SKQ201810S,TSG,2018-04-18T18:19:00Z,-149.3585,60.0193,307.26,0.0,90.0,183.71,0.67,0.65,-0.0,1002.18,2.9,89.5,77.7,2.5,525.35,65.32,295.78
SKQ201810S,TSG,2018-04-18T18:20:00Z,-149.3585,60.0193,318.17,0.0,290.22,183.74,0.65,0.65,0.0,1002.1,2.9,89.4,55.4,2.7,518.29,66.88,301.15
SKQ201810S,TSG,2018-04-18T18:21:00Z,-149.3585,60.0193,327.84,0.0,353.77,183.78,0.68,0.66,-0.0,1002.11,3.0,89.7,38.8,2.6,522.81,70.03,310.19
SKQ201810S,TSG,2018-04-18T18:22:00Z,-149.3585,60.0193,293.09,0.0,90.0,183.72,0.69,0.65,-0.0,1002.1,3.0,89.4,55.6,2.9,520.5,73.31,320.03
SKQ201810S,TSG,2018-04-18T18:23:00Z,-149.3586,60.0193,290.68,0.0,205.52,183.76,0.65,0.65,0.0,1002.18,3.0,89.2,73.2,3.7,522.3,76.35,327.72
SKQ201810S,TSG,2018-04-18T18:24:00Z,-149.3585,60.0193,290.87,0.0,90.0,183.76,0.65,0.65,-0.0,1002.2,2.9,89.1,71.1,4.2,519.05,76.4,327.93
SKQ201810S,TSG,2018-04-18T18:25:00Z,-149.3585,60.0193,304.63,0.0,90.0,183.67,0.62,0.65,-0.0,1002.2,2.9,88.9,59.7,4.6,523.8,74.19,322.7
SKQ201810S,TSG,2018-04-18T18:26:00Z,-149.3585,60.0193,315.5,0.0,109.28,183.66,0.61,0.65,0.0,1002.14,3.0,88.8,45.5,3.3,522.09,72.31,316.96
SKQ201810S,TSG,2018-04-18T18:27:00Z,-149.3585,60.0193,324.62,0.0,169.07,183.68,0.59,0.64,0.0,1002.1,3.0,89.2,358.2,1.7,521.24,68.91,307.66
SKQ201810S,TSG,2018-04-18T18:28:00Z,-149.3585,60.0193,297.31,0.0,226.8,183.77,0.58,0.65,0.0,1002.1,3.1,89.5,44.4,1.5,521.03,65.27,298.7
SKQ201810S,TSG,2018-04-18T18:29:00Z,-149.3585,60.0193,290.62,0.0,90.0,183.84,0.59,0.65,-0.0,1002.1,3.0,89.3,37.3,1.1,529.43,63.43,293.7
SKQ201810S,TSG,2018-04-18T18:30:00Z,-149.3585,60.0193,290.8,0.0,90.0,183.79,0.58,0.65,-0.0,1002.1,3.0,89.3,59.5,2.5,525.67,62.64,291.3
SKQ201810S,TSG,2018-04-18T18:31:00Z,-149.3585,60.0193,290.58,0.0,258.16,183.75,0.59,0.65,-0.0,1002.1,3.0,87.8,70.0,2.8,523.21,62.35,289.78
SKQ201810S,TSG,2018-04-18T18:32:00Z,-149.3585,60.0193,290.63,0.0,90.0,183.72,0.61,0.65,-0.0,1002.1,3.0,87.7,71.6,2.9,523.93,62.29,289.25
SKQ201810S,TSG,2018-04-18T18:33:00Z,-149.3585,60.0193,290.59,0.0,12.75,183.7,0.59,0.65,0.01,1002.1,3.0,87.8,63.2,2.9,522.58,61.55,285.84
SKQ201810S,TSG,2018-04-18T18:34:00Z,-149.3585,60.0193,290.6,0.0,90.0,183.68,0.61,0.65,-0.0,1002.11,3.1,87.8,71.2,2.5,528.02,58.9,279.33
SKQ201810S,TSG,2018-04-18T18:35:00Z,-149.3586,60.0193,290.57,0.0,90.0,183.73,0.65,0.65,-0.0,1002.18,3.1,88.1,48.5,3.6,523.98,57.95,277.44
SKQ201810S,TSG,2018-04-18T18:36:00Z,-149.3586,60.0193,290.57,0.0,176.57,183.77,0.66,0.65,-0.0,1002.2,3.1,88.3,52.3,3.4,518.35,59.67,280.71
SKQ201810S,TSG,2018-04-18T18:37:00Z,-149.3585,60.0193,290.75,0.0,184.26,183.8,0.67,0.65,-0.0,1002.2,3.1,88.8,70.7,3.2,522.42,60.48,283.6
SKQ201810S,TSG,2018-04-18T18:38:00Z,-149.3585,60.0193,290.82,0.0,303.22,183.73,0.64,0.65,0.01,1002.13,3.0,88.5,90.1,2.6,523.13,62.7,289.94
SKQ201810S,TSG,2018-04-18T18:39:00Z,-149.3585,60.0193,291.0,0.0,193.79,183.6,0.64,0.65,-0.0,1002.1,3.1,89.2,100.5,1.1,528.82,64.04,293.43
SKQ201810S,TSG,2018-04-18T18:40:00Z,-149.3585,60.0193,290.74,0.0,90.0,183.7,0.64,0.65,0.0,1002.18,3.0,89.7,109.3,0.9,520.59,63.5,292.83
SKQ201810S,TSG,2018-04-18T18:41:00Z,-149.3586,60.0193,290.69,0.0,90.0,183.78,0.62,0.65,-0.0,1002.2,3.0,88.6,101.7,3.0,522.91,62.93,290.79
SKQ201810S,TSG,2018-04-18T18:42:00Z,-149.3585,60.0193,290.6,0.0,184.5,183.88,0.61,0.65,-0.0,1002.2,3.0,87.8,97.2,4.1,526.46,61.98,287.14
SKQ201810S,TSG,2018-04-18T18:43:00Z,-149.3585,60.0193,291.08,0.0,7.97,183.68,0.58,0.65,0.0,1002.2,3.0,87.8,79.4,2.7,524.5,62.56,287.97
SKQ201810S,TSG,2018-04-18T18:44:00Z,-149.3585,60.0193,290.86,0.0,90.0,183.56,0.58,0.64,0.0,1002.2,3.0,87.7,65.3,2.8,523.88,64.48,292.04
SKQ201810S,TSG,2018-04-18T18:45:00Z,-149.3585,60.0193,290.72,0.0,18.57,183.61,0.59,0.65,-0.0,1002.17,3.1,88.4,53.0,1.6,522.46,63.17,288.78
SKQ201810S,TSG,2018-04-18T18:46:00Z,-149.3585,60.0193,290.77,0.0,90.0,183.73,0.6,0.65,0.0,1002.19,3.1,89.2,33.6,0.6,521.27,60.34,282.13
SKQ201810S,TSG,2018-04-18T18:47:00Z,-149.3585,60.0193,290.65,0.0,24.89,183.77,0.34,0.64,0.0,1002.19,3.1,89.9,72.0,0.4,520.44,59.34,281.03
SKQ201810S,TSG,2018-04-18T18:48:00Z,-149.3585,60.0193,291.01,0.0,13.71,183.71,0.34,0.64,0.0,1002.2,3.1,89.6,97.1,2.0,522.34,62.39,291.56
SKQ201810S,TSG,2018-04-18T18:49:00Z,-149.3585,60.0193,290.76,0.0,239.37,183.74,0.35,0.63,-0.0,1002.14,3.1,88.0,81.3,3.0,519.55,69.05,311.19
SKQ201810S,TSG,2018-04-18T18:50:00Z,-149.3585,60.0193,290.88,0.0,90.0,183.68,0.36,0.64,-0.0,1002.18,3.1,87.8,80.4,3.8,523.87,75.67,330.68
SKQ201810S,TSG,2018-04-18T18:51:00Z,-149.3585,60.0193,296.07,0.0,90.0,183.75,0.37,0.64,0.0,1002.2,3.1,88.1,84.0,4.6,519.56,79.99,344.1
SKQ201810S,TSG,2018-04-18T18:52:00Z,-149.3585,60.0193,330.29,0.0,90.0,183.87,0.36,0.64,-0.0,1002.2,3.0,88.2,93.5,5.3,523.08,81.91,351.04
SKQ201810S,TSG,2018-04-18T18:53:00Z,-149.3585,60.0193,322.31,0.0,176.34,183.67,0.35,0.64,0.01,1002.2,3.1,88.7,88.5,4.4,522.24,84.41,360.17
SKQ201810S,TSG,2018-04-18T18:54:00Z,-149.3585,60.0193,319.65,0.0,211.19,183.6,0.35,0.64,-0.0,1002.18,3.1,88.5,64.3,3.2,516.95,88.01,371.86
SKQ201810S,TSG,2018-04-18T18:55:00Z,-149.3585,60.0193,313.87,0.0,170.33,183.63,0.31,0.64,0.0,1002.1,3.0,88.5,70.0,3.4,519.37,90.83,380.14
SKQ201810S,TSG,2018-04-18T18:56:00Z,-149.3585,60.0193,298.61,0.0,209.22,183.71,0.31,0.63,0.0,1002.19,3.0,88.1,66.7,3.1,523.55,92.75,386.53
SKQ201810S,TSG,2018-04-18T18:57:00Z,-149.3585,60.0193,310.86,0.0,201.04,183.71,0.31,0.64,0.0,1002.2,3.0,88.3,84.5,3.4,526.1,95.76,395.73
SKQ201810S,TSG,2018-04-18T18:58:00Z,-149.3585,60.0193,315.76,0.0,190.41,183.78,0.32,0.64,0.0,1002.19,3.0,88.5,72.2,4.4,522.89,99.72,408.4
SKQ201810S,TSG,2018-04-18T18:59:00Z,-149.3585,60.0193,302.08,0.0,31.22,183.73,0.31,0.64,-0.0,1002.13,3.0,88.1,77.0,3.2,519.19,103.76,421.54
SKQ201810S,TSG,2018-04-18T19:00:00Z,-149.3585,60.0193,304.81,0.0,174.57,183.66,0.29,0.64,-0.0,1002.1,3.0,88.9,87.8,2.6,521.46,107.17,433.62
SKQ201810S,TSG,2018-04-18T19:01:00Z,-149.3585,60.0193,308.81,0.0,211.09,183.69,0.31,0.64,0.0,1002.06,3.0,89.3,80.4,2.9,517.59,110.1,444.99
SKQ201810S,TSG,2018-04-18T19:02:00Z,-149.3585,60.0193,315.6,0.0,30.9,183.79,0.31,0.64,0.01,1002.04,3.0,88.7,85.5,3.3,523.02,114.69,460.28
SKQ201810S,TSG,2018-04-18T19:03:00Z,-149.3585,60.0193,317.19,0.0,288.84,183.75,0.32,0.64,0.0,1002.1,3.0,88.4,74.7,3.3,521.34,119.05,473.16
SKQ201810S,TSG,2018-04-18T19:04:00Z,-149.3585,60.0193,313.88,0.0,90.0,183.72,0.33,0.64,-0.0,1002.1,3.0,88.7,81.3,4.2,524.2,122.99,484.88
SKQ201810S,TSG,2018-04-18T19:05:00Z,-149.3585,60.0193,312.91,0.0,15.8,183.61,0.32,0.65,0.0,1002.1,3.0,89.2,76.2,3.2,523.76,127.37,497.13
SKQ201810S,TSG,2018-04-18T19:06:00Z,-149.3585,60.0193,297.08,0.0,90.0,183.62,0.28,0.65,0.0,1002.08,3.0,89.6,76.1,2.5,520.84,129.2,502.65
SKQ201810S,TSG,2018-04-18T19:07:00Z,-149.3585,60.0193,290.91,0.0,90.0,183.69,0.29,0.65,0.0,1002.0,3.0,89.5,83.3,1.9,523.26,128.59,504.31
SKQ201810S,TSG,2018-04-18T19:08:00Z,-149.3585,60.0193,291.17,0.0,358.86,183.73,0.31,0.66,0.0,1002.08,3.1,90.4,75.4,2.7,523.25,130.71,512.97
SKQ201810S,TSG,2018-04-18T19:09:00Z,-149.3585,60.0193,290.88,0.0,204.12,183.73,0.33,0.66,0.0,1002.1,3.1,90.0,61.6,4.6,526.99,134.87,522.28
SKQ201810S,TSG,2018-04-18T19:10:00Z,-149.3586,60.0193,290.85,0.0,211.24,183.65,0.34,0.66,0.0,1002.1,3.1,88.8,64.9,3.9,518.56,136.71,527.31
SKQ201810S,TSG,2018-04-18T19:11:00Z,-149.3585,60.0193,291.15,0.0,17.59,183.66,0.34,0.65,-0.0,1002.1,3.1,88.3,66.7,3.6,520.11,135.2,523.76
SKQ201810S,TSG,2018-04-18T19:12:00Z,-149.3585,60.0193,291.05,0.0,358.49,183.75,0.34,0.65,0.0,1002.08,3.1,88.4,67.6,4.3,521.55,132.39,515.87
SKQ201810S,TSG,2018-04-18T19:13:00Z,-149.3585,60.0193,290.99,0.0,21.25,183.67,0.35,0.65,0.0,1002.0,3.1,88.7,50.0,3.7,518.2,131.32,510.54
SKQ201810S,TSG,2018-04-18T19:14:00Z,-149.3585,60.0193,291.04,0.0,289.42,183.54,0.31,0.65,0.0,1002.0,3.1,89.0,35.4,2.5,519.8,129.88,503.77
SKQ201810S,TSG,2018-04-18T19:15:00Z,-149.3585,60.0193,291.03,0.0,90.0,183.6,0.28,0.65,0.01,1001.9,3.2,89.8,6.1,0.8,524.44,126.07,492.5
SKQ201810S,TSG,2018-04-18T19:16:00Z,-149.3585,60.0193,291.02,0.0,9.09,183.72,0.3,0.65,-0.0,1001.92,3.2,90.0,33.3,2.0,523.72,122.44,481.56
SKQ201810S,TSG,2018-04-18T19:17:00Z,-149.3585,60.0193,291.0,0.0,188.47,183.71,0.29,0.65,-0.0,1002.0,3.2,89.1,54.5,3.0,518.31,119.76,474.19
SKQ201810S,TSG,2018-04-18T19:18:00Z,-149.3585,60.0193,290.96,0.0,214.63,183.78,0.28,0.65,0.0,1001.93,3.2,88.4,43.7,3.5,522.32,118.85,470.51
SKQ201810S,TSG,2018-04-18T19:19:00Z,-149.3585,60.0193,291.16,0.0,90.0,183.69,0.27,0.64,0.0,1001.9,3.2,88.3,39.3,3.8,516.98,118.21,465.68
SKQ201810S,TSG,2018-04-18T19:20:00Z,-149.3585,60.0193,291.13,0.0,90.0,183.69,0.29,0.65,0.0,1001.9,3.2,88.0,50.1,3.2,516.73,114.83,455.84
SKQ201810S,TSG,2018-04-18T19:21:00Z,-149.3585,60.0193,290.97,0.0,90.0,183.73,0.28,0.65,0.0,1001.9,3.2,88.3,49.3,3.1,521.72,110.35,443.67
SKQ201810S,TSG,2018-04-18T19:22:00Z,-149.3585,60.0193,291.05,0.0,90.0,183.57,0.26,0.65,0.01,1001.86,3.3,88.7,339.1,2.0,517.3,105.99,432.29
SKQ201810S,TSG,2018-04-18T19:23:00Z,-149.3585,60.0193,291.05,0.0,90.0,183.57,0.25,0.65,0.0,1001.8,3.4,88.5,355.1,1.4,518.34,103.85,427.62
SKQ201810S,TSG,2018-04-18T19:24:00Z,-149.3585,60.0193,291.07,0.0,90.0,183.71,0.26,0.64,-0.0,1001.87,3.4,88.6,41.5,2.8,519.01,104.72,430.8
SKQ201810S,TSG,2018-04-18T19:25:00Z,-149.3586,60.0193,291.03,0.0,90.0,183.7,0.26,0.65,0.0,1001.9,3.3,87.8,59.7,3.5,517.27,106.59,436.79
SKQ201810S,TSG,2018-04-18T19:26:00Z,-149.3586,60.0193,291.05,0.0,90.0,183.67,0.28,0.65,-0.0,1001.9,3.2,87.2,79.0,4.7,517.26,108.59,443.43
SKQ201810S,TSG,2018-04-18T19:27:00Z,-149.3586,60.0193,291.03,0.0,194.34,183.81,0.32,0.64,0.0,1001.9,3.2,86.9,75.1,5.4,521.74,110.98,449.29
SKQ201810S,TSG,2018-04-18T19:28:00Z,-149.3585,60.0193,291.22,0.0,146.2,183.66,0.31,0.65,-0.0,1001.9,3.2,86.8,78.8,4.8,518.04,112.41,451.76
SKQ201810S,TSG,2018-04-18T19:29:00Z,-149.3585,60.0193,291.41,0.0,305.43,183.71,0.3,0.64,0.0,1001.85,3.2,87.4,85.6,4.5,522.52,111.33,448.7
SKQ201810S,TSG,2018-04-18T19:30:00Z,-149.3585,60.0193,291.27,0.0,187.86,183.61,0.28,0.64,0.0,1001.8,3.3,89.1,89.2,3.9,522.78,111.07,448.28
SKQ201810S,TSG,2018-04-18T19:31:00Z,-149.3585,60.0193,291.16,0.1,181.53,183.41,0.3,0.65,0.01,1001.8,3.3,89.7,82.5,3.0,520.85,114.11,455.32
SKQ201810S,TSG,2018-04-18T19:32:00Z,-149.3586,60.0191,291.64,1.4,185.24,183.93,0.31,0.67,-0.0,1001.8,3.2,89.3,54.5,1.9,521.65,115.41,460.26
SKQ201810S,TSG,2018-04-18T19:33:00Z,-149.3586,60.0185,292.31,2.7,180.21,177.53,0.33,0.66,0.0,1001.8,3.2,89.3,21.4,2.3,520.99,115.18,462.03
SKQ201810S,TSG,2018-04-18T19:34:00Z,-149.3586,60.0176,291.8,3.7,176.58,174.95,0.32,0.67,-0.0,1001.8,3.3,89.1,5.2,3.4,522.09,116.53,468.0
SKQ201810S,TSG,2018-04-18T19:35:00Z,-149.3584,60.0164,292.27,5.5,175.94,175.33,0.27,0.68,0.01,1001.79,3.3,88.9,1.7,2.6,524.97,120.95,480.25
SKQ201810S,TSG,2018-04-18T19:36:00Z,-149.3581,60.0146,292.39,7.4,174.84,174.08,0.38,0.68,0.0,1001.8,3.3,87.6,27.0,2.9,519.55,128.87,500.93
SKQ201810S,TSG,2018-04-18T19:37:00Z,-149.3576,60.0125,292.07,8.2,172.44,172.0,0.41,0.69,-0.0,1001.78,3.3,86.8,43.3,3.9,523.36,132.49,511.96
SKQ201810S,TSG,2018-04-18T19:38:00Z,-149.357,60.0102,291.97,8.4,172.66,172.42,0.36,0.67,-0.0,1001.73,3.4,87.3,53.1,5.1,519.48,129.72,507.57
SKQ201810S,TSG,2018-04-18T19:39:00Z,-149.3564,60.0078,292.25,8.5,173.14,172.66,0.36,0.67,-0.0,1001.73,3.4,87.7,56.0,5.2,514.28,127.15,503.6
SKQ201810S,TSG,2018-04-18T19:40:00Z,-149.3559,60.0055,292.74,8.5,172.91,172.53,0.32,0.67,-0.0,1001.71,3.3,87.9,44.4,4.6,522.69,129.48,509.61
SKQ201810S,TSG,2018-04-18T19:41:00Z,-149.3553,60.0032,292.95,8.5,172.92,172.8,0.33,0.67,0.0,1001.7,3.3,88.0,25.7,3.8,520.95,132.41,517.61
SKQ201810S,TSG,2018-04-18T19:42:00Z,-149.3547,60.0008,292.78,8.7,173.03,172.83,0.28,0.67,-0.0,1001.7,3.3,88.5,38.2,3.8,519.21,136.22,529.33
SKQ201810S,TSG,2018-04-18T19:43:00Z,-149.3541,59.9984,292.68,9.0,173.47,172.92,0.33,0.68,-0.0,1001.7,3.1,89.3,68.2,4.6,518.57,139.4,537.93
SKQ201810S,TSG,2018-04-18T19:44:00Z,-149.3536,59.9959,293.56,9.0,175.37,174.93,0.3,0.68,-0.0,1001.7,2.8,90.6,76.9,4.7,524.26,138.65,536.93
SKQ201810S,TSG,2018-04-18T19:45:00Z,-149.3533,59.9934,293.64,9.0,176.5,175.77,0.31,0.68,0.0,1001.7,2.6,92.0,57.6,4.0,512.65,137.79,536.67
SKQ201810S,TSG,2018-04-18T19:46:00Z,-149.353,59.9909,293.69,9.1,176.11,175.69,0.32,0.68,-0.0,1001.7,2.6,92.7,52.9,3.7,521.13,141.79,547.52
SKQ201810S,TSG,2018-04-18T19:47:00Z,-149.3526,59.9884,296.77,9.1,175.51,175.61,0.3,0.68,0.0,1001.7,2.6,93.6,46.7,4.0,514.43,144.35,552.61
SKQ201810S,TSG,2018-04-18T19:48:00Z,-149.3522,59.9859,296.19,9.1,175.44,175.75,0.3,0.68,-0.0,1001.7,2.7,93.7,54.8,4.3,518.29,140.3,540.09
SKQ201810S,TSG,2018-04-18T19:49:00Z,-149.3518,59.9834,296.71,9.1,175.59,175.69,0.27,0.68,-0.0,1001.7,2.8,93.6,48.2,4.1,515.02,131.62,513.13
SKQ201810S,TSG,2018-04-18T19:50:00Z,-149.3514,59.9809,294.76,9.1,175.57,176.17,0.21,0.67,-0.0,1001.7,2.9,93.4,37.7,3.1,517.11,118.9,478.16
SKQ201810S,TSG,2018-04-18T19:51:00Z,-149.3514,59.9784,288.75,8.9,187.83,190.12,-0.05,0.67,0.0,1001.7,2.9,92.8,39.6,3.4,523.49,108.18,451.08
SKQ201810S,TSG,2018-04-18T19:52:00Z,-149.3524,59.9759,278.16,9.1,192.45,192.85,0.26,0.68,-0.0,1001.7,2.9,92.7,34.6,5.0,522.7,105.98,444.29
SKQ201810S,TSG,2018-04-18T19:53:00Z,-149.3535,59.9735,257.88,9.1,191.94,192.75,0.26,0.68,-0.0,1001.63,3.0,92.7,33.8,5.0,518.25,109.57,452.1
SKQ201810S,TSG,2018-04-18T19:54:00Z,-149.3546,59.971,234.49,9.1,195.91,198.43,-0.04,0.66,0.01,1001.6,3.0,92.2,29.3,5.1,520.94,113.56,462.43
SKQ201810S,TSG,2018-04-18T19:55:00Z,-149.3564,59.9686,209.81,9.1,202.5,203.97,0.14,0.67,0.0,1001.6,3.0,92.0,15.1,4.9,525.64,118.04,476.07
SKQ201810S,TSG,2018-04-18T19:56:00Z,-149.3583,59.9663,190.78,9.3,202.31,203.78,0.19,0.68,-0.0,1001.6,3.0,92.1,11.7,6.0,525.36,123.18,488.15
SKQ201810S,TSG,2018-04-18T19:57:00Z,-149.3603,59.9639,192.65,9.3,202.84,203.81,0.16,0.68,0.0,1001.6,3.0,92.2,17.7,5.8,522.02,121.39,482.85
SKQ201810S,TSG,2018-04-18T19:58:00Z,-149.3623,59.9615,199.24,9.2,202.6,203.46,0.2,0.68,-0.0,1001.6,3.0,92.4,22.6,4.9,519.51,114.58,465.17
SKQ201810S,TSG,2018-04-18T19:59:00Z,-149.3642,59.9592,208.35,9.2,203.07,203.83,0.18,0.68,0.0,1001.6,3.0,92.3,26.5,5.2,523.46,108.04,445.71
SKQ201810S,TSG,2018-04-18T20:00:00Z,-149.3662,59.9568,216.61,9.2,203.15,203.68,0.13,0.67,-0.0,1001.6,3.0,92.1,16.8,4.7,518.36,101.5,425.96
SKQ201810S,TSG,2018-04-18T20:01:00Z,-149.3682,59.9545,224.67,9.2,203.41,203.64,0.2,0.68,-0.0,1001.6,3.0,92.0,14.7,5.7,522.14,97.36,413.09
SKQ201810S,TSG,2018-04-18T20:02:00Z,-149.3703,59.9522,229.63,9.2,203.78,203.65,0.18,0.67,0.01,1001.6,3.1,92.4,17.3,5.1,523.59,100.25,418.01
SKQ201810S,TSG,2018-04-18T20:03:00Z,-149.3723,59.9498,232.78,9.2,203.94,203.56,0.19,0.68,0.0,1001.6,3.1,92.6,16.5,4.3,519.38,107.76,438.48
SKQ201810S,TSG,2018-04-18T20:04:00Z,-149.3744,59.9475,232.84,9.2,204.42,203.73,0.19,0.68,-0.0,1001.6,3.2,92.6,7.3,4.3,526.97,116.54,466.13
SKQ201810S,TSG,2018-04-18T20:05:00Z,-149.3765,59.9452,234.87,9.2,204.49,203.67,0.18,0.67,0.0,1001.59,3.2,92.3,7.9,4.1,523.37,125.8,494.09
SKQ201810S,TSG,2018-04-18T20:06:00Z,-149.3786,59.9428,238.86,9.2,204.48,203.68,0.2,0.68,0.0,1001.59,3.1,92.1,14.6,4.3,521.09,131.82,510.39
SKQ201810S,TSG,2018-04-18T20:07:00Z,-149.3807,59.9405,242.2,9.1,204.15,203.65,0.19,0.67,0.0,1001.58,3.2,92.6,18.5,4.3,520.75,135.85,521.14
SKQ201810S,TSG,2018-04-18T20:08:00Z,-149.3828,59.9382,240.69,9.1,204.27,203.53,0.23,0.68,0.0,1001.55,3.2,93.1,29.0,4.2,521.4,137.97,526.02
SKQ201810S,TSG,2018-04-18T20:09:00Z,-149.3849,59.9359,235.48,9.1,204.32,203.62,0.25,0.69,-0.0,1001.58,3.1,93.3,52.4,5.6,519.85,134.96,520.26
SKQ201810S,TSG,2018-04-18T20:10:00Z,-149.3869,59.9336,227.61,9.0,204.49,203.63,0.24,0.68,0.0,1001.58,3.1,93.0,39.9,6.5,517.82,132.11,514.34
SKQ201810S,TSG,2018-04-18T20:11:00Z,-149.389,59.9314,219.79,9.1,204.48,203.6,0.26,0.68,0.01,1001.51,3.1,93.7,23.4,6.6,521.96,133.63,519.7
SKQ201810S,TSG,2018-04-18T20:12:00Z,-149.3911,59.9291,222.88,9.0,204.44,203.78,0.29,0.69,0.0,1001.5,3.2,93.1,22.7,5.9,519.4,135.42,523.81
SKQ201810S,TSG,2018-04-18T20:13:00Z,-149.3931,59.9268,224.6,9.0,203.19,203.47,0.24,0.7,0.0,1001.51,3.3,92.6,0.8,5.4,523.19,132.04,515.55
SKQ201810S,TSG,2018-04-18T20:14:00Z,-149.395,59.9245,231.14,8.9,203.21,203.65,0.24,0.68,-0.0,1001.42,3.4,88.8,338.8,6.6,516.55,126.48,501.5
SKQ201810S,TSG,2018-04-18T20:15:00Z,-149.397,59.9223,238.4,8.9,203.66,203.82,0.31,0.7,-0.0,1001.42,3.6,86.9,345.8,5.8,521.74,123.73,492.04
SKQ201810S,TSG,2018-04-18T20:16:00Z,-149.3989,59.92,244.96,8.9,202.65,203.01,0.31,0.69,0.01,1001.44,3.6,87.2,343.4,5.5,519.7,122.08,487.72
SKQ201810S,TSG,2018-04-18T20:17:00Z,-149.4008,59.9177,253.11,8.9,203.05,203.65,0.26,0.71,0.0,1001.42,3.7,86.2,347.4,5.8,524.37,122.5,486.76
SKQ201810S,TSG,2018-04-18T20:18:00Z,-149.4027,59.9155,255.06,8.8,202.89,203.49,0.35,0.69,0.01,1001.42,3.7,87.0,346.9,5.5,520.39,123.72,485.75
SKQ201810S,TSG,2018-04-18T20:19:00Z,-149.4046,59.9132,258.29,8.8,202.81,203.67,0.26,0.67,0.0,1001.4,3.6,87.8,347.6,4.6,521.53,121.39,478.4
SKQ201810S,TSG,2018-04-18T20:20:00Z,-149.4065,59.911,259.73,8.9,203.57,206.07,0.03,0.68,0.0,1001.4,3.6,88.7,353.8,4.7,523.03,118.2,468.27
SKQ201810S,TSG,2018-04-18T20:21:00Z,-149.4089,59.9088,261.55,8.8,215.69,216.83,0.08,0.69,0.01,1001.4,3.5,88.4,345.6,4.8,518.73,112.88,451.2
SKQ201810S,TSG,2018-04-18T20:22:00Z,-149.4118,59.9069,261.95,8.8,216.74,216.91,0.26,0.7,0.01,1001.4,3.6,87.7,347.5,5.0,527.15,109.52,440.72
SKQ201810S,TSG,2018-04-18T20:23:00Z,-149.4147,59.9049,262.25,8.8,216.42,216.64,0.23,0.69,-0.0,1001.38,3.6,87.7,348.9,5.0,521.19,107.97,435.66
SKQ201810S,TSG,2018-04-18T20:24:00Z,-149.4176,59.903,263.26,8.8,217.03,216.64,0.33,0.68,0.01,1001.38,3.7,89.4,346.9,5.4,520.35,106.2,432.76
SKQ201810S,TSG,2018-04-18T20:25:00Z,-149.4205,59.901,264.95,8.8,216.96,216.56,0.3,0.7,-0.0,1001.37,3.6,90.0,348.7,5.3,525.25,103.63,429.22
SKQ201810S,TSG,2018-04-18T20:26:00Z,-149.4235,59.8991,265.32,8.9,217.1,216.55,0.26,0.69,-0.0,1001.39,3.6,90.6,350.9,5.4,518.5,101.29,425.99
SKQ201810S,TSG,2018-04-18T20:27:00Z,-149.4265,59.8971,265.23,8.9,217.55,216.41,0.43,0.7,-0.0,1001.37,3.6,90.9,354.9,5.7,522.23,100.29,428.7
SKQ201810S,TSG,2018-04-18T20:28:00Z,-149.4294,59.8951,265.83,8.9,217.35,216.43,0.31,0.68,0.0,1001.37,3.7,91.2,3.8,5.8,529.2,104.11,440.16
SKQ201810S,TSG,2018-04-18T20:29:00Z,-149.4324,59.8932,267.8,8.9,217.8,216.83,0.38,0.7,0.0,1001.33,3.6,89.8,354.7,7.1,522.39,106.4,445.37
SKQ201810S,TSG,2018-04-18T20:30:00Z,-149.4355,59.8912,268.49,9.0,217.87,216.99,0.35,0.69,0.01,1001.34,3.7,87.6,359.1,6.9,523.02,102.38,438.7
SKQ201810S,TSG,2018-04-18T20:31:00Z,-149.4385,59.8893,269.69,9.0,217.71,216.66,0.42,0.69,0.01,1001.34,3.8,86.6,349.7,6.5,524.25,102.02,439.96
SKQ201810S,TSG,2018-04-18T20:32:00Z,-149.4416,59.8873,270.42,9.0,218.06,217.18,0.27,0.71,0.0,1001.29,3.7,87.9,349.9,7.3,526.71,111.08,458.27
SKQ201810S,TSG,2018-04-18T20:33:00Z,-149.4446,59.8853,270.79,9.0,217.56,216.42,0.33,0.67,0.0,1001.26,3.7,88.3,355.0,6.9,521.7,112.39,458.14
SKQ201810S,TSG,2018-04-18T20:34:00Z,-149.4476,59.8833,271.37,9.0,217.59,216.62,0.35,0.72,0.01,1001.26,3.7,88.5,1.4,6.5,523.7,102.05,430.8
SKQ201810S,TSG,2018-04-18T20:35:00Z,-149.4506,59.8814,269.41,8.9,217.66,216.57,0.32,0.7,-0.0,1001.27,3.7,88.5,7.3,6.3,517.23,90.88,398.94
SKQ201810S,TSG,2018-04-18T20:36:00Z,-149.4536,59.8794,267.01,8.9,217.84,216.66,0.34,0.7,0.0,1001.27,3.8,88.4,356.8,6.3,524.7,82.8,374.91
SKQ201810S,TSG,2018-04-18T20:37:00Z,-149.4567,59.8775,265.5,8.9,217.32,216.19,0.36,0.69,-0.0,1001.28,3.8,88.5,351.8,6.0,526.92,80.75,364.93
SKQ201810S,TSG,2018-04-18T20:38:00Z,-149.4596,59.8755,264.78,8.9,217.75,216.52,0.33,0.71,0.0,1001.23,3.7,89.0,347.3,5.9,518.16,79.83,359.08
SKQ201810S,TSG,2018-04-18T20:39:00Z,-149.4627,59.8736,263.0,8.9,217.71,216.2,0.44,0.7,0.01,1001.25,3.7,89.3,343.3,7.0,525.46,76.93,351.02
SKQ201810S,TSG,2018-04-18T20:40:00Z,-149.4656,59.8716,263.41,8.8,217.91,216.58,0.36,0.72,-0.0,1001.25,3.6,88.6,342.2,6.6,520.5,76.83,349.66
SKQ201810S,TSG,2018-04-18T20:41:00Z,-149.4686,59.8697,263.8,8.8,218.33,216.25,0.54,0.71,0.01,1001.23,3.7,89.0,336.7,6.1,524.06,77.68,350.61
SKQ201810S,TSG,2018-04-18T20:42:00Z,-149.4716,59.8678,264.61,8.8,217.75,216.56,0.34,0.7,-0.0,1001.24,3.6,89.1,338.5,6.2,520.86,76.27,345.54
SKQ201810S,TSG,2018-04-18T20:43:00Z,-149.4746,59.8659,265.07,8.8,219.0,216.55,0.6,0.72,0.0,1001.22,3.6,89.2,345.4,5.5,528.42,72.24,336.02
SKQ201810S,TSG,2018-04-18T20:44:00Z,-149.4776,59.864,264.32,8.8,218.35,216.55,0.39,0.69,0.0,1001.22,3.6,89.3,340.6,6.1,527.27,73.49,337.98
SKQ201810S,TSG,2018-04-18T20:45:00Z,-149.4807,59.8621,263.81,8.8,218.73,216.55,0.42,0.7,0.02,1001.19,3.6,89.4,335.9,5.9,523.48,77.33,344.42
SKQ201810S,TSG,2018-04-18T20:46:00Z,-149.4837,59.8602,262.8,8.9,218.79,216.5,0.41,0.7,0.0,1001.13,3.5,89.8,330.5,6.2,527.58,76.66,340.27
SKQ201810S,TSG,2018-04-18T20:47:00Z,-149.4868,59.8583,264.14,8.9,219.33,216.79,0.45,0.71,0.0,1001.18,3.5,90.0,340.7,5.8,528.38,69.7,324.19
SKQ201810S,TSG,2018-04-18T20:48:00Z,-149.4897,59.8565,265.05,7.6,218.03,214.45,0.62,0.73,0.02,1001.15,3.5,90.0,346.5,5.9,521.96,69.45,324.81
SKQ201810S,TSG,2018-04-18T20:49:00Z,-149.4919,59.855,265.06,5.6,217.08,211.42,0.54,0.71,0.0,1001.14,3.5,90.8,349.5,6.7,526.97,74.6,337.06
SKQ201810S,TSG,2018-04-18T20:50:00Z,-149.4933,59.8541,265.33,2.9,215.37,192.52,0.8,0.72,0.0,1001.11,3.4,91.0,354.9,6.3,523.2,74.49,335.65
SKQ201810S,TSG,2018-04-18T20:51:00Z,-149.4939,59.8536,265.57,1.1,215.93,175.87,0.61,0.67,0.0,1001.11,3.6,91.4,358.5,3.0,519.61,71.49,329.11
SKQ201810S,TSG,2018-04-18T20:52:00Z,-149.4942,59.8535,265.65,0.5,265.77,175.75,0.57,0.71,0.0,1001.08,3.8,91.6,343.0,2.8,526.09,71.91,329.61
SKQ201810S,TSG,2018-04-18T20:53:00Z,-149.4944,59.8535,265.29,0.4,269.57,176.65,0.63,0.66,-0.0,1000.98,3.8,90.0,45.9,9.2,518.98,70.17,325.25
SKQ201810S,TSG,2018-04-18T20:54:00Z,-149.4946,59.8535,265.29,0.3,256.1,170.46,0.68,0.67,0.0,1001.06,3.8,87.6,45.4,8.5,517.93,68.97,323.82
SKQ201810S,TSG,2018-04-18T20:55:00Z,-149.4947,59.8535,265.4,0.1,230.92,169.62,0.57,0.66,0.0,1001.09,3.9,87.6,31.2,6.4,524.06,73.69,335.15
SKQ201810S,TSG,2018-04-18T20:56:00Z,-149.4947,59.8535,264.9,0.1,249.97,173.26,0.32,0.66,0.0,1001.07,3.9,88.4,355.5,3.3,525.25,76.42,341.36
SKQ201810S,TSG,2018-04-18T20:57:00Z,-149.4948,59.8535,265.22,0.3,266.84,172.83,0.36,0.66,0.01,1001.03,4.1,88.4,355.3,2.1,527.45,74.01,337.75
SKQ201810S,TSG,2018-04-18T20:58:00Z,-149.495,59.8535,265.36,0.3,254.57,169.99,0.32,0.66,0.0,1001.05,4.2,88.0,354.9,3.0,525.27,78.69,351.22
SKQ201810S,TSG,2018-04-18T20:59:00Z,-149.4952,59.8535,265.52,0.3,257.74,169.45,0.36,0.65,0.0,1001.01,3.9,87.9,321.8,5.1,525.08,84.7,365.6
SKQ201810S,TSG,2018-04-18T21:00:00Z,-149.4953,59.8534,265.01,0.2,267.61,171.93,0.45,0.68,0.01,1000.93,3.6,88.4,317.6,5.3,522.59,81.55,356.47
SKQ201810S,TSG,2018-04-18T21:01:00Z,-149.4955,59.8534,265.51,0.3,261.72,167.82,0.4,0.69,-0.0,1000.98,3.6,89.3,331.9,2.9,522.84,75.94,339.82
SKQ201810S,TSG,2018-04-18T21:02:00Z,-149.4956,59.8534,265.75,0.1,256.15,162.96,0.41,0.69,0.0,1000.94,3.7,90.2,330.1,2.3,528.25,68.79,318.74
SKQ201810S,TSG,2018-04-18T21:03:00Z,-149.4956,59.8534,265.73,0.1,254.85,159.02,0.4,0.67,0.01,1000.95,3.8,90.5,321.9,2.6,526.56,63.07,303.74
SKQ201810S,TSG,2018-04-18T21:04:00Z,-149.4956,59.8534,264.95,0.1,357.59,158.71,0.33,0.63,0.0,1000.94,3.8,90.0,313.3,3.1,526.19,63.31,306.59
SKQ201810S,TSG,2018-04-18T21:05:00Z,-149.4957,59.8535,265.44,0.2,337.28,157.62,0.29,0.67,0.0,1000.94,3.8,89.9,307.1,3.1,523.68,70.9,326.42
SKQ201810S,TSG,2018-04-18T21:06:00Z,-149.4957,59.8535,264.99,0.3,337.13,158.54,0.3,0.66,0.0,1000.87,3.9,90.1,315.6,1.7,531.79,77.42,341.14
SKQ201810S,TSG,2018-04-18T21:07:00Z,-149.4958,59.8536,264.9,0.4,339.42,158.37,0.34,0.64,0.0,1000.82,3.9,89.7,320.1,3.4,526.13,72.53,329.79
SKQ201810S,TSG,2018-04-18T21:08:00Z,-149.4959,59.8537,264.42,0.5,340.74,160.01,0.4,0.71,-0.0,1000.89,3.9,89.4,359.3,2.1,520.37,64.78,312.3
SKQ201810S,TSG,2018-04-18T21:09:00Z,-149.496,59.8539,264.47,0.5,342.31,159.77,0.33,0.69,0.01,1000.98,3.8,89.0,319.4,1.7,523.88,70.43,330.34
SKQ201810S,TSG,2018-04-18T21:10:00Z,-149.496,59.854,264.56,0.4,335.78,158.21,0.28,0.66,0.0,1000.96,3.8,89.5,338.6,1.9,520.59,83.64,364.52
SKQ201810S,TSG,2018-04-18T21:11:00Z,-149.4961,59.8541,264.91,0.2,334.87,156.0,0.27,0.72,0.0,1000.89,3.8,89.2,329.6,2.7,519.84,83.17,368.76
SKQ201810S,TSG,2018-04-18T21:12:00Z,-149.4961,59.8541,264.78,0.0,154.54,152.9,0.3,0.61,-0.0,1000.92,3.8,89.4,326.4,2.1,523.09,82.52,375.54
SKQ201810S,TSG,2018-04-18T21:13:00Z,-149.4961,59.8541,265.06,0.0,338.22,154.37,0.32,0.68,0.01,1000.9,3.8,89.8,311.2,3.1,518.66,93.62,406.69
SKQ201810S,TSG,2018-04-18T21:14:00Z,-149.4961,59.8541,264.27,0.0,51.46,155.21,0.29,0.69,-0.0,1000.91,3.8,89.4,318.0,3.5,523.28,101.01,424.62
SKQ201810S,TSG,2018-04-18T21:15:00Z,-149.4961,59.8541,264.85,0.0,212.82,154.33,0.41,0.64,-0.0,1000.89,3.8,89.0,312.7,3.7,529.92,102.49,426.95
SKQ201810S,TSG,2018-04-18T21:16:00Z,-149.4961,59.8541,264.57,0.0,4.5,156.03,0.5,0.69,0.01,1000.92,3.8,88.9,324.2,3.1,520.18,96.98,412.31
SKQ201810S,TSG,2018-04-18T21:17:00Z,-149.4961,59.8541,265.26,0.1,123.52,154.22,0.36,0.66,0.0,1000.94,3.8,89.3,341.0,2.0,521.69,88.78,393.13
SKQ201810S,TSG,2018-04-18T21:18:00Z,-149.4961,59.8541,264.57,0.0,321.94,154.99,0.24,0.65,0.02,1000.91,3.7,89.1,326.5,3.0,524.85,91.21,396.71
SKQ201810S,TSG,2018-04-18T21:19:00Z,-149.4961,59.8541,264.5,0.0,264.29,155.69,0.4,0.71,0.01,1000.86,3.7,89.1,310.2,2.1,516.8,96.0,408.62
SKQ201810S,TSG,2018-04-18T21:20:00Z,-149.4961,59.8541,265.18,0.4,154.1,156.67,0.27,0.64,-0.0,1000.87,3.7,88.8,319.6,3.0,520.31,97.9,414.31
SKQ201810S,TSG,2018-04-18T21:21:00Z,-149.4959,59.8538,265.16,1.6,162.89,172.37,0.29,0.69,0.0,1000.84,3.8,88.8,322.1,6.5,525.51,95.74,408.63
SKQ201810S,TSG,2018-04-18T21:22:00Z,-149.496,59.8533,265.61,2.4,201.25,204.07,0.17,0.67,0.01,1000.83,3.6,88.4,341.7,7.1,523.07,88.37,394.45
SKQ201810S,TSG,2018-04-18T21:23:00Z,-149.4968,59.8527,264.96,2.9,223.73,215.62,0.36,0.68,0.0,1000.87,3.5,88.1,350.2,5.2,522.56,86.33,390.1
SKQ201810S,TSG,2018-04-18T21:24:00Z,-149.4979,59.8521,263.59,2.7,222.91,211.13,0.4,0.65,0.0,1000.87,3.4,88.1,350.2,5.0,517.6,89.87,400.29
SKQ201810S,TSG,2018-04-18T21:25:00Z,-149.4988,59.8516,263.93,2.0,223.13,207.01,0.49,0.68,-0.0,1000.82,3.4,88.4,337.8,5.2,531.56,97.6,417.19
SKQ201810S,TSG,2018-04-18T21:26:00Z,-149.4995,59.8513,263.36,1.6,230.14,205.96,0.39,0.66,0.01,1000.81,3.4,88.7,346.9,5.8,526.68,96.55,412.45
SKQ201810S,TSG,2018-04-18T21:27:00Z,-149.5001,59.851,263.0,1.2,243.4,207.72,0.47,0.69,0.0,1000.73,3.4,88.7,347.2,6.3,520.97,90.09,397.17
SKQ201810S,TSG,2018-04-18T21:28:00Z,-149.5007,59.8509,262.79,1.0,245.04,210.72,0.29,0.68,0.01,1000.79,3.5,88.3,334.5,5.8,523.49,84.57,386.03
SKQ201810S,TSG,2018-04-18T21:29:00Z,-149.5011,59.8508,262.64,0.8,251.6,207.66,0.39,0.65,0.0,1000.8,3.5,88.7,337.0,5.4,523.79,90.11,399.71
SKQ201810S,TSG,2018-04-18T21:30:00Z,-149.5015,59.8508,262.03,0.7,261.0,212.43,0.4,0.64,-0.0,1000.74,3.5,89.2,337.9,7.0,525.94,96.74,413.73
SKQ201810S,TSG,2018-04-18T21:31:00Z,-149.5019,59.8507,262.18,0.9,250.64,218.68,0.31,0.64,0.0,1000.77,3.4,88.6,349.4,7.0,523.38,93.61,407.56
SKQ201810S,TSG,2018-04-18T21:32:00Z,-149.5025,59.8506,261.92,1.5,238.28,230.77,0.26,0.68,0.01,1000.78,3.4,88.8,3.8,8.5,520.16,90.84,402.57
SKQ201810S,TSG,2018-04-18T21:33:00Z,-149.5035,59.8504,261.13,2.3,265.01,278.4,-0.02,0.65,0.0,1000.78,3.4,88.6,1.5,8.7,522.14,94.25,417.49
SKQ201810S,TSG,2018-04-18T21:34:00Z,-149.5047,59.8506,260.19,2.5,316.66,339.6,-0.11,0.66,0.0,1000.73,3.4,88.6,356.9,6.2,523.27,104.79,446.45
SKQ201810S,TSG,2018-04-18T21:35:00Z,-149.5051,59.8513,259.64,2.5,2.94,36.55,-0.14,0.67,-0.0,1000.65,3.5,88.9,334.8,6.5,521.45,112.4,461.03
SKQ201810S,TSG,2018-04-18T21:36:00Z,-149.5046,59.8518,260.3,2.1,48.64,83.43,-0.04,0.66,0.01,1000.65,3.5,88.6,332.8,7.3,524.38,106.31,442.84
SKQ201810S,TSG,2018-04-18T21:37:00Z,-149.5036,59.8521,260.91,2.0,76.58,101.88,0.08,0.69,-0.0,1000.72,3.5,88.8,333.4,5.3,522.5,98.15,424.13
SKQ201810S,TSG,2018-04-18T21:38:00Z,-149.5026,59.8522,261.27,1.2,73.49,104.62,0.05,0.64,0.0,1000.73,3.5,89.4,335.7,6.3,525.12,102.93,434.9
SKQ201810S,TSG,2018-04-18T21:39:00Z,-149.5023,59.8523,261.57,0.5,31.19,104.54,0.04,0.64,0.0,1000.76,3.5,89.0,347.7,5.9,526.48,110.46,452.61
SKQ201810S,TSG,2018-04-18T21:40:00Z,-149.5023,59.8524,262.45,0.4,0.52,103.61,-0.08,0.7,0.01,1000.69,3.5,89.3,322.3,3.5,523.88,110.28,444.62
SKQ201810S,TSG,2018-04-18T21:41:00Z,-149.5022,59.8524,263.01,0.1,75.58,103.33,-0.02,0.65,-0.0,1000.72,3.5,90.4,332.6,4.5,523.88,92.49,400.81
SKQ201810S,TSG,2018-04-18T21:42:00Z,-149.5022,59.8524,262.38,0.0,275.97,100.36,0.22,0.66,-0.0,1000.77,3.6,89.7,343.1,6.9,522.26,86.15,384.56
SKQ201810S,TSG,2018-04-18T21:43:00Z,-149.5022,59.8525,262.24,0.1,31.87,99.04,0.07,0.67,0.01,1000.75,3.5,88.8,347.3,6.4,521.67,89.3,385.37
SKQ201810S,TSG,2018-04-18T21:44:00Z,-149.5022,59.8525,262.23,0.0,149.4,101.54,0.14,0.63,0.0,1000.78,3.5,88.9,349.5,5.9,527.34,82.1,366.94
SKQ201810S,TSG,2018-04-18T21:45:00Z,-149.5022,59.8524,261.75,0.0,250.85,103.06,0.17,0.63,0.0,1000.82,3.5,89.4,344.2,4.7,520.2,82.45,367.73
SKQ201810S,TSG,2018-04-18T21:46:00Z,-149.5022,59.8525,261.99,0.0,21.54,103.98,0.14,0.71,0.01,1000.78,3.6,90.2,356.3,5.1,519.17,87.04,378.92
SKQ201810S,TSG,2018-04-18T21:47:00Z,-149.5022,59.8525,262.69,0.0,231.6,102.99,0.18,0.61,0.0,1000.76,3.5,89.6,328.5,5.7,520.14,89.56,388.17
SKQ201810S,TSG,2018-04-18T21:48:00Z,-149.5022,59.8524,262.81,0.0,181.35,101.63,0.19,0.68,0.01,1000.67,3.4,89.4,320.7,6.2,520.17,92.77,397.12
SKQ201810S,TSG,2018-04-18T21:49:00Z,-149.5022,59.8524,262.16,0.0,318.76,102.41,0.17,0.72,-0.0,1000.63,3.5,90.1,323.0,6.0,521.64,85.11,380.05
SKQ201810S,TSG,2018-04-18T21:50:00Z,-149.5022,59.8524,262.44,0.0,92.26,102.39,0.14,0.66,0.0,1000.76,3.5,90.4,332.7,5.3,522.9,80.35,369.76
SKQ201810S,TSG,2018-04-18T21:51:00Z,-149.5022,59.8525,262.28,0.0,99.75,105.08,0.18,0.66,0.0,1000.86,3.5,89.5,13.4,6.3,520.78,87.35,381.38
SKQ201810S,TSG,2018-04-18T21:52:00Z,-149.5022,59.8524,262.54,0.0,172.58,103.73,0.27,0.66,-0.0,1000.79,3.5,89.5,353.7,4.9,524.03,85.62,371.43
SKQ201810S,TSG,2018-04-18T21:53:00Z,-149.5022,59.8524,262.89,0.0,2.16,102.96,0.22,0.66,0.0,1000.73,3.5,89.5,343.2,4.4,520.7,78.76,350.29
SKQ201810S,TSG,2018-04-18T21:54:00Z,-149.5022,59.8525,262.37,0.2,337.56,100.83,-0.0,0.7,0.02,1000.84,3.5,90.1,60.2,2.7,523.94,71.53,331.95
SKQ201810S,TSG,2018-04-18T21:55:00Z,-149.5021,59.8525,262.14,0.5,100.71,107.61,0.01,0.68,0.0,1000.82,3.5,90.4,44.9,4.1,520.65,71.4,327.43
SKQ201810S,TSG,2018-04-18T21:56:00Z,-149.5018,59.8524,262.17,0.9,121.18,108.73,0.08,0.68,0.0,1000.83,3.5,89.8,49.4,5.2,524.43,66.53,316.87
SKQ201810S,TSG,2018-04-18T21:57:00Z,-149.5014,59.8523,262.65,0.7,126.64,108.51,0.12,0.68,0.0,1000.85,3.8,88.7,83.5,6.4,526.74,66.68,321.97
SKQ201810S,TSG,2018-04-18T21:58:00Z,-149.5011,59.8522,262.72,0.6,106.82,110.71,0.35,0.69,0.0,1000.73,4.4,86.0,82.6,8.1,523.54,77.88,347.24
SKQ201810S,TSG,2018-04-18T21:59:00Z,-149.5007,59.8522,262.78,0.9,103.06,114.73,0.35,0.67,0.0,1000.61,4.6,83.8,57.0,9.4,521.74,81.57,354.86
SKQ201810S,TSG,2018-04-18T22:00:00Z,-149.5003,59.8521,263.54,0.9,107.21,116.86,0.34,0.72,0.02,1000.64,4.5,84.6,43.3,6.5,527.19,79.38,348.52
SKQ201810S,TSG,2018-04-18T22:01:00Z,-149.4998,59.852,263.73,0.8,98.56,114.35,0.22,0.65,-0.0,1000.68,4.4,85.3,50.1,6.5,526.78,78.33,347.0
SKQ201810S,TSG,2018-04-18T22:02:00Z,-149.4994,59.852,264.16,0.8,121.89,114.4,0.14,0.68,0.0,1000.68,4.4,84.8,54.9,11.0,522.83,76.82,345.66
SKQ201810S,TSG,2018-04-18T22:03:00Z,-149.4991,59.8518,264.89,0.8,154.12,112.96,0.16,0.65,0.0,1000.78,4.6,82.6,81.1,10.8,524.64,78.81,357.0
SKQ201810S,TSG,2018-04-18T22:04:00Z,-149.499,59.8517,264.22,0.3,163.62,115.06,0.75,0.69,0.0,1000.64,4.7,81.3,69.0,15.4,527.08,94.06,397.64
SKQ201810S,TSG,2018-04-18T22:05:00Z,-149.4989,59.8516,264.23,0.2,136.03,118.83,0.51,0.71,0.01,1000.59,4.8,81.5,74.4,13.9,526.67,102.83,423.56
SKQ201810S,TSG,2018-04-18T22:06:00Z,-149.4987,59.8516,264.27,0.7,116.64,116.84,0.49,0.66,0.0,1000.61,4.8,79.7,72.5,13.7,529.17,102.99,426.03
SKQ201810S,TSG,2018-04-18T22:07:00Z,-149.4983,59.8515,264.64,1.1,118.01,122.98,0.54,0.7,0.01,1000.62,4.8,80.1,79.6,13.0,526.99,98.68,414.41
SKQ201810S,TSG,2018-04-18T22:08:00Z,-149.4977,59.8513,264.97,1.4,118.15,124.09,0.44,0.7,-0.0,1000.6,4.8,81.7,74.8,10.4,524.04,101.0,417.94
SKQ201810S,TSG,2018-04-18T22:09:00Z,-149.497,59.8511,265.19,1.4,114.45,125.12,0.38,0.7,0.0,1000.6,4.8,81.9,58.5,10.0,524.92,103.44,422.96
SKQ201810S,TSG,2018-04-18T22:10:00Z,-149.4963,59.8509,266.35,1.2,121.4,137.0,0.5,0.69,0.0,1000.6,4.8,81.9,74.3,13.5,524.91,97.46,408.24
SKQ201810S,TSG,2018-04-18T22:11:00Z,-149.4959,59.8507,266.88,1.0,154.0,163.29,0.53,0.69,-0.0,1000.6,4.8,81.9,84.5,15.2,528.64,97.94,410.95
SKQ201810S,TSG,2018-04-18T22:12:00Z,-149.4958,59.8505,266.55,1.0,191.3,178.95,0.56,0.71,0.0,1000.53,4.8,79.7,79.3,13.0,528.35,105.63,429.7
SKQ201810S,TSG,2018-04-18T22:13:00Z,-149.496,59.8502,265.88,1.0,202.91,178.02,0.59,0.7,0.0,1000.43,4.9,80.5,74.6,14.2,525.53,106.21,433.17
SKQ201810S,TSG,2018-04-18T22:14:00Z,-149.4963,59.85,266.22,1.0,214.64,178.6,0.78,0.68,0.02,1000.47,4.9,80.6,67.7,17.7,528.29,104.12,432.48
SKQ201810S,TSG,2018-04-18T22:15:00Z,-149.4966,59.8497,265.86,1.2,215.27,178.19,0.74,0.71,0.0,1000.47,4.9,79.8,72.4,15.9,525.96,115.15,460.54
SKQ201810S,TSG,2018-04-18T22:16:00Z,-149.497,59.8494,265.96,1.4,209.69,177.79,0.89,0.69,-0.0,1000.27,4.9,79.5,81.9,22.4,523.76,123.63,479.29
SKQ201810S,TSG,2018-04-18T22:17:00Z,-149.4974,59.849,265.96,1.6,208.05,178.19,0.86,0.67,0.0,1000.37,4.9,79.8,76.5,17.6,526.81,124.25,481.95
SKQ201810S,TSG,2018-04-18T22:18:00Z,-149.4978,59.8486,265.78,1.7,209.94,179.28,0.9,0.7,0.0,1000.28,4.8,80.9,66.9,20.6,523.74,122.18,479.76
SKQ201810S,TSG,2018-04-18T22:19:00Z,-149.4983,59.8482,266.0,1.7,210.67,180.42,0.81,0.73,0.01,1000.36,4.9,80.2,62.4,18.9,521.76,121.92,481.48
SKQ201810S,TSG,2018-04-18T22:20:00Z,-149.4988,59.8478,265.5,1.7,209.35,181.11,0.9,0.73,0.02,1000.38,4.8,80.6,76.3,19.7,523.44,119.56,479.25
SKQ201810S,TSG,2018-04-18T22:21:00Z,-149.4993,59.8474,265.59,1.5,220.64,178.81,0.94,0.67,0.0,1000.3,4.8,80.2,74.7,21.5,529.15,121.13,483.6
SKQ201810S,TSG,2018-04-18T22:22:00Z,-149.4998,59.8472,265.76,1.3,226.95,164.71,1.07,0.77,0.01,1000.23,4.8,80.5,72.0,21.7,522.84,126.4,500.41
SKQ201810S,TSG,2018-04-18T22:23:00Z,-149.5002,59.8468,265.32,1.9,190.95,142.39,1.28,0.78,0.0,1000.27,4.9,80.4,72.7,20.9,525.56,129.41,510.0
SKQ201810S,TSG,2018-04-18T22:24:00Z,-149.4999,59.8464,265.97,1.8,116.72,91.76,0.81,0.74,-0.0,1000.57,4.9,80.2,71.0,15.6,521.35,136.22,525.73
SKQ201810S,TSG,2018-04-18T22:25:00Z,-149.4988,59.8465,266.54,2.7,45.86,39.47,0.33,0.71,0.01,1000.49,4.8,80.1,87.9,18.0,523.99,134.97,526.92
SKQ201810S,TSG,2018-04-18T22:26:00Z,-149.4982,59.8474,266.25,4.1,4.47,10.25,-0.21,0.66,-0.0,1000.42,4.8,80.4,89.7,21.1,521.68,139.01,535.01
SKQ201810S,TSG,2018-04-18T22:27:00Z,-149.4981,59.8485,265.81,3.9,359.7,13.63,-0.44,0.63,0.0,1000.44,4.7,81.4,98.2,21.5,523.53,137.74,523.48
SKQ201810S,TSG,2018-04-18T22:28:00Z,-149.4981,59.8494,265.15,2.6,359.12,19.49,-0.14,0.66,0.02,1000.37,4.8,80.3,91.4,18.9,521.75,126.81,490.31
SKQ201810S,TSG,2018-04-18T22:29:00Z,-149.4983,59.8501,264.8,2.2,349.61,16.76,-0.44,0.59,0.0,1000.39,4.8,79.7,86.6,23.3,523.77,111.54,452.93
SKQ201810S,TSG,2018-04-18T22:30:00Z,-149.4985,59.8506,265.08,1.4,340.75,358.73,-0.27,0.62,0.0,1000.47,4.8,79.4,81.4,17.0,521.02,110.34,448.6
SKQ201810S,TSG,2018-04-18T22:31:00Z,-149.4988,59.8508,264.97,1.0,329.69,332.85,-0.04,0.65,0.01,1000.48,4.8,80.8,88.0,17.0,520.02,111.82,446.98
SKQ201810S,TSG,2018-04-18T22:32:00Z,-149.4989,59.851,264.22,0.3,17.73,301.67,0.11,0.62,0.0,1000.45,4.8,81.3,100.4,11.8,516.57,105.08,427.23
SKQ201810S,TSG,2018-04-18T22:33:00Z,-149.4987,59.8511,264.71,0.7,68.91,280.24,0.25,0.61,-0.0,1000.59,4.8,82.4,90.5,5.4,520.55,97.05,407.29
SKQ201810S,TSG,2018-04-18T22:34:00Z,-149.4983,59.8512,264.97,0.7,58.14,277.41,0.27,0.67,0.01,1000.63,4.8,83.7,93.1,5.1,513.42,94.09,406.48
SKQ201810S,TSG,2018-04-18T22:35:00Z,-149.498,59.8513,264.35,0.5,39.51,278.31,0.1,0.65,-0.0,1000.54,4.9,83.4,71.0,13.5,518.88,105.86,434.26
SKQ201810S,TSG,2018-04-18T22:36:00Z,-149.4979,59.8514,264.32,0.6,354.81,278.72,-0.11,0.62,0.01,1000.63,4.9,81.6,77.0,9.4,522.61,107.51,435.31
SKQ201810S,TSG,2018-04-18T22:37:00Z,-149.498,59.8516,264.65,1.1,356.37,277.11,0.05,0.66,-0.0,1000.67,4.9,83.3,97.4,5.8,516.77,106.3,429.8
SKQ201810S,TSG,2018-04-18T22:38:00Z,-149.498,59.852,264.93,1.3,358.05,276.21,0.11,0.64,-0.0,1000.66,4.8,83.1,88.6,6.2,520.3,98.22,411.74
SKQ201810S,TSG,2018-04-18T22:39:00Z,-149.498,59.8523,264.89,1.3,12.01,278.73,0.17,0.66,0.01,1000.64,4.8,83.7,89.5,5.2,518.16,100.66,419.55
SKQ201810S,TSG,2018-04-18T22:40:00Z,-149.4977,59.8526,264.57,0.9,41.4,281.7,0.59,0.65,0.0,1000.6,4.8,84.4,99.1,5.5,516.97,107.31,429.82
SKQ201810S,TSG,2018-04-18T22:41:00Z,-149.4975,59.8527,265.05,0.2,40.73,279.16,0.74,0.65,0.0,1000.64,4.8,82.9,87.3,5.4,519.62,102.77,421.31
SKQ201810S,TSG,2018-04-18T22:42:00Z,-149.4976,59.8527,265.09,0.5,255.25,290.11,0.18,0.68,0.0,1000.61,4.8,83.0,83.4,11.7,519.72,100.99,416.17
SKQ201810S,TSG,2018-04-18T22:43:00Z,-149.4979,59.8527,265.61,0.4,302.55,295.55,-0.25,0.61,0.0,1000.54,4.8,81.1,85.6,17.8,518.16,98.76,410.54
SKQ201810S,TSG,2018-04-18T22:44:00Z,-149.4979,59.8528,264.73,0.4,59.74,294.46,-0.11,0.67,0.01,1000.58,4.8,81.1,90.7,9.3,520.09,96.45,403.05
SKQ201810S,TSG,2018-04-18T22:45:00Z,-149.4976,59.8528,264.52,0.7,62.56,294.81,-0.06,0.63,0.0,1000.64,4.9,82.0,102.6,5.3,514.31,93.71,392.24
SKQ201810S,TSG,2018-04-18T22:46:00Z,-149.4972,59.853,264.89,0.8,39.15,293.93,0.2,0.64,0.0,1000.64,4.8,83.6,100.8,6.4,517.91,89.15,378.27
SKQ201810S,TSG,2018-04-18T22:47:00Z,-149.497,59.8531,264.76,0.5,23.19,295.62,0.16,0.64,0.0,1000.61,4.7,82.9,95.3,8.5,515.38,85.1,364.53
SKQ201810S,TSG,2018-04-18T22:48:00Z,-149.4969,59.8532,264.67,0.4,71.37,294.97,0.12,0.65,-0.0,1000.64,4.6,82.8,93.3,10.4,514.67,79.33,344.17
SKQ201810S,TSG,2018-04-18T22:49:00Z,-149.4968,59.8533,265.09,0.5,2.02,293.39,-0.14,0.63,0.0,1000.62,4.6,83.1,90.7,10.9,515.97,73.65,329.85
SKQ201810S,TSG,2018-04-18T22:50:00Z,-149.4968,59.8535,264.94,0.6,9.34,293.6,0.11,0.67,0.0,1000.64,4.5,83.6,95.9,9.9,517.52,72.52,327.75
SKQ201810S,TSG,2018-04-18T22:51:00Z,-149.4966,59.8536,264.45,0.4,31.07,295.48,0.17,0.65,0.01,1000.63,4.5,84.3,98.9,8.3,515.23,76.56,341.89
SKQ201810S,TSG,2018-04-18T22:52:00Z,-149.4966,59.8537,264.37,0.4,18.25,294.01,0.16,0.65,0.0,1000.64,4.5,84.8,101.5,7.3,517.68,82.21,357.09
SKQ201810S,TSG,2018-04-18T22:53:00Z,-149.4965,59.8538,264.33,0.5,356.91,294.81,-0.06,0.64,-0.0,1000.62,4.5,84.1,92.2,10.6,516.34,80.34,352.79
SKQ201810S,TSG,2018-04-18T22:54:00Z,-149.4965,59.8539,264.5,0.5,26.64,294.87,0.1,0.66,0.0,1000.63,4.5,84.5,93.5,7.2,513.23,81.08,356.65
SKQ201810S,TSG,2018-04-18T22:55:00Z,-149.4964,59.8541,265.06,0.7,17.8,295.07,0.02,0.64,0.0,1000.66,4.6,85.4,92.2,8.6,515.25,82.48,363.07
SKQ201810S,TSG,2018-04-18T22:56:00Z,-149.4963,59.8542,264.97,0.4,2.75,294.76,0.38,0.66,0.0,1000.64,4.5,84.5,94.7,7.8,518.61,87.38,379.57
SKQ201810S,TSG,2018-04-18T22:57:00Z,-149.4964,59.8543,264.39,0.5,289.6,295.33,0.6,0.67,-0.0,1000.68,4.5,85.3,111.6,4.3,515.16,92.7,395.34
SKQ201810S,TSG,2018-04-18T22:58:00Z,-149.4968,59.8543,264.13,0.8,278.39,295.81,0.25,0.64,-0.0,1000.67,4.5,86.2,87.0,10.2,520.84,96.3,406.75
SKQ201810S,TSG,2018-04-18T22:59:00Z,-149.4972,59.8544,264.12,0.9,274.42,296.11,0.19,0.67,0.01,1000.66,4.6,85.5,90.4,10.5,512.45,94.16,402.71
SKQ201810S,TSG,2018-04-18T23:00:00Z,-149.4977,59.8544,263.45,1.0,273.35,296.74,0.15,0.64,0.0,1000.61,4.6,85.0,91.0,12.0,521.05,95.94,410.34
SKQ201810S,TSG,2018-04-18T23:01:00Z,-149.4983,59.8544,263.45,1.1,279.64,295.65,0.28,0.66,-0.0,1000.65,4.5,84.9,108.0,5.7,521.65,98.85,415.44
SKQ201810S,TSG,2018-04-18T23:02:00Z,-149.4989,59.8545,263.4,1.1,285.71,292.79,0.22,0.67,0.02,1000.68,4.5,84.8,92.5,10.4,516.25,96.75,412.73
SKQ201810S,TSG,2018-04-18T23:03:00Z,-149.4995,59.8545,262.77,1.0,281.08,293.63,0.22,0.66,0.0,1000.69,4.5,85.0,97.2,7.4,520.83,98.1,415.67
SKQ201810S,TSG,2018-04-18T23:04:00Z,-149.5,59.8546,262.26,1.1,279.55,294.56,0.15,0.63,0.0,1000.7,4.5,85.5,91.8,10.1,520.95,102.72,426.78
SKQ201810S,TSG,2018-04-18T23:05:00Z,-149.5006,59.8547,261.96,1.4,289.6,295.26,-0.02,0.67,0.01,1000.61,4.5,84.5,90.1,11.4,515.08,101.6,423.81
SKQ201810S,TSG,2018-04-18T23:06:00Z,-149.5015,59.8549,261.54,2.3,298.41,276.69,0.44,0.66,0.0,1000.7,4.5,83.9,108.6,9.1,519.81,97.72,412.97
SKQ201810S,TSG,2018-04-18T23:07:00Z,-149.5029,59.855,260.96,2.5,264.55,219.6,1.27,0.8,-0.0,1000.55,4.4,85.0,102.8,18.9,518.97,94.14,400.4
SKQ201810S,TSG,2018-04-18T23:08:00Z,-149.5039,59.8548,260.58,1.8,219.24,167.94,1.1,0.77,0.02,1000.44,4.1,84.7,94.2,21.1,519.82,92.07,396.49
SKQ201810S,TSG,2018-04-18T23:09:00Z,-149.5041,59.8543,260.71,1.8,170.89,136.99,1.23,0.75,0.0,1000.35,4.2,83.4,84.6,24.2,524.88,97.13,413.78
SKQ201810S,TSG,2018-04-18T23:10:00Z,-149.5036,59.8539,261.71,2.3,126.13,113.48,0.81,0.73,0.0,1000.58,4.3,81.8,94.2,17.9,519.24,111.27,448.34
SKQ201810S,TSG,2018-04-18T23:11:00Z,-149.5023,59.8536,262.24,2.5,102.06,106.57,0.25,0.7,0.0,1000.66,4.2,84.2,107.7,17.8,521.28,114.73,458.55
SKQ201810S,TSG,2018-04-18T23:12:00Z,-149.5009,59.8536,263.71,2.6,89.01,100.56,0.18,0.68,0.0,1000.68,4.1,84.1,112.9,17.1,519.89,116.69,466.16
SKQ201810S,TSG,2018-04-18T23:13:00Z,-149.4994,59.8536,264.19,3.1,90.48,104.01,0.08,0.69,0.0,1000.65,4.1,84.7,105.5,17.9,522.6,113.18,456.63
SKQ201810S,TSG,2018-04-18T23:14:00Z,-149.4976,59.8534,265.48,3.5,113.38,118.28,0.37,0.72,0.01,1000.56,4.2,83.8,87.2,17.8,523.86,110.16,456.94
SKQ201810S,TSG,2018-04-18T23:15:00Z,-149.4958,59.853,266.63,4.0,113.22,113.4,0.37,0.72,0.0,1000.61,4.1,85.0,102.9,16.2,522.77,122.16,485.82
SKQ201810S,TSG,2018-04-18T23:16:00Z,-149.4936,59.8526,267.24,4.2,109.95,115.6,0.23,0.7,0.02,1000.64,4.1,85.6,106.4,15.7,525.65,124.76,495.93
SKQ201810S,TSG,2018-04-18T23:17:00Z,-149.4915,59.8521,268.46,4.3,120.84,123.73,0.33,0.71,0.0,1000.6,3.9,86.3,108.1,20.8,522.63,127.17,500.21
SKQ201810S,TSG,2018-04-18T23:18:00Z,-149.4895,59.8514,269.29,4.5,120.56,119.55,0.46,0.77,0.04,1000.61,3.7,86.0,113.2,18.4,518.79,125.91,498.45
SKQ201810S,TSG,2018-04-18T23:19:00Z,-149.4871,59.8508,268.82,5.4,115.5,117.44,0.34,0.69,0.0,1000.57,3.6,88.1,105.2,18.6,520.26,134.27,528.37
SKQ201810S,TSG,2018-04-18T23:20:00Z,-149.4843,59.8501,268.82,5.8,115.89,115.95,0.46,0.74,0.01,1000.55,3.6,88.1,96.4,18.3,518.67,149.94,568.93
SKQ201810S,TSG,2018-04-18T23:21:00Z,-149.4814,59.8494,269.43,6.1,115.43,115.72,0.43,0.7,0.0,1000.56,3.6,86.9,101.2,18.7,518.93,152.6,567.94
SKQ201810S,TSG,2018-04-18T23:22:00Z,-149.4783,59.8487,269.16,6.0,114.88,116.0,0.43,0.73,0.01,1000.57,3.7,87.2,101.1,19.2,519.68,138.63,531.21
SKQ201810S,TSG,2018-04-18T23:23:00Z,-149.4753,59.848,270.23,5.7,113.57,112.88,0.4,0.75,0.0,1000.57,3.7,87.2,103.6,17.3,518.14,129.93,507.76
SKQ201810S,TSG,2018-04-18T23:24:00Z,-149.4729,59.8475,270.41,4.0,109.57,109.99,0.34,0.72,0.01,1000.55,3.6,87.0,100.9,20.2,516.34,130.83,511.57
SKQ201810S,TSG,2018-04-18T23:25:00Z,-149.4709,59.8472,270.93,3.6,114.43,114.78,0.39,0.66,0.0,1000.54,3.6,86.6,100.7,21.8,519.88,133.9,519.73
SKQ201810S,TSG,2018-04-18T23:26:00Z,-149.4695,59.8468,270.83,2.1,115.78,107.94,0.31,0.67,0.02,1000.55,3.5,86.7,104.6,21.1,520.59,127.08,503.88
SKQ201810S,TSG,2018-04-18T23:27:00Z,-149.4688,59.8467,270.28,0.5,65.89,101.13,-0.03,0.71,0.02,1000.58,3.5,87.5,113.7,18.3,520.0,132.22,520.87
SKQ201810S,TSG,2018-04-18T23:28:00Z,-149.4688,59.8468,270.68,0.2,21.6,104.99,0.08,0.67,0.0,1000.57,3.6,88.6,98.6,17.8,516.64,138.47,534.53
SKQ201810S,TSG,2018-04-18T23:29:00Z,-149.4688,59.8468,269.96,0.1,263.76,106.27,0.08,0.67,0.02,1000.6,3.6,88.1,104.4,17.0,520.07,136.39,527.9
SKQ201810S,TSG,2018-04-18T23:30:00Z,-149.4688,59.8468,270.39,0.0,135.73,105.32,0.05,0.67,0.0,1000.58,3.4,88.0,107.7,15.4,524.15,130.47,506.65
SKQ201810S,TSG,2018-04-18T23:31:00Z,-149.4688,59.8468,270.2,0.0,214.16,105.21,0.09,0.7,0.02,1000.52,3.5,88.3,105.5,18.9,521.9,120.24,481.09
SKQ201810S,TSG,2018-04-18T23:32:00Z,-149.4688,59.8468,271.48,0.0,103.48,105.68,-0.01,0.68,0.0,1000.57,3.6,87.3,104.6,18.0,516.99,119.21,483.43
SKQ201810S,TSG,2018-04-18T23:33:00Z,-149.4688,59.8468,271.54,0.0,224.68,105.27,0.23,0.67,0.0,1000.51,3.6,87.7,97.8,19.6,520.2,131.63,512.78
SKQ201810S,TSG,2018-04-18T23:34:00Z,-149.4688,59.8468,270.86,0.0,53.06,103.85,0.01,0.67,-0.0,1000.5,3.5,87.2,106.8,21.4,518.39,131.22,508.8
SKQ201810S,TSG,2018-04-18T23:35:00Z,-149.4688,59.8468,270.61,0.0,247.4,104.97,-0.03,0.66,0.01,1000.48,3.5,87.0,110.4,17.0,520.78,127.65,500.55
SKQ201810S,TSG,2018-04-18T23:36:00Z,-149.4688,59.8468,271.16,0.1,148.77,104.66,0.14,0.68,-0.0,1000.47,3.5,88.0,113.4,19.0,520.8,125.27,495.5
SKQ201810S,TSG,2018-04-18T23:37:00Z,-149.4688,59.8468,272.38,0.0,48.61,106.4,-0.0,0.67,0.0,1000.45,3.5,88.2,106.2,18.8,521.1,128.05,500.67
SKQ201810S,TSG,2018-04-18T23:38:00Z,-149.4688,59.8468,270.99,0.0,217.54,105.33,0.03,0.67,0.02,1000.45,3.6,87.2,94.1,15.5,522.75,122.17,482.57
SKQ201810S,TSG,2018-04-18T23:39:00Z,-149.4688,59.8468,271.36,0.0,289.17,105.89,0.17,0.66,0.0,1000.46,3.7,86.4,100.9,15.6,518.72,115.17,461.83
SKQ201810S,TSG,2018-04-18T23:40:00Z,-149.4688,59.8468,269.89,0.0,67.99,105.19,0.12,0.69,-0.0,1000.46,3.6,86.4,106.2,18.0,520.31,111.3,450.14
SKQ201810S,TSG,2018-04-18T23:41:00Z,-149.4688,59.8468,270.42,0.0,253.44,103.65,0.03,0.69,0.01,1000.44,3.7,86.1,99.9,16.1,520.34,109.04,443.22
SKQ201810S,TSG,2018-04-18T23:42:00Z,-149.4688,59.8468,271.01,0.1,150.82,104.93,0.02,0.63,0.0,1000.47,3.6,86.4,106.4,14.7,523.17,108.08,441.46
SKQ201810S,TSG,2018-04-18T23:43:00Z,-149.4688,59.8468,271.01,0.0,294.25,103.83,-0.08,0.67,0.02,1000.4,3.6,86.7,121.6,17.5,518.61,107.37,440.64
SKQ201810S,TSG,2018-04-18T23:44:00Z,-149.4688,59.8468,269.8,0.0,242.14,103.78,0.1,0.68,-0.0,1000.39,3.6,87.4,94.8,14.8,514.65,107.94,442.31
SKQ201810S,TSG,2018-04-18T23:45:00Z,-149.4688,59.8468,270.91,0.1,134.24,106.87,0.2,0.65,0.0,1000.41,3.6,87.9,85.4,13.0,516.74,110.2,448.31
SKQ201810S,TSG,2018-04-18T23:46:00Z,-149.4688,59.8468,270.25,0.1,323.56,106.47,0.21,0.7,-0.0,1000.38,3.7,88.5,88.3,14.6,524.76,111.46,454.41
SKQ201810S,TSG,2018-04-18T23:47:00Z,-149.4688,59.8468,270.48,0.0,71.19,105.23,0.02,0.67,0.0,1000.42,3.6,88.4,105.8,16.3,522.87,118.42,472.61
SKQ201810S,TSG,2018-04-18T23:48:00Z,-149.4688,59.8468,270.13,0.0,200.49,103.44,0.09,0.65,0.0,1000.38,3.6,88.1,97.2,18.0,516.18,123.44,484.63
SKQ201810S,TSG,2018-04-18T23:49:00Z,-149.4688,59.8468,271.96,0.0,245.58,105.32,0.25,0.7,0.01,1000.35,3.6,87.6,96.9,14.6,521.02,124.09,485.49
SKQ201810S,TSG,2018-04-18T23:50:00Z,-149.4688,59.8468,270.5,0.1,71.13,105.06,0.13,0.65,0.0,1000.38,3.7,87.8,99.4,16.1,519.26,124.78,489.6
SKQ201810S,TSG,2018-04-18T23:51:00Z,-149.4688,59.8468,270.02,0.0,190.64,105.14,0.06,0.64,0.0,1000.36,3.7,88.2,112.5,15.6,522.68,128.81,501.27
SKQ201810S,TSG,2018-04-18T23:52:00Z,-149.4688,59.8468,270.54,0.0,256.6,104.95,0.23,0.7,0.02,1000.31,3.7,88.4,90.9,15.6,520.83,131.54,509.97
SKQ201810S,TSG,2018-04-18T23:53:00Z,-149.4688,59.8468,271.34,0.0,136.37,105.8,0.17,0.68,0.0,1000.3,3.7,86.8,88.0,14.9,521.57,134.78,519.12
SKQ201810S,TSG,2018-04-18T23:54:00Z,-149.4688,59.8468,269.9,0.0,68.75,104.53,0.15,0.65,-0.0,1000.35,3.7,87.0,96.4,11.7,516.76,137.9,525.26
SKQ201810S,TSG,2018-04-18T23:55:00Z,-149.4688,59.8468,269.95,0.0,206.37,103.72,0.04,0.67,0.0,1000.35,3.7,88.6,105.0,16.0,523.47,135.96,520.47
SKQ201810S,TSG,2018-04-18T23:56:00Z,-149.4688,59.8468,271.72,0.0,206.22,104.97,-0.15,0.66,-0.0,1000.31,3.6,89.4,111.0,13.6,517.33,136.4,526.24
SKQ201810S,TSG,2018-04-18T23:57:00Z,-149.4688,59.8468,271.48,0.1,303.66,104.13,0.13,0.69,0.01,1000.3,3.6,90.1,114.5,15.4,515.15,145.91,545.63
SKQ201810S,TSG,2018-04-18T23:58:00Z,-149.4688,59.8468,270.17,0.1,123.27,105.66,-0.02,0.66,0.0,1000.28,3.6,90.6,112.0,14.4,518.2,143.19,537.31
SKQ201810S,TSG,2018-04-18T23:59:00Z,-149.4688,59.8468,270.05,0.1,277.0,106.85,0.22,0.65,0.0,1000.3,3.6,90.2,101.1,14.3,520.5,139.55,529.55
SKQ201810S,TSG,2018-04-19T00:00:00Z,-149.4688,59.8468,270.18,0.0,46.13,103.29,-0.07,0.68,0.03,1000.23,3.6,90.3,117.3,17.2,514.71,140.43,531.93
SKQ201810S,TSG,2018-04-19T00:00:00Z,-149.4688,59.8468,271.44,0.3,318.64,100.97,-0.17,0.74,0.05,1000.3,3.6,90.4,116.4,18.3,519.34,141.42,529.66
SKQ201810S,TSG,2018-04-19T00:01:00Z,-149.4688,59.8468,270.5,0.1,46.16,113.8,-0.04,0.68,0.0,1000.27,3.5,90.6,112.0,18.4,520.33,135.66,513.76
SKQ201810S,TSG,2018-04-19T00:02:00Z,-149.4687,59.8468,270.01,0.4,158.12,105.0,0.03,0.67,-0.0,1000.28,3.5,91.1,113.4,16.0,520.67,126.2,490.51
SKQ201810S,TSG,2018-04-19T00:03:00Z,-149.4688,59.8467,270.69,0.2,306.41,97.07,-0.12,0.62,0.01,1000.29,3.5,91.9,116.6,15.9,525.28,126.44,488.9
SKQ201810S,TSG,2018-04-19T00:04:00Z,-149.4688,59.8468,270.56,0.6,18.77,93.95,0.1,0.71,0.0,1000.28,3.4,91.5,109.6,17.2,521.5,125.23,483.12
SKQ201810S,TSG,2018-04-19T00:05:00Z,-149.4685,59.847,270.93,0.8,38.86,104.49,-0.02,0.67,0.01,1000.31,3.5,91.5,105.7,15.9,521.21,121.27,476.21
SKQ201810S,TSG,2018-04-19T00:06:00Z,-149.4683,59.8471,270.35,0.7,73.55,114.97,0.1,0.65,0.0,1000.32,3.4,91.5,109.1,18.9,520.77,130.41,497.78
SKQ201810S,TSG,2018-04-19T00:07:00Z,-149.4679,59.8471,270.24,1.0,115.01,119.61,0.27,0.68,0.01,1000.29,3.4,91.7,114.8,18.5,528.18,136.07,512.3
SKQ201810S,TSG,2018-04-19T00:08:00Z,-149.4673,59.8469,270.15,1.3,124.39,123.01,0.38,0.67,0.0,1000.22,3.5,92.2,104.4,17.9,520.62,141.46,527.67
SKQ201810S,TSG,2018-04-19T00:09:00Z,-149.4667,59.8467,270.3,1.3,139.0,127.07,0.29,0.68,0.02,1000.24,3.5,90.9,106.0,17.6,516.34,143.5,534.25
SKQ201810S,TSG,2018-04-19T00:10:00Z,-149.4663,59.8464,270.72,1.5,137.48,116.5,0.41,0.7,-0.0,1000.23,3.4,91.1,104.3,19.5,521.76,145.26,540.27
SKQ201810S,TSG,2018-04-19T00:11:00Z,-149.4657,59.8462,270.85,1.0,119.57,109.23,0.33,0.68,0.0,1000.27,3.4,90.4,104.4,18.7,515.24,149.47,552.75
SKQ201810S,TSG,2018-04-19T00:12:00Z,-149.4653,59.8461,270.98,0.7,107.77,109.78,0.32,0.66,-0.0,1000.28,3.4,91.8,111.5,18.4,520.37,148.6,549.05
SKQ201810S,TSG,2018-04-19T00:13:00Z,-149.465,59.8461,270.92,0.2,59.94,111.59,0.2,0.67,0.01,1000.26,3.4,92.9,109.4,19.0,523.42,144.44,539.39
SKQ201810S,TSG,2018-04-19T00:14:00Z,-149.465,59.8461,270.48,0.2,327.83,116.14,0.37,0.67,0.0,1000.24,3.3,92.6,110.9,18.6,521.86,144.86,537.49
SKQ201810S,TSG,2018-04-19T00:15:00Z,-149.4651,59.8462,270.85,0.1,34.44,112.31,0.09,0.65,0.01,1000.26,3.3,92.7,118.1,20.0,522.88,141.58,528.73
SKQ201810S,TSG,2018-04-19T00:16:00Z,-149.465,59.8462,270.97,0.3,44.74,110.37,0.22,0.71,0.01,1000.21,3.5,93.5,113.5,17.9,519.78,138.96,525.29
SKQ201810S,TSG,2018-04-19T00:17:00Z,-149.4649,59.8463,270.78,0.3,359.08,110.29,0.06,0.7,0.01,1000.22,3.5,94.2,112.1,19.5,521.36,142.64,535.06
