Cruise,Type,Date_Time_[UTC],Longitude_[decimal_degrees_east],Latitude_[decimal_degrees_north],Bottom_Depth_[m],Speed_[knots],Course_[degrees_true],Heading_[degree],Roll_[degree],Pitch_[degree],Heave,Atmos_Pressure_[hPa],Air_Temperature_[C],Relative_Humidity_[%],Wind_Dir_[degrees_true],Wind_Speed_[knots],Longwave_Downwelling_[W/m2],Shortwave_Downwelling_[W/m2],PAR_[uE/m2/s]
SKQ202106S,TSG,2021-04-23T03:39:00Z,-149.4182,60.0824,175.04,7.9,150.84,151.31,0.52,0.61,-0.0,1018.2,7.0,71.0,161.8,13.3,367.75,63.32,250.47
SKQ202106S,TSG,2021-04-23T03:40:00Z,-149.416,60.0805,181.65,8.3,150.77,151.3,0.51,0.6,0.0,1018.2,6.9,71.7,159.7,13.2,367.2,62.34,247.19
SKQ202106S,TSG,2021-04-23T03:41:00Z,-149.4137,60.0784,189.15,8.5,150.86,151.28,0.5,0.6,0.0,1018.2,6.9,71.9,161.1,12.7,366.71,61.58,244.55
SKQ202106S,TSG,2021-04-23T03:42:00Z,-149.4114,60.0764,196.39,8.6,150.71,151.19,0.49,0.6,-0.0,1018.2,6.9,72.3,161.3,12.4,366.77,60.92,242.09
SKQ202106S,TSG,2021-04-23T03:43:00Z,-149.4091,60.0743,204.48,8.7,150.59,151.31,0.47,0.6,0.01,1018.2,7.0,71.3,165.3,12.3,367.07,60.01,239.21
SKQ202106S,TSG,2021-04-23T03:44:00Z,-149.4067,60.0722,214.48,8.9,150.6,151.44,0.48,0.6,0.0,1018.2,7.0,71.1,163.5,12.0,366.88,59.04,236.48
SKQ202106S,TSG,2021-04-23T03:45:00Z,-149.4043,60.07,228.14,9.0,151.19,152.03,0.5,0.6,0.0,1018.2,7.0,71.2,162.3,11.6,367.14,57.91,233.57
SKQ202106S,TSG,2021-04-23T03:46:00Z,-149.4019,60.0678,238.98,9.0,151.3,152.01,0.51,0.6,0.0,1018.2,7.0,71.7,163.6,10.9,367.65,56.52,229.75
SKQ202106S,TSG,2021-04-23T03:47:00Z,-149.3995,60.0656,248.35,9.0,151.7,152.49,0.5,0.61,0.0,1018.2,7.0,70.8,160.5,10.7,368.58,54.89,225.36
SKQ202106S,TSG,2021-04-23T03:48:00Z,-149.3972,60.0634,251.74,9.0,152.67,153.31,0.52,0.6,-0.0,1018.2,6.9,72.2,156.9,11.3,369.09,53.19,220.91
SKQ202106S,TSG,2021-04-23T03:49:00Z,-149.3949,60.0612,246.1,9.0,152.95,153.35,0.54,0.6,-0.0,1018.2,6.8,72.7,156.7,11.7,368.94,51.23,215.68
SKQ202106S,TSG,2021-04-23T03:50:00Z,-149.3926,60.059,236.18,9.0,153.0,153.27,0.57,0.61,-0.0,1018.22,6.9,72.2,156.8,11.8,368.84,49.44,210.29
SKQ202106S,TSG,2021-04-23T03:51:00Z,-149.3904,60.0567,232.42,9.0,153.08,153.43,0.56,0.6,0.0,1018.21,7.0,70.5,156.2,11.0,368.95,47.95,205.49
SKQ202106S,TSG,2021-04-23T03:52:00Z,-149.3881,60.0545,224.45,9.0,153.5,153.95,0.48,0.6,0.0,1018.25,6.9,71.3,157.6,9.8,368.47,46.75,201.21
SKQ202106S,TSG,2021-04-23T03:53:00Z,-149.386,60.0523,209.03,9.0,156.23,156.22,0.54,0.6,0.0,1018.22,6.9,71.9,153.3,10.9,368.13,45.77,197.6
SKQ202106S,TSG,2021-04-23T03:54:00Z,-149.384,60.05,219.9,8.9,156.26,155.63,0.61,0.61,0.0,1018.2,6.9,70.5,150.1,11.6,368.97,44.5,193.14
SKQ202106S,TSG,2021-04-23T03:55:00Z,-149.3819,60.0477,237.52,8.9,153.61,153.17,0.61,0.61,-0.0,1018.2,7.0,70.1,154.2,10.2,369.52,43.15,188.31
SKQ202106S,TSG,2021-04-23T03:56:00Z,-149.3797,60.0455,272.56,8.9,152.62,152.34,0.6,0.6,0.0,1018.2,7.0,71.2,150.4,9.5,369.44,42.02,184.08
SKQ202106S,TSG,2021-04-23T03:57:00Z,-149.3774,60.0433,291.11,8.9,152.49,152.31,0.58,0.61,-0.0,1018.19,6.9,71.7,144.0,9.8,369.88,41.45,181.28
SKQ202106S,TSG,2021-04-23T03:58:00Z,-149.3751,60.0412,292.08,8.9,152.28,152.34,0.63,0.61,0.01,1018.2,6.9,72.0,146.3,10.5,370.31,40.76,178.24
SKQ202106S,TSG,2021-04-23T03:59:00Z,-149.3728,60.039,291.88,8.9,152.15,152.48,0.65,0.61,0.0,1018.21,6.9,72.0,151.2,10.1,370.8,39.92,174.75
SKQ202106S,TSG,2021-04-23T04:00:00Z,-149.3705,60.0368,291.52,8.8,152.1,152.36,0.62,0.6,0.0,1018.21,6.9,71.8,150.5,10.8,370.46,39.05,171.19
SKQ202106S,TSG,2021-04-23T04:01:00Z,-149.3683,60.0347,292.07,8.0,151.71,152.12,0.61,0.58,-0.0,1018.23,6.8,72.2,155.7,10.9,370.26,38.26,167.92
SKQ202106S,TSG,2021-04-23T04:02:00Z,-149.3663,60.0329,291.7,7.0,151.45,152.31,0.56,0.61,0.01,1018.27,6.8,72.7,157.2,9.6,371.21,37.31,164.57
SKQ202106S,TSG,2021-04-23T04:03:00Z,-149.3647,60.0314,291.65,5.8,151.16,152.08,0.53,0.63,0.01,1018.3,6.7,73.3,151.7,9.3,372.75,36.04,160.84
SKQ202106S,TSG,2021-04-23T04:04:00Z,-149.3632,60.03,291.93,5.4,150.93,151.86,0.56,0.61,0.0,1018.27,6.7,73.1,149.8,10.2,373.71,34.58,156.89
SKQ202106S,TSG,2021-04-23T04:05:00Z,-149.3618,60.0288,291.85,4.5,152.54,154.54,0.55,0.63,0.0,1018.29,6.7,73.4,147.5,9.1,374.26,33.38,153.29
SKQ202106S,TSG,2021-04-23T04:06:00Z,-149.3608,60.0278,292.17,3.8,154.61,156.14,0.58,0.63,0.0,1018.29,6.7,73.3,143.5,9.5,374.45,32.38,149.79
SKQ202106S,TSG,2021-04-23T04:07:00Z,-149.3601,60.0269,292.05,3.0,158.16,157.74,0.65,0.6,0.0,1018.29,6.7,73.3,138.4,9.6,374.4,31.33,146.23
SKQ202106S,TSG,2021-04-23T04:08:00Z,-149.3596,60.0263,292.83,2.0,157.31,156.34,0.67,0.58,0.0,1018.31,6.7,73.4,134.2,9.8,374.44,30.36,142.99
SKQ202106S,TSG,2021-04-23T04:09:00Z,-149.3592,60.0259,292.8,1.1,160.72,154.07,0.69,0.6,0.01,1018.29,6.6,73.5,130.9,9.4,374.47,29.52,140.26
SKQ202106S,TSG,2021-04-23T04:10:00Z,-149.3591,60.0257,293.46,0.6,156.22,148.58,0.69,0.58,0.0,1018.31,6.6,73.7,135.6,9.2,374.21,28.75,137.76
SKQ202106S,TSG,2021-04-23T04:11:00Z,-149.3589,60.0256,293.2,0.4,130.04,144.21,0.68,0.59,-0.0,1018.33,6.6,74.0,140.8,8.7,374.71,28.21,135.72
SKQ202106S,TSG,2021-04-23T04:12:00Z,-149.3588,60.0255,293.33,0.4,127.38,145.08,0.67,0.58,0.0,1018.32,6.6,73.8,138.2,8.7,374.4,27.91,134.28
SKQ202106S,TSG,2021-04-23T04:13:00Z,-149.3586,60.0254,294.07,0.4,133.71,139.29,0.67,0.59,0.0,1018.32,6.6,74.1,144.7,8.5,373.63,27.55,132.66
SKQ202106S,TSG,2021-04-23T04:14:00Z,-149.3585,60.0254,294.26,0.2,37.51,134.88,0.6,0.59,0.01,1018.34,6.6,74.6,158.2,9.3,373.1,27.23,131.11
SKQ202106S,TSG,2021-04-23T04:15:00Z,-149.3584,60.0255,294.42,0.2,45.81,135.3,0.58,0.58,0.0,1018.34,6.5,75.6,153.6,9.2,372.86,26.61,129.43
SKQ202106S,TSG,2021-04-23T04:16:00Z,-149.3583,60.0255,293.48,0.1,52.89,135.6,0.49,0.58,0.0,1018.33,6.5,74.9,147.6,10.1,373.12,25.93,127.69
SKQ202106S,TSG,2021-04-23T04:17:00Z,-149.3583,60.0255,294.61,0.0,227.99,134.88,0.52,0.59,0.0,1018.33,6.6,74.7,151.7,10.1,373.1,25.3,125.88
SKQ202106S,TSG,2021-04-23T04:18:00Z,-149.3583,60.0255,293.42,0.0,225.59,134.17,0.41,0.57,0.0,1018.32,6.6,74.3,156.3,10.0,372.96,24.9,124.36
SKQ202106S,TSG,2021-04-23T04:19:00Z,-149.3583,60.0255,292.73,0.0,240.04,134.07,0.5,0.58,-0.0,1018.32,6.6,74.1,150.4,9.3,372.79,24.44,122.94
SKQ202106S,TSG,2021-04-23T04:20:00Z,-149.3584,60.0255,293.89,0.1,216.16,134.15,0.58,0.6,0.01,1018.33,6.6,73.5,154.5,10.6,372.8,24.09,121.72
SKQ202106S,TSG,2021-04-23T04:21:00Z,-149.3584,60.0255,293.41,0.1,236.14,133.85,0.46,0.58,0.0,1018.37,6.6,73.1,153.4,10.8,373.0,23.86,120.81
SKQ202106S,TSG,2021-04-23T04:22:00Z,-149.3584,60.0254,293.85,0.0,28.63,128.0,0.81,0.6,-0.0,1018.33,6.6,73.7,163.6,9.4,373.01,23.86,120.29
SKQ202106S,TSG,2021-04-23T04:23:00Z,-149.3584,60.0255,293.12,0.3,41.72,128.71,0.94,0.61,0.01,1018.34,6.6,73.9,159.8,9.8,372.78,24.17,120.47
SKQ202106S,TSG,2021-04-23T04:24:00Z,-149.3583,60.0255,292.8,0.2,36.56,130.2,0.96,0.61,0.0,1018.33,6.6,74.1,164.6,10.7,372.17,24.53,120.61
SKQ202106S,TSG,2021-04-23T04:25:00Z,-149.3582,60.0256,292.53,0.1,40.33,130.33,0.96,0.61,0.01,1018.33,6.5,74.6,169.7,9.7,371.62,24.88,120.75
SKQ202106S,TSG,2021-04-23T04:26:00Z,-149.3582,60.0256,293.06,0.0,222.74,130.04,0.85,0.61,0.0,1018.35,6.5,75.6,170.6,9.3,371.69,25.0,120.65
SKQ202106S,TSG,2021-04-23T04:27:00Z,-149.3582,60.0256,292.35,0.1,223.0,129.24,0.95,0.61,-0.0,1018.36,6.5,76.4,169.1,9.6,371.7,24.93,119.92
SKQ202106S,TSG,2021-04-23T04:28:00Z,-149.3583,60.0255,292.71,0.0,219.93,127.35,0.94,0.6,0.0,1018.34,6.5,75.8,162.4,9.8,372.06,24.6,118.75
SKQ202106S,TSG,2021-04-23T04:29:00Z,-149.3583,60.0255,292.35,0.2,41.63,127.68,0.58,0.6,0.0,1018.35,6.6,74.0,162.9,12.0,372.28,24.24,117.51
SKQ202106S,TSG,2021-04-23T04:30:00Z,-149.3582,60.0256,292.3,0.2,42.03,129.86,0.57,0.59,0.0,1018.35,6.6,73.9,160.3,12.3,372.51,23.83,115.65
SKQ202106S,TSG,2021-04-23T04:31:00Z,-149.3581,60.0256,292.72,0.1,36.46,130.48,0.61,0.6,0.0,1018.33,6.7,72.5,168.8,10.5,372.66,23.01,112.92
SKQ202106S,TSG,2021-04-23T04:32:00Z,-149.3581,60.0256,293.52,0.0,208.63,130.05,0.81,0.59,0.0,1018.34,6.6,73.4,150.7,8.9,372.83,21.88,109.5
SKQ202106S,TSG,2021-04-23T04:33:00Z,-149.3581,60.0256,292.79,0.1,225.11,129.48,0.39,0.58,0.0,1018.34,6.6,73.7,150.1,10.1,373.31,20.46,105.57
SKQ202106S,TSG,2021-04-23T04:34:00Z,-149.3582,60.0256,292.39,0.2,220.99,128.92,0.36,0.58,0.0,1018.37,6.6,73.0,150.8,11.0,373.8,18.65,100.9
SKQ202106S,TSG,2021-04-23T04:35:00Z,-149.3583,60.0255,292.5,0.2,220.1,128.84,0.54,0.59,-0.0,1018.38,6.6,73.5,149.0,9.4,374.2,16.82,95.89
SKQ202106S,TSG,2021-04-23T04:36:00Z,-149.3584,60.0255,293.18,0.2,219.05,128.31,0.5,0.57,0.0,1018.35,6.6,73.6,145.0,9.7,374.59,15.08,91.04
SKQ202106S,TSG,2021-04-23T04:37:00Z,-149.3584,60.0254,294.68,0.1,216.03,127.73,0.45,0.58,0.01,1018.35,6.6,73.4,162.9,10.0,374.74,13.42,86.38
SKQ202106S,TSG,2021-04-23T04:38:00Z,-149.3585,60.0254,293.37,0.0,83.36,128.76,0.54,0.58,0.0,1018.37,6.6,74.0,156.9,8.5,374.7,11.88,81.99
SKQ202106S,TSG,2021-04-23T04:39:00Z,-149.3584,60.0254,294.26,0.1,32.63,129.64,0.39,0.58,-0.0,1018.37,6.5,74.2,154.9,9.4,375.0,10.39,77.86
SKQ202106S,TSG,2021-04-23T04:40:00Z,-149.3584,60.0255,293.22,0.1,39.54,129.92,0.74,0.6,0.0,1018.38,6.6,74.0,147.8,7.8,374.82,9.13,74.12
SKQ202106S,TSG,2021-04-23T04:41:00Z,-149.3584,60.0255,293.92,0.1,29.75,129.83,0.79,0.6,-0.0,1018.34,6.6,73.9,143.7,8.6,375.24,8.24,71.14
SKQ202106S,TSG,2021-04-23T04:42:00Z,-149.3584,60.0255,293.12,0.1,39.21,129.3,0.89,0.6,0.01,1018.37,6.5,74.4,151.8,9.2,374.78,7.56,68.51
SKQ202106S,TSG,2021-04-23T04:43:00Z,-149.3583,60.0255,293.52,0.1,40.69,129.21,0.84,0.6,-0.0,1018.4,6.5,74.5,148.5,8.4,374.65,6.76,65.93
SKQ202106S,TSG,2021-04-23T04:44:00Z,-149.3583,60.0255,293.1,0.1,41.93,129.44,0.87,0.59,-0.0,1018.37,6.5,74.6,152.9,9.4,374.9,5.87,63.13
SKQ202106S,TSG,2021-04-23T04:45:00Z,-149.3582,60.0256,292.51,0.2,41.29,129.2,0.86,0.6,0.01,1018.4,6.5,74.8,157.0,9.0,374.61,4.88,60.27
SKQ202106S,TSG,2021-04-23T04:46:00Z,-149.3582,60.0256,292.91,0.2,39.4,129.16,0.85,0.61,0.0,1018.4,6.5,75.2,157.3,9.5,374.72,3.96,57.65
SKQ202106S,TSG,2021-04-23T04:47:00Z,-149.3581,60.0256,293.0,0.2,39.68,129.56,0.8,0.59,-0.0,1018.38,6.5,75.0,152.5,9.4,374.77,3.21,55.24
SKQ202106S,TSG,2021-04-23T04:48:00Z,-149.358,60.0257,293.31,0.2,38.95,129.38,0.81,0.6,0.0,1018.37,6.5,75.0,163.5,9.6,374.68,2.43,52.99
SKQ202106S,TSG,2021-04-23T04:49:00Z,-149.358,60.0257,293.23,0.2,38.27,129.12,0.78,0.6,0.01,1018.37,6.5,74.7,166.7,10.3,374.52,1.69,50.82
SKQ202106S,TSG,2021-04-23T04:50:00Z,-149.3579,60.0258,293.72,0.2,39.44,129.76,0.82,0.59,0.0,1018.36,6.5,74.3,150.2,9.1,374.5,1.11,48.74
SKQ202106S,TSG,2021-04-23T04:51:00Z,-149.3579,60.0258,294.97,0.1,33.43,129.38,0.83,0.6,0.01,1018.38,6.5,74.0,150.0,9.5,374.58,0.39,46.71
SKQ202106S,TSG,2021-04-23T04:52:00Z,-149.3578,60.0258,293.07,0.0,51.59,129.37,0.77,0.59,0.0,1018.37,6.5,74.2,143.3,9.0,374.76,-0.16,44.76
SKQ202106S,TSG,2021-04-23T04:53:00Z,-149.3578,60.0258,293.51,0.0,31.49,129.04,0.73,0.59,-0.0,1018.37,6.5,74.0,149.4,9.8,374.64,-0.79,42.9
SKQ202106S,TSG,2021-04-23T04:54:00Z,-149.3578,60.0258,293.06,0.1,33.15,128.92,0.78,0.6,0.0,1018.35,6.5,74.1,159.2,10.7,374.48,-1.38,41.06
SKQ202106S,TSG,2021-04-23T04:55:00Z,-149.3578,60.0258,292.85,0.1,40.09,129.09,0.65,0.58,-0.0,1018.36,6.5,74.1,161.3,9.8,374.36,-1.98,39.18
SKQ202106S,TSG,2021-04-23T04:56:00Z,-149.3577,60.0259,292.48,0.2,37.92,128.98,0.79,0.6,0.0,1018.34,6.5,74.6,161.6,8.7,374.43,-2.65,37.34
SKQ202106S,TSG,2021-04-23T04:57:00Z,-149.3577,60.0259,292.6,0.1,43.45,129.35,0.72,0.6,0.0,1018.32,6.5,74.5,153.0,10.5,374.54,-3.13,35.68
SKQ202106S,TSG,2021-04-23T04:58:00Z,-149.3576,60.0259,293.59,0.1,45.03,129.33,0.63,0.59,0.0,1018.31,6.4,75.0,158.3,8.3,374.11,-3.69,34.16
SKQ202106S,TSG,2021-04-23T04:59:00Z,-149.3576,60.026,292.57,0.1,38.68,129.22,0.8,0.61,-0.0,1018.32,6.4,75.0,160.5,9.6,374.16,-4.14,32.73
SKQ202106S,TSG,2021-04-23T05:00:00Z,-149.3575,60.026,293.16,0.1,43.81,129.31,0.88,0.6,0.01,1018.33,6.4,74.9,158.5,9.4,374.0,-4.66,31.37
SKQ202106S,TSG,2021-04-23T05:01:00Z,-149.3575,60.026,294.53,0.1,38.02,129.87,0.57,0.59,0.0,1018.35,6.4,75.1,153.5,9.1,374.0,-5.15,30.13
SKQ202106S,TSG,2021-04-23T05:02:00Z,-149.3574,60.026,294.4,0.0,29.11,129.57,0.79,0.6,0.0,1018.37,6.4,75.3,152.2,9.3,374.04,-5.6,28.94
SKQ202106S,TSG,2021-04-23T05:03:00Z,-149.3574,60.026,293.64,0.0,38.25,129.25,0.82,0.6,0.0,1018.32,6.4,75.2,146.9,10.2,374.04,-5.97,27.85
SKQ202106S,TSG,2021-04-23T05:04:00Z,-149.3574,60.026,294.92,0.0,6.03,129.34,0.74,0.59,0.01,1018.39,6.4,75.2,150.4,9.5,373.76,-6.27,26.79
SKQ202106S,TSG,2021-04-23T05:05:00Z,-149.3574,60.026,294.53,0.0,215.29,129.46,0.76,0.59,0.0,1018.37,6.4,75.3,147.0,9.3,373.63,-6.62,25.73
SKQ202106S,TSG,2021-04-23T05:06:00Z,-149.3574,60.026,294.3,0.1,224.88,129.39,1.0,0.62,0.0,1018.38,6.4,75.0,142.6,7.9,373.96,-6.93,24.66
SKQ202106S,TSG,2021-04-23T05:07:00Z,-149.3575,60.026,294.93,0.1,217.28,129.49,0.9,0.61,0.0,1018.37,6.4,75.3,139.4,8.5,374.07,-7.23,23.58
SKQ202106S,TSG,2021-04-23T05:08:00Z,-149.3575,60.026,293.16,0.1,223.16,129.06,0.84,0.6,-0.0,1018.36,6.4,75.2,145.6,9.5,373.98,-7.6,22.47
SKQ202106S,TSG,2021-04-23T05:09:00Z,-149.3576,60.026,292.67,0.1,222.2,128.77,0.82,0.6,0.01,1018.38,6.4,75.4,158.4,9.4,373.7,-7.97,21.4
SKQ202106S,TSG,2021-04-23T05:10:00Z,-149.3576,60.0259,293.18,0.1,219.07,129.02,0.81,0.61,-0.0,1018.37,6.4,75.2,151.5,8.5,373.95,-8.33,20.37
SKQ202106S,TSG,2021-04-23T05:11:00Z,-149.3576,60.0259,293.37,0.1,223.26,129.37,0.83,0.6,0.0,1018.37,6.4,74.7,150.5,8.9,374.26,-8.79,19.33
SKQ202106S,TSG,2021-04-23T05:12:00Z,-149.3577,60.0259,293.1,0.1,219.87,129.23,0.8,0.59,0.0,1018.38,6.4,75.3,157.8,8.5,373.98,-9.11,18.32
SKQ202106S,TSG,2021-04-23T05:13:00Z,-149.3577,60.0259,292.69,0.1,221.19,129.63,0.88,0.61,0.0,1018.37,6.3,75.5,151.8,5.5,374.11,-9.43,17.34
SKQ202106S,TSG,2021-04-23T05:14:00Z,-149.3578,60.0258,292.88,0.2,217.71,129.73,0.92,0.59,0.0,1018.38,6.4,75.3,145.2,6.8,374.69,-9.75,16.39
SKQ202106S,TSG,2021-04-23T05:15:00Z,-149.3578,60.0258,294.39,0.2,219.08,129.07,0.86,0.62,-0.0,1018.4,6.4,74.7,147.8,6.3,374.55,-10.0,15.56
SKQ202106S,TSG,2021-04-23T05:16:00Z,-149.3579,60.0258,293.94,0.2,219.88,128.98,0.77,0.59,0.0,1018.4,6.4,74.8,137.1,6.6,374.67,-10.0,14.81
SKQ202106S,TSG,2021-04-23T05:17:00Z,-149.358,60.0257,293.8,0.2,221.1,129.13,0.53,0.58,0.0,1018.4,6.3,75.3,137.4,7.2,375.01,-10.0,14.12
SKQ202106S,TSG,2021-04-23T05:18:00Z,-149.3581,60.0257,293.21,0.2,217.91,129.09,0.84,0.6,0.0,1018.42,6.3,75.1,127.6,6.6,374.53,-10.0,13.4
SKQ202106S,TSG,2021-04-23T05:19:00Z,-149.3581,60.0256,293.07,0.3,221.71,129.31,0.87,0.61,0.0,1018.4,6.3,75.3,137.0,4.9,375.17,-10.0,12.7
SKQ202106S,TSG,2021-04-23T05:20:00Z,-149.3583,60.0255,292.76,0.3,219.56,129.09,0.8,0.59,-0.0,1018.4,6.3,75.7,128.1,4.1,375.16,-10.0,11.99
SKQ202106S,TSG,2021-04-23T05:21:00Z,-149.3584,60.0255,294.07,0.3,219.2,128.35,0.97,0.6,0.0,1018.4,6.2,76.3,136.5,4.6,375.19,-10.0,11.31
SKQ202106S,TSG,2021-04-23T05:22:00Z,-149.3585,60.0254,295.07,0.2,220.75,128.43,0.95,0.61,-0.0,1018.4,6.2,76.3,142.8,5.9,374.8,-10.0,10.69
SKQ202106S,TSG,2021-04-23T05:23:00Z,-149.3585,60.0254,294.55,0.2,222.65,128.83,0.91,0.59,0.0,1018.4,6.2,76.0,138.3,5.5,374.7,-10.0,10.11
SKQ202106S,TSG,2021-04-23T05:24:00Z,-149.3586,60.0253,294.19,0.1,213.73,129.1,0.95,0.6,0.01,1018.4,6.2,76.2,138.2,5.2,374.86,-10.0,9.55
SKQ202106S,TSG,2021-04-23T05:25:00Z,-149.3586,60.0253,292.87,0.0,220.47,129.51,0.93,0.61,0.0,1018.4,6.2,75.8,143.3,5.8,374.8,-10.0,9.0
SKQ202106S,TSG,2021-04-23T05:26:00Z,-149.3586,60.0253,292.88,0.1,29.04,129.83,0.92,0.6,-0.0,1018.4,6.2,75.8,145.3,6.0,374.77,-10.0,8.47
SKQ202106S,TSG,2021-04-23T05:27:00Z,-149.3586,60.0254,294.81,0.2,38.96,129.56,0.92,0.61,-0.0,1018.37,6.2,75.6,150.2,7.3,374.25,-10.0,7.96
SKQ202106S,TSG,2021-04-23T05:28:00Z,-149.3585,60.0254,294.96,0.2,41.9,129.27,0.66,0.59,0.01,1018.4,6.3,75.3,156.1,7.1,374.31,-10.0,7.47
SKQ202106S,TSG,2021-04-23T05:29:00Z,-149.3584,60.0255,294.0,0.3,40.21,129.44,0.92,0.61,0.0,1018.4,6.3,75.4,154.6,6.7,374.15,-10.0,6.99
SKQ202106S,TSG,2021-04-23T05:30:00Z,-149.3583,60.0255,293.51,0.2,39.01,130.02,0.68,0.59,-0.0,1018.4,6.3,75.3,160.0,6.4,374.3,-10.0,6.55
SKQ202106S,TSG,2021-04-23T05:31:00Z,-149.3582,60.0255,293.01,0.2,39.39,129.67,0.83,0.61,0.0,1018.4,6.3,75.6,157.4,7.2,374.0,-10.0,6.13
SKQ202106S,TSG,2021-04-23T05:32:00Z,-149.3582,60.0256,292.84,0.1,38.32,129.4,0.93,0.6,0.0,1018.4,6.3,75.4,142.8,6.7,374.04,-10.0,5.76
SKQ202106S,TSG,2021-04-23T05:33:00Z,-149.3582,60.0256,293.31,0.1,45.73,129.2,0.9,0.61,0.01,1018.4,6.3,75.4,152.4,6.8,374.3,-10.0,5.39
SKQ202106S,TSG,2021-04-23T05:34:00Z,-149.3581,60.0256,293.79,0.1,43.11,129.1,0.57,0.6,0.01,1018.4,6.3,74.9,142.8,6.8,374.57,-10.0,5.05
SKQ202106S,TSG,2021-04-23T05:35:00Z,-149.3581,60.0256,293.37,0.1,32.37,129.2,0.47,0.57,-0.0,1018.4,6.3,74.7,147.7,6.5,374.59,-10.0,4.71
SKQ202106S,TSG,2021-04-23T05:36:00Z,-149.358,60.0257,293.27,0.1,43.27,128.74,0.62,0.6,0.0,1018.4,6.3,74.8,149.1,5.8,374.61,-10.0,4.38
SKQ202106S,TSG,2021-04-23T05:37:00Z,-149.358,60.0257,293.76,0.4,72.72,127.89,0.67,0.61,-0.0,1018.4,6.3,74.8,150.4,7.0,374.61,-10.0,4.07
SKQ202106S,TSG,2021-04-23T05:38:00Z,-149.3574,60.0256,293.68,1.8,122.11,141.94,0.61,0.62,0.0,1018.38,6.3,74.8,153.3,6.0,374.89,-10.0,3.81
SKQ202106S,TSG,2021-04-23T05:39:00Z,-149.3566,60.0251,294.17,3.2,161.44,173.62,0.42,0.6,0.01,1018.35,6.3,74.8,150.4,6.7,375.07,-10.0,3.55
SKQ202106S,TSG,2021-04-23T05:40:00Z,-149.3566,60.024,293.57,4.7,187.27,187.78,0.65,0.62,0.0,1018.31,6.2,74.6,134.1,8.5,376.15,-10.0,3.28
SKQ202106S,TSG,2021-04-23T05:41:00Z,-149.357,60.0225,293.98,6.3,186.46,185.36,0.84,0.64,-0.0,1018.32,6.2,74.7,134.2,8.5,376.55,-10.0,3.01
SKQ202106S,TSG,2021-04-23T05:42:00Z,-149.3573,60.0205,293.75,7.7,182.68,182.22,0.9,0.62,-0.0,1018.35,6.2,75.0,130.3,8.2,376.63,-10.0,2.75
SKQ202106S,TSG,2021-04-23T05:43:00Z,-149.3574,60.0183,293.7,8.5,181.62,181.82,0.81,0.63,-0.0,1018.37,6.2,75.3,125.4,7.6,376.94,-10.0,2.5
SKQ202106S,TSG,2021-04-23T05:44:00Z,-149.3576,60.0159,294.48,8.8,181.98,182.14,0.77,0.63,-0.0,1018.34,6.1,75.7,117.2,6.9,377.04,-10.0,2.27
SKQ202106S,TSG,2021-04-23T05:45:00Z,-149.3577,60.0134,293.55,9.1,182.07,182.31,0.79,0.63,0.01,1018.37,6.1,76.3,108.3,6.7,376.93,-10.0,2.04
SKQ202106S,TSG,2021-04-23T05:46:00Z,-149.3579,60.0109,294.33,9.2,182.1,182.22,0.84,0.63,-0.0,1018.31,6.0,77.1,102.4,7.9,376.67,-10.0,1.84
SKQ202106S,TSG,2021-04-23T05:47:00Z,-149.3581,60.0083,294.31,9.3,182.05,182.12,0.9,0.64,-0.0,1018.31,5.8,78.4,98.0,8.7,376.13,-10.0,1.66
SKQ202106S,TSG,2021-04-23T05:48:00Z,-149.3583,60.0057,294.31,9.3,182.03,182.18,0.89,0.63,-0.0,1018.28,5.6,79.5,101.8,9.2,375.81,-10.0,1.49
SKQ202106S,TSG,2021-04-23T05:49:00Z,-149.3585,60.0031,293.8,9.5,182.08,182.21,0.85,0.66,0.01,1018.3,5.7,79.9,119.8,8.1,377.0,-10.0,1.34
SKQ202106S,TSG,2021-04-23T05:50:00Z,-149.3587,60.0005,293.97,9.7,182.22,182.4,0.88,0.63,-0.0,1018.31,5.9,78.4,122.9,8.1,377.88,-10.0,1.21
SKQ202106S,TSG,2021-04-23T05:51:00Z,-149.3589,59.9977,294.55,9.9,182.39,182.42,0.85,0.65,-0.0,1018.3,5.9,78.5,128.6,7.6,377.38,-10.0,1.1
SKQ202106S,TSG,2021-04-23T05:52:00Z,-149.3591,59.995,294.74,10.1,182.15,182.33,0.81,0.64,-0.0,1018.33,5.9,79.5,138.5,7.3,376.14,-10.0,0.99
SKQ202106S,TSG,2021-04-23T05:53:00Z,-149.3593,59.9922,295.02,10.1,182.44,182.54,0.83,0.66,-0.0,1018.35,5.9,79.6,149.3,8.8,375.51,-10.0,0.89
SKQ202106S,TSG,2021-04-23T05:54:00Z,-149.3596,59.9894,295.38,10.1,182.24,182.32,0.82,0.62,0.0,1018.35,5.8,80.2,152.8,8.6,375.45,-10.0,0.8
SKQ202106S,TSG,2021-04-23T05:55:00Z,-149.3598,59.9866,297.14,10.1,182.31,182.2,0.9,0.65,-0.0,1018.34,5.8,80.3,154.0,9.3,375.6,-10.0,0.71
SKQ202106S,TSG,2021-04-23T05:56:00Z,-149.36,59.9838,300.33,10.0,184.42,185.86,0.42,0.62,0.01,1018.33,5.7,80.9,150.5,9.7,375.58,-10.0,0.63
SKQ202106S,TSG,2021-04-23T05:57:00Z,-149.3612,59.9811,291.43,9.9,198.86,198.56,0.83,0.65,0.0,1018.31,5.5,82.2,143.8,9.9,376.91,-10.0,0.57
SKQ202106S,TSG,2021-04-23T05:58:00Z,-149.3631,59.9785,283.15,10.0,200.15,199.27,0.94,0.65,0.0,1018.35,5.5,83.2,145.3,9.0,377.46,-10.0,0.5
SKQ202106S,TSG,2021-04-23T05:59:00Z,-149.365,59.9759,262.35,10.1,200.07,199.3,0.86,0.64,0.0,1018.37,5.6,83.2,146.7,8.4,377.73,-10.0,0.44
SKQ202106S,TSG,2021-04-23T06:00:00Z,-149.3669,59.9733,246.41,10.2,200.03,199.5,0.76,0.64,-0.0,1018.39,5.7,81.5,150.7,8.3,377.36,-10.0,0.39
SKQ202106S,TSG,2021-04-23T06:01:00Z,-149.3688,59.9706,207.05,10.2,200.65,200.3,0.87,0.65,0.0,1018.4,5.8,81.4,145.5,7.5,377.96,-10.0,0.35
SKQ202106S,TSG,2021-04-23T06:02:00Z,-149.3708,59.968,179.72,10.2,200.52,200.44,0.82,0.65,0.0,1018.4,5.8,81.4,158.9,7.1,377.86,-10.0,0.31
SKQ202106S,TSG,2021-04-23T06:03:00Z,-149.3728,59.9653,175.99,10.2,200.1,200.42,0.72,0.62,0.01,1018.44,5.9,80.4,196.2,7.7,378.37,-10.0,0.27
SKQ202106S,TSG,2021-04-23T06:04:00Z,-149.3747,59.9626,192.45,10.2,199.9,200.41,0.65,0.65,0.0,1018.42,6.1,77.4,201.7,9.6,378.33,-10.0,0.24
SKQ202106S,TSG,2021-04-23T06:05:00Z,-149.3766,59.96,207.57,10.1,199.8,200.41,0.66,0.63,0.0,1018.45,6.2,76.8,202.1,8.2,378.38,-10.0,0.22
SKQ202106S,TSG,2021-04-23T06:06:00Z,-149.3785,59.9574,216.33,10.1,199.95,200.46,0.68,0.64,0.0,1018.44,6.1,77.7,199.5,6.9,378.51,-10.0,0.19
SKQ202106S,TSG,2021-04-23T06:07:00Z,-149.3804,59.9547,220.5,10.1,199.58,200.19,0.68,0.61,-0.0,1018.5,6.1,76.9,208.3,8.3,378.45,-10.0,0.17
SKQ202106S,TSG,2021-04-23T06:08:00Z,-149.3823,59.9521,224.31,10.1,201.16,202.07,0.64,0.63,0.0,1018.48,6.1,76.3,204.1,7.1,378.37,-10.0,0.15
SKQ202106S,TSG,2021-04-23T06:09:00Z,-149.3844,59.9495,227.45,10.1,201.98,202.4,0.68,0.64,0.0,1018.47,6.1,76.5,202.9,5.6,378.88,-10.0,0.14
SKQ202106S,TSG,2021-04-23T06:10:00Z,-149.3865,59.9469,232.05,10.1,201.73,202.21,0.7,0.66,0.01,1018.5,6.1,76.0,196.4,5.8,378.97,-10.0,0.13
SKQ202106S,TSG,2021-04-23T06:11:00Z,-149.3885,59.9443,237.16,10.1,201.97,202.25,0.72,0.61,0.0,1018.47,6.1,76.3,188.3,7.3,378.77,-10.0,0.11
SKQ202106S,TSG,2021-04-23T06:12:00Z,-149.3906,59.9417,241.98,10.0,202.34,202.36,0.79,0.65,0.0,1018.52,6.1,76.4,192.5,5.3,378.48,-10.0,0.11
SKQ202106S,TSG,2021-04-23T06:13:00Z,-149.3927,59.9392,246.54,10.1,202.16,202.2,0.68,0.63,0.0,1018.5,6.0,77.7,212.4,5.9,378.9,-10.0,0.1
SKQ202106S,TSG,2021-04-23T06:14:00Z,-149.3949,59.9366,252.27,10.1,202.52,202.35,0.66,0.65,0.0,1018.51,6.2,76.2,209.2,6.2,378.52,-10.0,0.09
SKQ202106S,TSG,2021-04-23T06:15:00Z,-149.397,59.934,259.93,10.0,202.44,202.14,0.73,0.63,-0.0,1018.5,6.1,76.3,214.9,6.7,379.11,-10.0,0.08
SKQ202106S,TSG,2021-04-23T06:16:00Z,-149.3991,59.9314,258.8,10.1,202.58,202.34,0.61,0.64,0.0,1018.49,6.1,77.0,232.8,7.3,378.69,-10.0,0.08
SKQ202106S,TSG,2021-04-23T06:17:00Z,-149.4013,59.9289,259.14,10.0,202.94,202.45,0.75,0.63,0.02,1018.54,6.0,77.8,217.6,5.3,378.82,-10.0,0.07
SKQ202106S,TSG,2021-04-23T06:18:00Z,-149.4034,59.9263,261.26,9.9,202.32,202.04,0.68,0.66,-0.0,1018.55,6.0,77.8,246.3,6.0,378.55,-10.0,0.06
SKQ202106S,TSG,2021-04-23T06:19:00Z,-149.4055,59.9238,262.88,10.0,202.42,202.32,0.62,0.66,-0.0,1018.53,6.0,77.5,267.5,5.7,378.44,-10.0,0.05
SKQ202106S,TSG,2021-04-23T06:20:00Z,-149.4076,59.9212,264.82,10.1,202.04,202.15,0.62,0.63,0.0,1018.52,6.1,76.7,268.6,6.7,378.39,-10.0,0.05
SKQ202106S,TSG,2021-04-23T06:21:00Z,-149.4096,59.9186,265.45,10.1,201.83,202.2,0.54,0.62,0.03,1018.54,5.9,78.5,264.2,9.1,378.08,-10.0,0.04
SKQ202106S,TSG,2021-04-23T06:22:00Z,-149.4117,59.916,265.52,10.0,201.87,202.34,0.49,0.66,0.01,1018.56,5.9,78.2,264.6,8.2,378.04,-10.0,0.04
SKQ202106S,TSG,2021-04-23T06:23:00Z,-149.4137,59.9134,265.12,10.0,201.7,202.5,0.59,0.66,0.0,1018.48,5.6,81.3,276.3,11.0,377.64,-10.0,0.04
SKQ202106S,TSG,2021-04-23T06:24:00Z,-149.4158,59.9109,264.93,10.0,201.65,202.67,0.37,0.62,0.02,1018.41,5.5,81.2,283.5,12.3,377.6,-10.0,0.04
SKQ202106S,TSG,2021-04-23T06:25:00Z,-149.4178,59.9083,264.47,10.0,201.76,202.7,0.42,0.66,0.0,1018.4,5.3,82.8,281.6,12.3,377.38,-10.0,0.03
SKQ202106S,TSG,2021-04-23T06:26:00Z,-149.4199,59.9057,264.21,10.0,201.43,202.19,0.49,0.64,0.02,1018.47,4.8,85.9,255.5,10.8,376.13,-10.0,0.03
SKQ202106S,TSG,2021-04-23T06:27:00Z,-149.4218,59.9032,264.26,9.8,201.05,202.05,0.62,0.66,0.0,1018.47,4.7,86.1,251.5,11.7,375.86,-10.0,0.03
SKQ202106S,TSG,2021-04-23T06:28:00Z,-149.4238,59.9006,265.05,9.9,201.46,202.56,0.54,0.64,0.0,1018.5,4.9,85.4,273.1,12.2,376.35,-10.0,0.03
SKQ202106S,TSG,2021-04-23T06:29:00Z,-149.4258,59.898,265.45,9.9,201.55,202.23,0.48,0.65,0.01,1018.45,4.9,85.9,278.2,11.7,376.3,-10.0,0.03
SKQ202106S,TSG,2021-04-23T06:30:00Z,-149.4278,59.8955,266.26,10.0,201.63,202.35,0.42,0.66,-0.0,1018.5,4.8,86.5,284.2,11.2,375.76,-10.0,0.03
SKQ202106S,TSG,2021-04-23T06:31:00Z,-149.4298,59.8929,268.49,10.0,201.05,201.29,0.61,0.63,0.01,1018.52,4.9,85.8,287.2,11.0,375.89,-10.0,0.03
SKQ202106S,TSG,2021-04-23T06:32:00Z,-149.4318,59.8903,270.36,10.1,200.72,201.1,0.55,0.64,0.0,1018.54,4.6,87.3,288.3,10.5,376.03,-10.0,0.03
SKQ202106S,TSG,2021-04-23T06:33:00Z,-149.4338,59.8877,271.56,10.0,200.99,201.1,0.68,0.65,0.0,1018.59,4.5,88.3,288.2,10.6,375.95,-10.0,0.03
SKQ202106S,TSG,2021-04-23T06:34:00Z,-149.4358,59.8851,272.73,10.0,201.4,201.64,0.32,0.66,0.03,1018.54,4.5,88.4,296.5,11.2,376.03,-10.0,0.03
SKQ202106S,TSG,2021-04-23T06:35:00Z,-149.4378,59.8825,271.52,10.0,201.62,201.43,0.39,0.66,-0.0,1018.51,4.5,88.2,300.2,11.2,376.44,-10.0,0.02
SKQ202106S,TSG,2021-04-23T06:36:00Z,-149.4398,59.88,269.85,10.0,201.69,201.45,0.42,0.63,0.02,1018.53,4.6,88.3,301.8,11.1,376.28,-10.0,0.03
SKQ202106S,TSG,2021-04-23T06:37:00Z,-149.4419,59.8774,269.13,9.9,201.77,201.16,0.44,0.67,0.0,1018.5,4.5,88.7,302.2,11.1,376.11,-10.0,0.02
SKQ202106S,TSG,2021-04-23T06:38:00Z,-149.4439,59.8749,268.52,10.0,201.92,201.32,0.51,0.65,0.0,1018.52,4.6,88.6,303.6,11.8,376.39,-10.0,0.02
SKQ202106S,TSG,2021-04-23T06:39:00Z,-149.4459,59.8723,268.4,9.9,201.98,201.23,0.61,0.64,0.02,1018.55,4.7,88.3,307.5,11.2,376.35,-10.0,0.02
SKQ202106S,TSG,2021-04-23T06:40:00Z,-149.448,59.8698,266.16,9.8,201.76,201.17,0.61,0.7,0.03,1018.51,4.6,88.9,313.7,11.1,376.15,-10.0,0.02
SKQ202106S,TSG,2021-04-23T06:41:00Z,-149.45,59.8672,266.0,9.7,201.83,200.93,0.5,0.65,0.0,1018.57,4.6,89.0,312.6,11.0,376.31,-10.0,0.02
SKQ202106S,TSG,2021-04-23T06:42:00Z,-149.452,59.8647,267.02,9.9,201.63,200.99,0.58,0.67,0.02,1018.57,4.7,88.7,319.9,9.7,376.4,-10.0,0.02
SKQ202106S,TSG,2021-04-23T06:43:00Z,-149.454,59.8622,267.44,9.9,201.57,200.92,0.77,0.63,0.0,1018.61,4.7,89.5,313.8,8.9,376.75,-10.0,0.02
SKQ202106S,TSG,2021-04-23T06:44:00Z,-149.4559,59.8596,267.89,10.0,200.47,199.84,0.71,0.69,0.02,1018.56,4.8,88.8,315.5,8.7,377.06,-10.0,0.02
SKQ202106S,TSG,2021-04-23T06:45:00Z,-149.4578,59.8571,267.98,9.5,199.96,199.43,0.85,0.65,0.0,1018.56,4.9,89.2,315.2,7.8,377.09,-10.0,0.02
SKQ202106S,TSG,2021-04-23T06:46:00Z,-149.4594,59.8547,268.63,8.4,198.42,196.95,0.88,0.69,-0.0,1018.51,4.9,89.1,314.0,9.4,377.31,-10.0,0.02
SKQ202106S,TSG,2021-04-23T06:47:00Z,-149.4607,59.8527,269.21,6.8,196.65,195.91,1.03,0.68,-0.0,1018.5,4.8,89.2,316.3,10.1,377.07,-10.0,0.02
SKQ202106S,TSG,2021-04-23T06:48:00Z,-149.4615,59.8511,269.81,5.6,191.26,191.27,0.49,0.67,0.01,1018.48,4.8,90.1,321.0,10.1,377.18,-10.0,0.02
SKQ202106S,TSG,2021-04-23T06:49:00Z,-149.4621,59.8497,269.48,4.4,197.77,199.6,0.6,0.64,0.0,1018.47,4.8,90.6,319.8,10.2,377.57,-10.0,0.02
SKQ202106S,TSG,2021-04-23T06:50:00Z,-149.463,59.8487,269.73,3.7,206.43,199.54,0.89,0.73,0.0,1018.48,4.7,90.5,321.0,9.7,377.49,-10.0,0.02
SKQ202106S,TSG,2021-04-23T06:51:00Z,-149.4636,59.8478,269.38,3.3,190.55,188.61,0.99,0.62,0.03,1018.53,4.8,90.8,317.8,9.0,377.21,-10.0,0.02
SKQ202106S,TSG,2021-04-23T06:52:00Z,-149.464,59.847,269.4,3.0,197.52,199.74,0.61,0.63,0.0,1018.53,4.8,90.4,314.0,9.2,376.45,-10.0,0.02
SKQ202106S,TSG,2021-04-23T06:53:00Z,-149.4645,59.8463,269.82,2.2,204.75,208.09,0.67,0.58,0.0,1018.53,4.8,90.3,314.4,9.3,375.86,-10.0,0.02
SKQ202106S,TSG,2021-04-23T06:54:00Z,-149.465,59.8459,269.66,1.4,218.48,215.27,1.09,0.63,0.0,1018.51,4.8,90.7,318.7,8.3,375.76,-10.0,0.02
SKQ202106S,TSG,2021-04-23T06:55:00Z,-149.4655,59.8456,269.41,1.0,219.24,214.43,0.88,0.64,0.01,1018.5,4.7,91.5,324.4,8.3,375.76,-10.0,0.02
SKQ202106S,TSG,2021-04-23T06:56:00Z,-149.4658,59.8454,269.62,0.7,230.07,214.13,0.78,0.58,0.01,1018.53,4.8,91.8,331.1,7.8,375.91,-10.0,0.02
SKQ202106S,TSG,2021-04-23T06:57:00Z,-149.466,59.8453,269.82,0.3,253.36,208.68,0.95,0.66,0.0,1018.46,4.8,92.1,333.7,8.5,376.07,-10.0,0.02
SKQ202106S,TSG,2021-04-23T06:58:00Z,-149.4661,59.8454,269.59,0.3,307.52,212.08,0.78,0.58,0.0,1018.5,4.8,92.1,334.5,8.4,376.35,-10.0,0.02
SKQ202106S,TSG,2021-04-23T06:59:00Z,-149.4663,59.8454,269.49,0.1,259.36,216.92,0.72,0.65,0.01,1018.43,4.8,92.1,332.3,9.7,376.61,-10.0,0.02
SKQ202106S,TSG,2021-04-23T07:00:00Z,-149.4663,59.8454,270.27,0.1,146.64,231.85,1.19,0.59,0.0,1018.47,4.8,91.6,332.9,9.7,377.13,-10.0,0.02
SKQ202106S,TSG,2021-04-23T07:01:00Z,-149.4662,59.8453,270.74,0.3,163.79,247.99,0.91,0.63,-0.0,1018.47,4.8,91.8,332.5,9.2,376.84,-10.0,0.02
SKQ202106S,TSG,2021-04-23T07:02:00Z,-149.4662,59.8453,270.07,0.2,199.28,276.06,0.72,0.62,0.0,1018.47,4.8,92.2,329.6,8.7,376.84,-10.0,0.02
SKQ202106S,TSG,2021-04-23T07:03:00Z,-149.4663,59.8452,270.15,0.0,275.31,296.67,0.75,0.57,0.03,1018.46,4.8,92.4,324.4,8.2,376.95,-10.0,0.02
SKQ202106S,TSG,2021-04-23T07:04:00Z,-149.4663,59.8452,269.22,0.0,48.22,296.35,0.88,0.6,0.01,1018.46,4.8,92.4,323.9,8.0,377.08,-10.0,0.02
SKQ202106S,TSG,2021-04-23T07:05:00Z,-149.4663,59.8452,269.23,0.0,173.62,296.5,1.26,0.68,0.0,1018.45,4.8,92.4,324.1,7.5,377.86,-10.0,0.02
SKQ202106S,TSG,2021-04-23T07:06:00Z,-149.4663,59.8452,269.19,0.0,217.59,297.4,1.16,0.55,-0.0,1018.43,4.8,92.4,333.3,8.2,377.97,-10.0,0.02
SKQ202106S,TSG,2021-04-23T07:07:00Z,-149.4663,59.8452,269.43,0.1,198.82,296.74,1.39,0.71,0.03,1018.43,4.8,92.4,337.7,8.2,377.98,-10.0,0.02
SKQ202106S,TSG,2021-04-23T07:08:00Z,-149.4663,59.8452,269.34,0.2,205.09,296.78,1.72,0.61,0.0,1018.49,4.8,92.6,333.0,6.3,377.83,-10.0,0.02
SKQ202106S,TSG,2021-04-23T07:09:00Z,-149.4664,59.8451,269.49,0.1,223.33,302.12,1.59,0.59,0.0,1018.51,4.8,92.7,341.9,5.5,377.96,-10.0,0.02
SKQ202106S,TSG,2021-04-23T07:10:00Z,-149.4664,59.8451,269.69,0.0,217.19,301.76,0.87,0.66,0.02,1018.51,4.8,92.3,349.5,4.7,378.05,-10.0,0.02
SKQ202106S,TSG,2021-04-23T07:11:00Z,-149.4664,59.8451,269.4,0.0,260.11,305.12,0.88,0.61,0.0,1018.5,5.0,91.0,7.3,3.2,378.13,-10.0,0.02
SKQ202106S,TSG,2021-04-23T07:12:00Z,-149.4664,59.8451,269.38,0.1,43.91,306.79,0.82,0.56,-0.0,1018.5,5.0,91.1,350.8,5.3,377.85,-10.0,0.02
SKQ202106S,TSG,2021-04-23T07:13:00Z,-149.4663,59.8451,269.42,0.1,40.1,305.53,0.71,0.59,0.02,1018.52,4.9,91.4,320.6,6.0,378.35,-10.0,0.02
SKQ202106S,TSG,2021-04-23T07:14:00Z,-149.4663,59.8452,269.61,0.2,39.16,304.04,0.97,0.63,0.0,1018.47,4.9,91.2,329.1,5.0,378.61,-10.0,0.02
SKQ202106S,TSG,2021-04-23T07:15:00Z,-149.4662,59.8452,269.31,0.1,33.94,305.37,0.88,0.58,0.0,1018.49,4.9,91.4,322.5,5.0,378.49,-10.0,0.02
SKQ202106S,TSG,2021-04-23T07:16:00Z,-149.4662,59.8452,269.47,0.1,14.95,305.3,0.72,0.62,0.0,1018.47,4.9,90.9,329.9,6.8,378.03,-10.0,0.02
SKQ202106S,TSG,2021-04-23T07:17:00Z,-149.4662,59.8452,269.41,0.0,135.09,304.55,0.73,0.61,0.03,1018.48,4.9,90.4,325.3,7.4,378.22,-10.0,0.02
SKQ202106S,TSG,2021-04-23T07:18:00Z,-149.4662,59.8452,269.33,0.0,259.2,305.71,1.17,0.63,0.0,1018.48,4.9,90.6,318.2,7.7,377.83,-10.0,0.02
SKQ202106S,TSG,2021-04-23T07:19:00Z,-149.4662,59.8452,269.26,0.1,178.49,306.11,0.76,0.53,0.01,1018.48,4.9,90.2,312.4,8.7,378.02,-10.0,0.01
SKQ202106S,TSG,2021-04-23T07:20:00Z,-149.4662,59.8452,269.74,0.1,229.63,305.79,0.9,0.64,0.01,1018.46,4.9,88.8,313.4,8.4,378.32,-10.0,0.02
SKQ202106S,TSG,2021-04-23T07:21:00Z,-149.4662,59.8452,269.52,0.0,256.34,305.87,1.21,0.62,0.0,1018.47,4.9,89.3,308.0,6.9,378.41,-10.0,0.02
SKQ202106S,TSG,2021-04-23T07:22:00Z,-149.4662,59.8452,269.29,0.0,119.36,305.82,1.22,0.63,0.02,1018.48,4.9,90.2,305.7,7.4,378.74,-10.0,0.02
SKQ202106S,TSG,2021-04-23T07:23:00Z,-149.4662,59.8452,269.29,0.0,289.04,305.26,1.27,0.58,0.0,1018.47,4.9,90.0,305.6,6.5,379.34,-10.0,0.02
SKQ202106S,TSG,2021-04-23T07:24:00Z,-149.4662,59.8452,269.3,0.0,270.85,305.51,1.27,0.65,0.0,1018.5,4.9,90.1,320.6,5.7,379.51,-10.0,0.02
SKQ202106S,TSG,2021-04-23T07:25:00Z,-149.4662,59.8452,269.25,0.0,178.16,305.65,1.11,0.59,0.0,1018.49,4.9,89.5,311.7,7.2,379.21,-10.0,0.02
SKQ202106S,TSG,2021-04-23T07:26:00Z,-149.4662,59.8452,269.36,0.0,38.94,305.57,1.24,0.62,0.02,1018.46,4.9,89.0,313.3,8.5,379.58,-10.0,0.02
SKQ202106S,TSG,2021-04-23T07:27:00Z,-149.4662,59.8452,269.34,0.0,51.32,305.48,1.08,0.59,-0.0,1018.49,4.9,88.9,312.1,8.2,379.38,-10.0,0.02
SKQ202106S,TSG,2021-04-23T07:28:00Z,-149.4662,59.8452,269.65,0.0,3.83,303.52,1.27,0.65,0.0,1018.45,5.0,88.0,302.1,7.3,379.39,-10.0,0.02
SKQ202106S,TSG,2021-04-23T07:29:00Z,-149.4662,59.8452,269.42,0.0,132.25,303.38,1.5,0.66,0.01,1018.46,5.0,88.4,310.4,5.1,379.15,-10.0,0.02
SKQ202106S,TSG,2021-04-23T07:30:00Z,-149.4662,59.8452,269.48,0.0,30.92,303.29,1.35,0.59,0.01,1018.45,5.0,88.6,342.1,4.5,377.98,-10.0,0.02
SKQ202106S,TSG,2021-04-23T07:31:00Z,-149.4662,59.8452,269.54,0.0,58.56,304.18,1.11,0.67,0.0,1018.41,5.1,88.1,336.8,4.2,377.5,-10.0,0.02
SKQ202106S,TSG,2021-04-23T07:32:00Z,-149.4662,59.8452,269.55,0.0,32.97,303.61,1.07,0.61,0.02,1018.4,5.2,87.5,340.7,4.4,377.87,-10.0,0.02
SKQ202106S,TSG,2021-04-23T07:33:00Z,-149.4662,59.8452,269.45,0.0,334.13,303.64,1.41,0.62,0.0,1018.37,5.2,87.0,333.3,5.5,377.86,-10.0,0.02
SKQ202106S,TSG,2021-04-23T07:34:00Z,-149.4662,59.8452,269.58,0.0,168.15,302.94,0.99,0.63,0.04,1018.41,5.2,86.4,342.3,5.3,378.24,-10.0,0.02
SKQ202106S,TSG,2021-04-23T07:35:00Z,-149.4662,59.8452,269.28,0.1,224.42,303.41,1.03,0.66,0.0,1018.37,5.2,86.7,355.0,4.7,378.52,-10.0,0.02
SKQ202106S,TSG,2021-04-23T07:36:00Z,-149.4663,59.8452,269.47,0.1,225.79,303.87,1.0,0.67,0.02,1018.36,5.2,86.6,357.8,4.9,378.37,-10.0,0.02
SKQ202106S,TSG,2021-04-23T07:37:00Z,-149.4663,59.8452,269.57,0.1,194.43,304.08,1.29,0.56,0.0,1018.38,5.2,86.2,4.8,5.0,378.1,-10.0,0.02
SKQ202106S,TSG,2021-04-23T07:38:00Z,-149.4663,59.8451,269.53,0.1,207.2,303.52,0.94,0.64,0.05,1018.4,5.2,86.3,1.7,4.4,377.87,-10.0,0.02
SKQ202106S,TSG,2021-04-23T07:39:00Z,-149.4663,59.8451,269.64,0.0,248.95,304.11,1.14,0.61,0.0,1018.42,5.2,86.4,353.9,3.6,378.0,-10.0,0.02
SKQ202106S,TSG,2021-04-23T07:40:00Z,-149.4664,59.8451,269.98,0.0,195.21,304.09,0.79,0.6,0.03,1018.43,5.1,87.3,335.8,4.7,378.34,-10.0,0.02
SKQ202106S,TSG,2021-04-23T07:41:00Z,-149.4664,59.8451,270.22,0.0,329.56,303.54,0.99,0.64,0.0,1018.4,4.9,89.2,332.2,5.8,378.47,-10.0,0.02
SKQ202106S,TSG,2021-04-23T07:42:00Z,-149.4664,59.8451,270.14,0.1,188.79,303.02,0.98,0.6,0.0,1018.4,4.9,88.3,337.4,6.2,378.17,-10.0,0.02
SKQ202106S,TSG,2021-04-23T07:43:00Z,-149.4664,59.8451,269.53,0.1,285.12,303.79,1.06,0.64,0.0,1018.4,4.8,89.1,329.9,7.2,377.46,-10.0,0.02
SKQ202106S,TSG,2021-04-23T07:44:00Z,-149.4664,59.8451,269.46,0.1,179.99,303.62,0.74,0.59,0.04,1018.44,4.7,89.1,325.0,6.9,377.7,-10.0,0.02
SKQ202106S,TSG,2021-04-23T07:45:00Z,-149.4664,59.8451,269.56,0.0,359.46,303.47,1.08,0.68,0.0,1018.4,4.8,89.2,324.5,6.2,378.07,-10.0,0.02
SKQ202106S,TSG,2021-04-23T07:46:00Z,-149.4664,59.8451,269.29,0.0,30.73,303.45,0.98,0.56,0.0,1018.42,4.8,89.3,321.8,6.2,378.46,-10.0,0.02
SKQ202106S,TSG,2021-04-23T07:47:00Z,-149.4664,59.8451,269.4,0.0,98.53,303.68,0.97,0.67,0.03,1018.43,4.8,88.7,322.4,6.5,378.73,-10.0,0.02
SKQ202106S,TSG,2021-04-23T07:48:00Z,-149.4664,59.8451,269.85,0.0,339.15,303.2,1.01,0.62,0.0,1018.4,4.9,88.6,322.9,6.4,378.88,-10.0,0.02
SKQ202106S,TSG,2021-04-23T07:49:00Z,-149.4664,59.8451,269.41,0.1,229.12,302.92,1.09,0.6,0.0,1018.41,4.8,89.8,327.6,6.1,378.68,-10.0,0.02
SKQ202106S,TSG,2021-04-23T07:50:00Z,-149.4664,59.8451,269.29,0.1,216.98,303.87,0.9,0.59,0.0,1018.42,4.8,90.2,318.1,5.9,378.32,-10.0,0.02
SKQ202106S,TSG,2021-04-23T07:51:00Z,-149.4664,59.8451,269.4,0.0,212.56,304.17,0.97,0.67,0.01,1018.38,4.8,88.9,319.4,6.1,378.37,-10.0,0.02
SKQ202106S,TSG,2021-04-23T07:52:00Z,-149.4664,59.8451,270.19,0.0,190.59,303.84,0.89,0.54,-0.0,1018.4,4.8,89.6,326.7,6.6,377.94,-10.0,0.02
SKQ202106S,TSG,2021-04-23T07:53:00Z,-149.4664,59.8451,269.77,0.0,226.89,303.44,1.01,0.67,0.01,1018.36,4.8,89.8,329.9,6.9,377.29,-10.0,0.02
SKQ202106S,TSG,2021-04-23T07:54:00Z,-149.4665,59.845,269.83,0.1,207.91,303.78,1.04,0.67,0.0,1018.33,4.8,90.4,329.9,6.4,376.9,-10.0,0.02
SKQ202106S,TSG,2021-04-23T07:55:00Z,-149.4665,59.845,269.59,0.1,216.58,304.21,0.91,0.6,0.01,1018.32,4.8,89.8,330.5,6.8,376.89,-10.0,0.02
SKQ202106S,TSG,2021-04-23T07:56:00Z,-149.4665,59.845,269.15,0.1,229.06,303.83,0.89,0.62,0.01,1018.32,5.0,87.6,334.0,6.6,376.67,-10.0,0.02
SKQ202106S,TSG,2021-04-23T07:57:00Z,-149.4665,59.845,270.18,0.0,322.81,303.2,1.22,0.63,0.0,1018.28,5.0,88.2,336.1,6.5,376.52,-10.0,0.02
SKQ202106S,TSG,2021-04-23T07:58:00Z,-149.4665,59.845,269.06,0.1,192.34,303.11,0.91,0.63,0.03,1018.27,5.1,87.9,331.7,6.4,376.56,-10.0,0.02
SKQ202106S,TSG,2021-04-23T07:59:00Z,-149.4665,59.845,269.3,0.1,187.76,303.66,0.97,0.56,0.0,1018.29,5.1,87.6,326.6,6.4,376.59,-10.0,0.02
SKQ202106S,TSG,2021-04-23T08:00:00Z,-149.4666,59.845,269.67,0.1,224.74,304.26,0.99,0.63,0.0,1018.24,5.0,87.3,326.8,6.7,376.78,-10.0,0.02
SKQ202106S,TSG,2021-04-23T08:01:00Z,-149.4666,59.845,269.38,0.1,224.0,303.56,0.92,0.66,-0.0,1018.25,5.1,86.4,327.8,6.6,376.7,-10.0,0.02
SKQ202106S,TSG,2021-04-23T08:02:00Z,-149.4666,59.8449,269.07,0.1,187.1,303.81,1.03,0.57,0.0,1018.24,5.0,87.5,330.2,6.6,376.71,-10.0,0.02
SKQ202106S,TSG,2021-04-23T08:03:00Z,-149.4666,59.8449,269.13,0.0,306.53,302.72,1.08,0.63,0.0,1018.25,5.0,88.1,339.4,7.1,376.53,-10.0,0.02
SKQ202106S,TSG,2021-04-23T08:04:00Z,-149.4666,59.8449,268.98,0.1,208.94,303.58,1.01,0.67,0.0,1018.23,5.0,89.5,344.6,7.0,375.49,-10.0,0.02
SKQ202106S,TSG,2021-04-23T08:05:00Z,-149.4667,59.8449,269.4,0.1,220.23,304.14,1.04,0.6,0.0,1018.24,4.9,91.0,344.7,6.6,375.21,-10.0,0.02
SKQ202106S,TSG,2021-04-23T08:06:00Z,-149.4667,59.8449,269.34,0.1,201.68,304.24,0.9,0.61,0.02,1018.23,4.8,91.3,344.9,7.9,375.72,-10.0,0.02
SKQ202106S,TSG,2021-04-23T08:07:00Z,-149.4667,59.8448,269.47,0.1,211.89,303.56,0.82,0.61,-0.0,1018.18,4.7,90.0,340.7,7.6,376.38,-10.0,0.02
SKQ202106S,TSG,2021-04-23T08:08:00Z,-149.4668,59.8448,269.55,0.2,224.35,303.24,1.09,0.63,-0.0,1018.21,4.8,88.8,335.3,7.3,376.99,-10.0,0.02
SKQ202106S,TSG,2021-04-23T08:09:00Z,-149.4668,59.8448,269.45,0.2,214.26,303.47,1.08,0.61,0.0,1018.19,4.8,89.2,337.6,7.3,376.94,-10.0,0.02
SKQ202106S,TSG,2021-04-23T08:10:00Z,-149.4669,59.8447,269.64,0.2,209.3,303.74,0.73,0.67,0.04,1018.2,4.8,89.5,338.8,7.9,376.86,-10.0,0.02
SKQ202106S,TSG,2021-04-23T08:11:00Z,-149.467,59.8447,270.19,0.1,238.71,303.13,0.65,0.62,0.0,1018.18,4.8,89.3,335.2,7.6,376.41,-10.0,0.02
SKQ202106S,TSG,2021-04-23T08:12:00Z,-149.467,59.8446,270.02,0.3,201.96,304.64,0.71,0.54,0.05,1018.22,4.9,88.4,336.6,7.5,376.59,-10.0,0.02
SKQ202106S,TSG,2021-04-23T08:13:00Z,-149.4671,59.8446,270.03,0.2,236.2,314.66,0.65,0.66,0.0,1018.18,5.0,87.1,333.2,6.4,376.5,-10.0,0.02
SKQ202106S,TSG,2021-04-23T08:14:00Z,-149.4672,59.8446,269.84,0.1,215.65,314.55,0.69,0.57,-0.0,1018.2,5.1,86.9,327.9,5.9,376.79,-10.0,0.02
SKQ202106S,TSG,2021-04-23T08:15:00Z,-149.4672,59.8445,271.26,0.1,227.62,313.7,0.77,0.62,0.02,1018.2,5.1,86.4,320.1,5.6,377.0,-10.0,0.02
SKQ202106S,TSG,2021-04-23T08:16:00Z,-149.4672,59.8445,270.39,0.1,217.13,313.74,0.69,0.59,0.0,1018.18,5.1,86.3,318.2,5.5,376.95,-10.0,0.02
SKQ202106S,TSG,2021-04-23T08:17:00Z,-149.4672,59.8445,269.99,0.0,253.2,313.84,0.53,0.63,-0.0,1018.16,5.1,86.5,315.8,5.5,376.01,-10.0,0.02
SKQ202106S,TSG,2021-04-23T08:18:00Z,-149.4672,59.8445,270.02,0.0,78.27,313.12,0.72,0.57,0.0,1018.15,5.1,87.7,304.3,5.0,373.84,-10.0,0.02
SKQ202106S,TSG,2021-04-23T08:19:00Z,-149.4673,59.8446,270.48,0.9,314.46,309.9,0.57,0.65,0.0,1018.14,5.1,88.1,322.8,1.6,373.23,-10.0,0.02
SKQ202106S,TSG,2021-04-23T08:20:00Z,-149.4683,59.845,269.72,3.6,309.8,307.36,0.8,0.62,0.0,1018.11,5.2,86.9,55.2,1.4,372.44,-10.0,0.02
SKQ202106S,TSG,2021-04-23T08:21:00Z,-149.4701,59.8457,269.69,4.1,299.76,260.87,1.66,0.84,0.07,1018.12,5.4,84.5,12.9,1.6,371.75,-10.0,0.02
SKQ202106S,TSG,2021-04-23T08:22:00Z,-149.4712,59.8456,269.88,2.2,179.24,157.84,1.3,0.72,0.0,1018.09,5.3,86.0,12.1,2.4,370.24,-10.0,0.02
SKQ202106S,TSG,2021-04-23T08:23:00Z,-149.4704,59.8447,270.39,5.1,151.0,150.56,0.89,0.71,0.02,1018.1,5.3,87.0,337.8,4.0,370.51,-10.0,0.03
SKQ202106S,TSG,2021-04-23T08:24:00Z,-149.4688,59.8432,269.75,7.0,150.93,151.79,0.74,0.67,-0.0,1018.11,5.2,87.1,314.8,5.1,371.81,-10.0,0.03
SKQ202106S,TSG,2021-04-23T08:25:00Z,-149.4668,59.8414,270.37,8.2,151.71,152.06,0.83,0.71,0.0,1018.08,5.3,85.2,314.4,5.4,372.86,-10.0,0.03
SKQ202106S,TSG,2021-04-23T08:26:00Z,-149.4645,59.8393,270.63,8.9,151.66,151.85,0.74,0.71,0.01,1018.03,5.4,84.1,310.4,4.9,374.07,-10.0,0.03
SKQ202106S,TSG,2021-04-23T08:27:00Z,-149.4621,59.8371,270.68,9.1,151.75,152.01,0.72,0.73,0.0,1018.05,5.4,84.3,313.5,5.2,375.24,-10.0,0.03
SKQ202106S,TSG,2021-04-23T08:28:00Z,-149.4597,59.8348,270.68,9.4,151.89,151.79,0.76,0.62,0.0,1018.09,5.3,85.3,311.2,5.6,376.01,-10.0,0.03
SKQ202106S,TSG,2021-04-23T08:29:00Z,-149.4573,59.8325,272.37,9.3,151.74,151.69,0.7,0.81,0.03,1018.05,5.2,86.3,306.2,5.3,375.96,-10.0,0.03
SKQ202106S,TSG,2021-04-23T08:30:00Z,-149.455,59.8303,274.14,9.0,152.56,152.5,0.69,0.65,0.02,1018.03,5.1,86.8,313.8,4.0,376.29,-10.0,0.02
SKQ202106S,TSG,2021-04-23T08:31:00Z,-149.4527,59.8281,276.35,9.0,152.94,151.96,0.76,0.7,0.0,1018.03,5.1,88.4,318.5,5.5,376.89,-10.0,0.02
SKQ202106S,TSG,2021-04-23T08:32:00Z,-149.4504,59.8258,276.1,9.2,152.82,152.02,0.69,0.73,0.02,1017.96,5.0,89.0,320.6,6.9,376.72,-10.0,0.02
SKQ202106S,TSG,2021-04-23T08:33:00Z,-149.4481,59.8235,276.61,9.4,153.26,152.05,0.71,0.66,0.0,1017.98,5.0,88.1,315.7,7.5,376.79,-10.0,0.02
SKQ202106S,TSG,2021-04-23T08:34:00Z,-149.4458,59.8212,276.66,9.3,153.24,151.95,0.74,0.7,-0.0,1017.93,5.1,87.3,312.1,7.7,376.69,-10.0,0.02
SKQ202106S,TSG,2021-04-23T08:35:00Z,-149.4435,59.8189,276.62,9.4,153.64,152.1,0.74,0.65,0.02,1018.01,5.1,87.9,316.1,6.6,376.44,-10.0,0.02
SKQ202106S,TSG,2021-04-23T08:36:00Z,-149.4413,59.8166,276.8,9.0,154.65,152.5,0.65,0.77,0.0,1017.94,5.0,88.2,322.1,4.8,376.46,-10.0,0.02
SKQ202106S,TSG,2021-04-23T08:37:00Z,-149.4391,59.8143,276.75,9.2,153.79,151.54,0.73,0.73,0.0,1017.92,5.1,87.8,357.4,2.0,376.97,-10.0,0.02
SKQ202106S,TSG,2021-04-23T08:38:00Z,-149.4369,59.8121,276.96,9.3,152.78,151.45,0.84,0.66,0.0,1018.0,5.1,87.5,329.1,3.3,376.61,-10.0,0.02
SKQ202106S,TSG,2021-04-23T08:39:00Z,-149.4344,59.8098,277.49,9.4,151.9,151.95,0.72,0.73,0.0,1017.97,5.1,87.6,329.2,4.1,376.46,-10.0,0.02
SKQ202106S,TSG,2021-04-23T08:40:00Z,-149.432,59.8075,277.82,9.3,152.13,152.26,0.77,0.74,0.01,1017.95,5.1,87.7,332.0,4.5,376.56,-10.0,0.02
SKQ202106S,TSG,2021-04-23T08:41:00Z,-149.4297,59.8052,277.51,9.2,152.64,152.61,0.79,0.72,0.0,1017.94,5.1,87.6,346.3,4.9,375.83,-10.0,0.02
SKQ202106S,TSG,2021-04-23T08:42:00Z,-149.4274,59.8029,277.02,9.3,153.1,152.1,0.78,0.76,0.01,1017.93,5.1,88.0,350.4,5.0,374.89,-10.0,0.02
SKQ202106S,TSG,2021-04-23T08:43:00Z,-149.425,59.8006,277.0,9.3,152.61,151.77,0.7,0.64,0.0,1018.02,5.1,88.3,3.0,4.4,373.64,-10.0,0.02
SKQ202106S,TSG,2021-04-23T08:44:00Z,-149.4227,59.7983,276.49,9.5,153.7,152.5,0.83,0.68,0.0,1017.94,5.0,89.3,6.6,4.5,372.76,-10.0,0.02
SKQ202106S,TSG,2021-04-23T08:45:00Z,-149.4204,59.7959,275.47,9.6,154.6,153.48,0.68,0.7,0.02,1017.87,5.0,90.0,357.2,4.9,372.63,-10.0,0.02
SKQ202106S,TSG,2021-04-23T08:46:00Z,-149.4182,59.7935,274.12,9.6,156.13,154.54,0.7,0.69,0.0,1017.93,4.9,90.0,1.9,5.4,373.14,-10.0,0.02
SKQ202106S,TSG,2021-04-23T08:47:00Z,-149.4161,59.7911,273.1,9.7,156.39,154.48,0.79,0.74,0.0,1017.9,4.9,89.7,2.6,6.1,373.09,-10.0,0.02
SKQ202106S,TSG,2021-04-23T08:48:00Z,-149.4139,59.7886,271.71,10.0,155.94,154.12,0.78,0.69,0.0,1017.89,5.0,89.2,355.9,6.3,373.21,-10.0,0.02
SKQ202106S,TSG,2021-04-23T08:49:00Z,-149.4117,59.7861,270.08,9.7,156.33,154.54,0.67,0.72,0.04,1017.87,5.0,88.6,348.3,6.4,373.33,-10.0,0.02
SKQ202106S,TSG,2021-04-23T08:50:00Z,-149.4096,59.7836,269.03,9.8,156.24,154.5,0.69,0.73,0.0,1017.89,5.0,88.8,339.3,6.6,374.03,-10.0,0.02
SKQ202106S,TSG,2021-04-23T08:51:00Z,-149.4074,59.7811,268.12,9.9,156.0,154.68,0.7,0.63,0.0,1017.92,5.0,89.6,333.2,4.8,375.04,-10.0,0.02
SKQ202106S,TSG,2021-04-23T08:52:00Z,-149.4052,59.7787,266.68,9.8,155.65,154.44,0.72,0.78,-0.0,1017.86,5.0,89.9,337.8,6.3,375.6,-10.0,0.02
SKQ202106S,TSG,2021-04-23T08:53:00Z,-149.403,59.7762,265.35,9.4,155.89,154.72,0.71,0.67,0.03,1017.93,5.0,89.7,334.2,6.9,376.44,-10.0,0.02
SKQ202106S,TSG,2021-04-23T08:54:00Z,-149.4009,59.7739,263.59,9.5,155.35,154.24,0.6,0.69,0.0,1017.87,5.0,89.4,330.6,7.6,377.08,-10.0,0.02
SKQ202106S,TSG,2021-04-23T08:55:00Z,-149.3987,59.7715,262.4,9.6,155.03,154.48,0.62,0.73,0.0,1017.91,5.1,89.8,327.4,6.9,377.27,-10.0,0.02
SKQ202106S,TSG,2021-04-23T08:56:00Z,-149.3964,59.769,260.6,9.6,155.58,154.64,0.8,0.73,0.01,1017.88,5.1,90.4,324.5,6.2,376.76,-10.0,0.02
SKQ202106S,TSG,2021-04-23T08:57:00Z,-149.3943,59.7666,258.22,9.6,155.74,154.58,0.62,0.68,0.01,1017.87,5.0,90.6,339.3,4.1,377.46,-10.0,0.02
SKQ202106S,TSG,2021-04-23T08:58:00Z,-149.3921,59.7642,256.72,9.5,155.71,154.35,0.64,0.72,0.0,1017.75,5.0,90.4,339.5,3.4,377.58,-10.0,0.02
SKQ202106S,TSG,2021-04-23T08:59:00Z,-149.39,59.7618,254.53,9.5,155.68,154.46,0.69,0.7,0.0,1017.84,5.0,90.7,322.3,5.7,377.02,-10.0,0.02
SKQ202106S,TSG,2021-04-23T09:00:00Z,-149.3878,59.7594,252.88,9.4,155.87,154.1,0.76,0.76,0.02,1017.69,5.0,90.7,310.5,5.4,376.69,-10.0,0.02
SKQ202106S,TSG,2021-04-23T09:01:00Z,-149.3857,59.757,251.74,9.6,156.0,154.68,0.63,0.68,0.02,1017.77,5.0,90.9,317.8,4.9,376.59,-10.0,0.02
SKQ202106S,TSG,2021-04-23T09:02:00Z,-149.3836,59.7546,251.18,9.6,155.86,154.64,0.62,0.68,0.0,1017.69,5.3,83.8,89.0,2.2,377.08,-10.0,0.02
SKQ202106S,TSG,2021-04-23T09:03:00Z,-149.3815,59.7522,250.78,9.3,156.39,154.65,0.76,0.76,0.05,1017.69,5.6,78.5,47.9,7.2,377.01,-10.0,0.02
SKQ202106S,TSG,2021-04-23T09:04:00Z,-149.3793,59.7498,249.92,9.7,155.54,154.0,0.61,0.7,0.0,1017.63,5.8,76.0,9.5,5.0,376.36,-10.0,0.02
SKQ202106S,TSG,2021-04-23T09:05:00Z,-149.3772,59.7474,248.59,9.6,155.85,154.33,0.78,0.68,0.01,1017.61,5.7,76.3,52.3,6.5,376.75,-10.0,0.02
SKQ202106S,TSG,2021-04-23T09:06:00Z,-149.375,59.7449,247.29,9.6,156.12,154.59,0.84,0.75,0.0,1017.61,5.6,77.7,89.7,5.3,376.36,-10.0,0.02
SKQ202106S,TSG,2021-04-23T09:07:00Z,-149.3728,59.7425,246.28,9.8,156.04,154.37,0.9,0.69,0.0,1017.46,5.8,73.2,102.9,9.9,377.21,-10.0,0.02
SKQ202106S,TSG,2021-04-23T09:08:00Z,-149.3707,59.74,245.24,9.5,156.36,154.3,0.91,0.76,0.01,1017.28,5.9,70.2,109.5,10.1,377.33,-10.0,0.02
SKQ202106S,TSG,2021-04-23T09:09:00Z,-149.3686,59.7376,243.98,9.4,156.27,154.33,0.98,0.69,0.0,1017.36,5.7,73.6,95.0,10.2,377.17,-10.0,0.02
SKQ202106S,TSG,2021-04-23T09:10:00Z,-149.3666,59.7353,242.04,9.2,155.82,154.27,0.77,0.73,0.03,1017.53,5.8,73.1,63.4,5.5,376.46,-10.0,0.02
SKQ202106S,TSG,2021-04-23T09:11:00Z,-149.3645,59.733,240.61,9.2,156.27,154.62,0.79,0.7,0.0,1017.59,5.8,73.0,21.9,6.2,376.4,-10.0,0.02
SKQ202106S,TSG,2021-04-23T09:12:00Z,-149.3624,59.7306,240.07,9.6,155.71,154.37,0.74,0.71,0.03,1017.57,5.8,73.0,359.3,6.3,376.55,-10.0,0.02
SKQ202106S,TSG,2021-04-23T09:13:00Z,-149.3602,59.7281,239.17,9.7,154.92,154.74,0.64,0.65,-0.0,1017.54,5.7,73.5,341.8,9.1,376.35,-10.0,0.02
SKQ202106S,TSG,2021-04-23T09:14:00Z,-149.3584,59.7257,238.22,9.3,169.33,172.25,0.21,0.76,0.01,1017.54,5.7,74.3,354.8,5.6,376.24,-10.0,0.02
SKQ202106S,TSG,2021-04-23T09:15:00Z,-149.3581,59.7231,237.71,9.4,180.14,180.21,0.56,0.62,0.0,1017.53,5.6,76.1,1.0,2.5,376.2,-10.0,0.02
SKQ202106S,TSG,2021-04-23T09:16:00Z,-149.3582,59.7205,237.23,9.4,181.01,180.52,0.7,0.73,0.03,1017.51,5.6,76.2,329.9,4.1,376.09,-10.0,0.02
SKQ202106S,TSG,2021-04-23T09:17:00Z,-149.3583,59.7179,237.61,9.6,180.58,180.37,0.74,0.72,0.0,1017.49,5.6,75.5,335.9,6.4,375.53,-10.0,0.02
SKQ202106S,TSG,2021-04-23T09:18:00Z,-149.3583,59.7152,238.5,9.7,180.88,180.37,0.79,0.77,0.0,1017.42,5.5,77.4,343.7,4.5,375.98,-10.0,0.02
SKQ202106S,TSG,2021-04-23T09:19:00Z,-149.3584,59.7125,240.0,9.8,180.62,180.59,0.71,0.67,0.01,1017.5,5.5,78.1,352.0,5.8,376.6,-10.0,0.02
SKQ202106S,TSG,2021-04-23T09:20:00Z,-149.3585,59.7098,242.19,9.7,180.71,180.33,0.7,0.68,0.0,1017.46,5.5,77.9,329.9,6.0,376.61,-10.0,0.02
SKQ202106S,TSG,2021-04-23T09:21:00Z,-149.3586,59.7071,242.89,9.3,181.03,180.01,0.86,0.76,0.03,1017.43,5.5,77.4,356.8,4.6,376.34,-10.0,0.02
SKQ202106S,TSG,2021-04-23T09:22:00Z,-149.3586,59.7045,243.01,9.5,181.05,180.13,0.88,0.72,0.0,1017.45,5.5,76.9,50.6,7.0,377.1,-10.0,0.02
SKQ202106S,TSG,2021-04-23T09:23:00Z,-149.3587,59.7019,242.25,9.6,180.82,180.27,0.78,0.75,0.0,1017.32,5.6,73.9,78.8,7.2,377.64,-10.0,0.02
SKQ202106S,TSG,2021-04-23T09:24:00Z,-149.3589,59.6992,241.4,9.9,181.58,180.4,1.05,0.71,0.03,1017.23,5.8,69.4,100.9,10.4,377.34,-10.0,0.02
SKQ202106S,TSG,2021-04-23T09:25:00Z,-149.359,59.6964,241.11,10.0,181.66,180.36,1.15,0.71,-0.0,1017.03,6.0,66.5,102.1,11.9,377.58,-10.0,0.02
SKQ202106S,TSG,2021-04-23T09:26:00Z,-149.3592,59.6937,240.28,9.7,182.11,180.34,1.27,0.83,0.04,1016.91,6.1,64.4,103.6,13.9,377.74,-10.0,0.02
SKQ202106S,TSG,2021-04-23T09:27:00Z,-149.3593,59.691,240.34,9.8,181.87,180.07,1.29,0.74,0.0,1016.93,6.2,63.4,105.8,14.9,377.58,-10.0,0.02
SKQ202106S,TSG,2021-04-23T09:28:00Z,-149.3595,59.6882,238.08,10.1,181.72,179.89,1.3,0.72,0.02,1016.73,6.3,62.2,104.2,17.5,377.27,-10.0,0.02
SKQ202106S,TSG,2021-04-23T09:29:00Z,-149.3597,59.6855,234.66,10.0,182.28,180.17,1.4,0.78,-0.0,1016.8,6.4,61.2,109.0,16.5,377.37,-10.0,0.02
SKQ202106S,TSG,2021-04-23T09:30:00Z,-149.3599,59.6827,230.81,10.1,182.03,180.16,1.46,0.72,0.01,1016.82,6.2,62.2,104.1,17.5,377.39,-10.0,0.02
SKQ202106S,TSG,2021-04-23T09:31:00Z,-149.3601,59.6799,226.69,10.0,181.88,180.34,1.37,0.8,0.01,1016.9,6.3,61.3,104.2,17.3,377.72,-10.0,0.02
SKQ202106S,TSG,2021-04-23T09:32:00Z,-149.3603,59.6771,220.9,10.4,181.52,180.55,1.09,0.76,-0.0,1017.01,6.3,60.3,103.7,13.5,377.82,-10.0,0.02
SKQ202106S,TSG,2021-04-23T09:33:00Z,-149.3604,59.6742,217.59,10.4,181.51,180.68,1.13,0.78,-0.0,1016.99,6.1,63.0,98.4,12.1,377.67,-10.0,0.02
SKQ202106S,TSG,2021-04-23T09:34:00Z,-149.3606,59.6714,217.65,10.4,181.08,180.5,1.14,0.65,0.0,1017.17,6.0,63.4,101.3,9.9,377.76,-10.0,0.02
SKQ202106S,TSG,2021-04-23T09:35:00Z,-149.3607,59.6684,216.23,10.5,181.24,180.86,1.01,0.68,0.02,1017.19,5.9,64.0,92.7,9.1,377.92,-10.0,0.02
SKQ202106S,TSG,2021-04-23T09:36:00Z,-149.3608,59.6656,214.04,10.4,180.61,180.69,0.95,0.79,0.02,1017.11,5.9,64.6,94.8,8.0,377.84,-10.0,0.02
SKQ202106S,TSG,2021-04-23T09:37:00Z,-149.3608,59.6627,213.78,10.5,180.64,180.65,1.07,0.77,-0.0,1017.17,5.9,63.8,87.2,6.9,377.58,-10.0,0.02
SKQ202106S,TSG,2021-04-23T09:38:00Z,-149.3609,59.6598,214.67,10.4,180.3,180.55,0.9,0.69,0.02,1017.18,5.9,64.3,80.9,6.6,377.2,-10.0,0.02
SKQ202106S,TSG,2021-04-23T09:39:00Z,-149.3609,59.6569,217.53,10.5,180.41,180.15,1.13,0.66,0.0,1017.23,5.9,65.0,83.0,8.0,377.45,-10.0,0.02
SKQ202106S,TSG,2021-04-23T09:40:00Z,-149.361,59.654,217.07,10.3,181.14,180.72,1.13,0.8,0.04,1017.17,5.9,64.4,73.8,8.5,377.84,-10.0,0.02
SKQ202106S,TSG,2021-04-23T09:41:00Z,-149.3611,59.6512,218.14,10.0,180.39,180.64,0.91,0.72,0.0,1017.04,6.0,63.7,81.6,11.6,377.58,-10.0,0.02
SKQ202106S,TSG,2021-04-23T09:42:00Z,-149.3611,59.6483,222.49,10.1,180.77,180.45,1.22,0.81,0.05,1016.95,6.2,60.7,82.5,13.9,377.54,-10.0,0.02
SKQ202106S,TSG,2021-04-23T09:43:00Z,-149.3612,59.6455,228.34,10.3,180.47,179.83,0.97,0.74,0.0,1017.08,6.3,60.9,78.5,10.7,377.8,-10.0,0.02
SKQ202106S,TSG,2021-04-23T09:44:00Z,-149.3613,59.6426,236.23,10.6,180.89,180.16,0.84,0.73,0.02,1016.92,6.3,61.4,72.2,17.2,377.58,-10.0,0.02
SKQ202106S,TSG,2021-04-23T09:45:00Z,-149.3613,59.6397,237.28,10.7,179.98,179.72,1.11,0.75,0.0,1016.97,6.5,58.8,72.0,16.7,377.69,-10.0,0.03
SKQ202106S,TSG,2021-04-23T09:46:00Z,-149.3613,59.6367,237.16,10.9,180.19,180.44,1.0,0.67,0.02,1016.99,6.6,58.6,71.0,14.4,377.68,-10.0,0.02
SKQ202106S,TSG,2021-04-23T09:47:00Z,-149.3613,59.6337,234.65,10.8,180.62,180.77,0.99,0.71,-0.0,1017.13,6.3,61.2,79.8,10.0,377.58,-10.0,0.02
SKQ202106S,TSG,2021-04-23T09:48:00Z,-149.3615,59.6307,233.18,10.4,181.07,180.65,0.97,0.81,0.02,1017.15,6.0,62.7,70.5,5.3,377.22,-10.0,0.02
SKQ202106S,TSG,2021-04-23T09:49:00Z,-149.3615,59.6278,233.43,10.7,180.12,180.19,0.86,0.68,0.0,1017.16,5.8,64.7,58.4,5.0,376.16,-10.0,0.02
SKQ202106S,TSG,2021-04-23T09:50:00Z,-149.3615,59.6248,234.21,10.7,180.3,180.5,0.83,0.73,0.0,1017.17,5.7,67.3,48.2,4.1,375.77,-10.0,0.02
SKQ202106S,TSG,2021-04-23T09:51:00Z,-149.3616,59.6219,235.51,10.6,180.83,180.37,0.81,0.69,0.0,1017.23,5.6,68.8,45.3,5.2,376.13,-10.0,0.02
SKQ202106S,TSG,2021-04-23T09:52:00Z,-149.3616,59.6189,235.71,10.7,180.42,180.33,0.81,0.76,0.0,1017.12,5.7,66.9,47.7,6.0,376.66,-10.0,0.02
SKQ202106S,TSG,2021-04-23T09:53:00Z,-149.3617,59.616,235.95,10.6,181.32,180.74,0.9,0.78,0.03,1017.06,5.8,65.3,56.3,9.9,377.02,-10.0,0.02
SKQ202106S,TSG,2021-04-23T09:54:00Z,-149.3618,59.613,237.01,10.6,180.77,180.08,0.9,0.77,-0.0,1017.05,6.0,64.3,55.2,9.9,377.37,-10.0,0.03
SKQ202106S,TSG,2021-04-23T09:55:00Z,-149.3619,59.6102,238.4,10.1,180.52,180.39,0.87,0.71,0.02,1016.99,6.0,62.8,54.0,7.5,377.28,-10.0,0.02
SKQ202106S,TSG,2021-04-23T09:56:00Z,-149.362,59.6073,239.84,10.7,180.61,180.37,0.95,0.68,0.0,1017.12,6.2,60.4,55.3,8.3,377.31,-10.0,0.02
SKQ202106S,TSG,2021-04-23T09:57:00Z,-149.362,59.6043,239.49,10.9,180.85,180.33,0.82,0.71,0.03,1017.1,6.0,64.0,44.0,7.0,376.89,-10.0,0.02
SKQ202106S,TSG,2021-04-23T09:58:00Z,-149.3621,59.6014,236.85,10.3,180.86,180.89,0.72,0.76,-0.0,1017.15,6.0,63.5,40.5,8.1,377.38,-10.0,0.02
SKQ202106S,TSG,2021-04-23T09:59:00Z,-149.3622,59.5985,235.37,10.7,180.61,180.09,0.93,0.75,0.0,1017.04,6.0,63.2,33.7,10.1,377.71,-10.0,0.02
SKQ202106S,TSG,2021-04-23T10:00:00Z,-149.3622,59.5955,234.96,10.8,180.78,180.55,0.79,0.65,0.0,1017.03,6.1,62.7,39.8,12.3,377.76,-10.0,0.02
SKQ202106S,TSG,2021-04-23T10:01:00Z,-149.3623,59.5925,233.17,10.6,180.65,179.81,0.95,0.76,0.02,1016.97,6.3,59.1,34.5,13.4,377.56,-10.0,0.02
SKQ202106S,TSG,2021-04-23T10:02:00Z,-149.3624,59.5896,231.54,10.5,180.73,180.36,0.76,0.76,0.04,1016.98,6.3,59.3,31.2,13.6,377.41,-10.0,0.02
SKQ202106S,TSG,2021-04-23T10:03:00Z,-149.3625,59.5867,227.94,10.3,181.5,180.57,0.95,0.73,0.0,1016.94,6.4,57.7,41.6,15.1,377.33,-10.0,0.02
SKQ202106S,TSG,2021-04-23T10:04:00Z,-149.3626,59.5838,224.73,10.8,180.89,180.17,0.91,0.68,0.0,1016.93,6.7,53.8,48.7,13.5,377.6,-10.0,0.02
SKQ202106S,TSG,2021-04-23T10:05:00Z,-149.3627,59.5808,222.96,10.9,181.29,180.63,0.73,0.72,0.01,1016.98,6.7,55.8,52.2,12.9,376.94,-10.0,0.02
SKQ202106S,TSG,2021-04-23T10:06:00Z,-149.3629,59.5778,219.16,10.9,181.52,180.41,0.86,0.73,0.0,1016.96,6.6,57.3,43.1,11.2,377.32,-10.0,0.02
SKQ202106S,TSG,2021-04-23T10:07:00Z,-149.363,59.5748,213.37,10.9,181.67,180.53,0.84,0.71,0.01,1016.95,6.5,57.8,40.8,11.2,377.25,-10.0,0.02
SKQ202106S,TSG,2021-04-23T10:08:00Z,-149.3632,59.5718,209.47,10.5,181.2,179.48,0.9,0.73,0.0,1016.98,6.5,59.1,47.0,9.9,377.34,-10.0,0.02
SKQ202106S,TSG,2021-04-23T10:09:00Z,-149.3633,59.5689,207.67,10.8,180.68,179.27,0.74,0.72,0.01,1016.93,6.5,57.1,51.6,11.3,376.93,-10.0,0.02
SKQ202106S,TSG,2021-04-23T10:10:00Z,-149.3634,59.5659,205.06,10.8,181.7,179.74,0.87,0.67,0.0,1016.96,6.6,57.5,43.4,9.9,377.27,-10.0,0.02
SKQ202106S,TSG,2021-04-23T10:11:00Z,-149.3636,59.5629,201.9,10.9,181.26,179.34,0.96,0.79,0.0,1016.85,6.5,60.0,67.3,12.6,377.01,-10.0,0.02
SKQ202106S,TSG,2021-04-23T10:12:00Z,-149.3637,59.5599,198.38,10.8,181.43,179.14,0.88,0.67,0.01,1016.88,6.7,54.3,54.2,12.2,377.26,-10.0,0.02
SKQ202106S,TSG,2021-04-23T10:13:00Z,-149.3639,59.5569,197.46,10.9,181.67,179.32,1.03,0.69,0.0,1016.8,6.9,52.1,58.6,11.3,377.72,-10.0,0.02
SKQ202106S,TSG,2021-04-23T10:14:00Z,-149.3641,59.5538,194.27,10.9,182.13,179.21,1.05,0.73,0.0,1016.69,6.9,53.1,58.8,18.4,378.0,-10.0,0.02
SKQ202106S,TSG,2021-04-23T10:15:00Z,-149.3643,59.5508,187.72,10.7,181.91,178.85,0.97,0.77,0.04,1016.72,6.9,52.9,59.8,15.5,377.83,-10.0,0.02
SKQ202106S,TSG,2021-04-23T10:16:00Z,-149.3645,59.5479,182.01,10.4,182.85,179.74,1.0,0.77,0.0,1016.74,6.8,56.9,68.6,12.4,377.62,-10.0,0.02
SKQ202106S,TSG,2021-04-23T10:17:00Z,-149.3648,59.545,174.67,10.8,182.85,179.37,1.26,0.67,0.0,1016.72,6.6,57.4,75.6,17.3,377.75,-10.0,0.02
SKQ202106S,TSG,2021-04-23T10:18:00Z,-149.3651,59.542,168.02,10.6,183.67,179.5,1.19,0.81,0.05,1016.48,6.6,56.6,76.8,19.0,377.64,-10.0,0.02
SKQ202106S,TSG,2021-04-23T10:19:00Z,-149.3655,59.5391,163.36,10.7,183.11,178.75,1.26,0.71,0.0,1016.57,6.7,55.0,73.7,18.3,377.57,-10.0,0.02
SKQ202106S,TSG,2021-04-23T10:20:00Z,-149.3658,59.5362,156.37,10.6,183.29,179.16,1.2,0.71,0.0,1016.55,6.6,54.2,68.4,18.8,377.52,-10.0,0.02
SKQ202106S,TSG,2021-04-23T10:21:00Z,-149.3662,59.5332,151.68,10.6,183.77,179.5,1.1,0.77,0.03,1016.58,6.6,57.3,75.6,16.4,377.25,-10.0,0.02
SKQ202106S,TSG,2021-04-23T10:22:00Z,-149.3665,59.5303,150.33,10.9,183.75,179.28,1.25,0.65,0.0,1016.52,6.5,57.5,85.7,18.2,376.99,-10.0,0.02
SKQ202106S,TSG,2021-04-23T10:23:00Z,-149.367,59.5273,147.37,10.6,184.71,178.83,1.49,0.81,0.04,1016.45,6.6,55.0,90.2,19.2,376.81,-10.0,0.02
SKQ202106S,TSG,2021-04-23T10:24:00Z,-149.3674,59.5244,145.59,10.6,184.45,179.4,1.26,0.74,0.0,1016.48,6.6,55.3,84.3,16.7,376.79,-10.0,0.02
SKQ202106S,TSG,2021-04-23T10:25:00Z,-149.3679,59.5214,142.47,10.5,185.17,179.34,1.38,0.83,0.05,1016.41,6.6,55.8,87.9,19.2,376.76,-10.0,0.02
SKQ202106S,TSG,2021-04-23T10:26:00Z,-149.3684,59.5185,140.26,10.6,185.05,179.44,1.43,0.7,0.0,1016.32,6.5,55.9,90.1,21.7,376.54,-10.0,0.02
SKQ202106S,TSG,2021-04-23T10:27:00Z,-149.369,59.5156,138.63,10.7,185.27,179.49,1.47,0.74,0.02,1016.39,6.6,55.2,85.9,20.2,376.54,-10.0,0.01
SKQ202106S,TSG,2021-04-23T10:28:00Z,-149.3694,59.5126,137.15,10.5,184.1,179.45,1.53,0.77,0.01,1016.28,6.7,54.2,85.3,21.8,376.71,-10.0,0.01
SKQ202106S,TSG,2021-04-23T10:29:00Z,-149.3697,59.5098,135.63,10.4,182.41,179.13,1.26,0.76,0.01,1016.37,6.6,54.9,76.2,18.9,376.84,-10.0,0.01
SKQ202106S,TSG,2021-04-23T10:30:00Z,-149.37,59.507,134.47,10.0,182.26,179.64,1.16,0.75,0.0,1016.44,6.7,55.2,77.7,16.8,377.25,-10.0,0.02
SKQ202106S,TSG,2021-04-23T10:31:00Z,-149.3702,59.5042,133.77,10.2,181.68,179.44,0.99,0.74,0.0,1016.51,6.7,57.2,79.2,16.9,377.21,-10.0,0.02
SKQ202106S,TSG,2021-04-23T10:32:00Z,-149.3704,59.5013,133.61,10.1,182.67,179.82,1.29,0.74,0.0,1016.34,6.5,60.2,85.5,20.7,377.0,-10.0,0.02
SKQ202106S,TSG,2021-04-23T10:33:00Z,-149.3705,59.4985,133.45,10.2,180.73,178.51,1.25,0.72,-0.0,1016.39,6.5,60.6,81.4,19.1,377.25,-10.0,0.02
SKQ202106S,TSG,2021-04-23T10:34:00Z,-149.3706,59.4957,133.37,10.3,181.19,178.96,1.4,0.68,0.0,1016.35,6.4,59.8,75.5,22.2,377.2,-10.0,0.01
SKQ202106S,TSG,2021-04-23T10:35:00Z,-149.3708,59.4929,132.73,9.9,181.78,179.73,1.24,0.83,0.05,1016.5,6.4,60.3,81.1,18.3,377.35,-10.0,0.01
SKQ202106S,TSG,2021-04-23T10:36:00Z,-149.3709,59.4901,132.38,10.0,181.36,179.5,1.39,0.71,0.0,1016.39,6.5,59.0,82.8,19.5,377.0,-10.0,0.01
SKQ202106S,TSG,2021-04-23T10:37:00Z,-149.371,59.4873,132.18,10.2,180.95,179.56,1.19,0.69,0.01,1016.38,6.3,63.1,86.3,18.0,376.87,-10.0,0.01
SKQ202106S,TSG,2021-04-23T10:38:00Z,-149.3712,59.4845,132.61,10.0,181.94,179.51,1.66,0.76,0.0,1016.27,6.3,62.5,86.9,18.5,376.95,-10.0,0.01
SKQ202106S,TSG,2021-04-23T10:39:00Z,-149.3713,59.4818,131.94,9.8,183.86,184.42,0.83,0.77,0.03,1016.41,6.3,63.4,86.3,16.9,377.17,-10.0,0.01
SKQ202106S,TSG,2021-04-23T10:40:00Z,-149.3726,59.4791,131.35,10.1,201.59,201.53,0.96,0.68,0.0,1016.42,6.3,63.7,88.5,19.3,377.29,-10.0,0.01
SKQ202106S,TSG,2021-04-23T10:41:00Z,-149.3748,59.4765,129.98,10.3,203.33,202.62,1.14,0.67,0.0,1016.49,6.3,63.1,84.5,19.2,377.41,-10.0,0.01
SKQ202106S,TSG,2021-04-23T10:42:00Z,-149.377,59.4739,129.3,10.4,203.03,202.77,1.01,0.7,0.0,1016.53,6.3,63.3,86.5,17.5,377.5,-10.0,0.01
SKQ202106S,TSG,2021-04-23T10:43:00Z,-149.3792,59.4712,129.77,10.3,203.35,202.47,1.12,0.74,0.03,1016.45,6.2,66.4,87.5,16.6,377.45,-10.0,0.01
SKQ202106S,TSG,2021-04-23T10:44:00Z,-149.3814,59.4686,129.47,10.1,202.94,202.07,1.21,0.71,0.0,1016.41,6.2,65.4,89.2,18.9,377.32,-10.0,0.01
SKQ202106S,TSG,2021-04-23T10:45:00Z,-149.3835,59.4661,128.72,10.2,202.87,202.06,1.24,0.71,0.0,1016.43,6.1,66.4,90.8,16.2,377.08,-10.0,0.01
SKQ202106S,TSG,2021-04-23T10:46:00Z,-149.3857,59.4634,128.62,10.2,203.41,202.33,1.19,0.73,0.0,1016.41,6.1,66.2,93.2,17.2,377.17,-10.0,0.01
SKQ202106S,TSG,2021-04-23T10:47:00Z,-149.3879,59.4608,127.99,10.2,203.12,201.98,1.37,0.73,0.06,1016.23,6.1,64.9,94.7,21.3,377.01,-10.0,0.01
SKQ202106S,TSG,2021-04-23T10:48:00Z,-149.3901,59.4582,129.5,10.3,203.39,202.3,1.17,0.72,0.0,1016.37,6.1,61.7,83.6,20.1,376.69,-10.0,0.01
SKQ202106S,TSG,2021-04-23T10:49:00Z,-149.3923,59.4556,127.75,10.3,202.76,202.3,0.99,0.64,0.01,1016.47,6.1,63.0,84.1,16.6,376.69,-10.0,0.01
SKQ202106S,TSG,2021-04-23T10:50:00Z,-149.3945,59.453,128.39,10.2,203.85,202.77,1.23,0.75,0.0,1016.37,6.1,63.7,80.8,18.4,376.95,-10.0,0.01
