Cruise,Type,Date_Time_[UTC],Longitude_[decimal_degrees_east],Latitude_[decimal_degrees_north],Bottom_Depth_[m],Speed_[knots],Course_[degrees_true],Heading_[degree],Roll_[degree],Pitch_[degree],Heave,Atmos_Pressure_[hPa],Air_Temperature_[C],Relative_Humidity_[%],Wind_Dir_[degrees_true],Wind_Speed_[knots],Longwave_Downwelling_[W/m2],Shortwave_Downwelling_[W/m2],PAR_[uE/m2/s]
SKQ202010S,TSG,2020-05-04T14:22:00Z,-149.4251,60.0875,155.8,8.5,149.85,148.48,1.01,0.39,-0.0,1009.42,6.0,88.0,106.6,6.8,375.71,-10.0,16.61
SKQ202010S,TSG,2020-05-04T14:23:00Z,-149.4227,60.0854,160.87,8.8,148.83,147.33,1.04,0.39,0.0,1009.44,5.9,88.3,104.3,6.6,375.31,-10.0,17.21
SKQ202010S,TSG,2020-05-04T14:24:00Z,-149.42,60.0833,169.19,9.1,147.55,147.18,0.86,0.37,0.0,1009.56,5.9,88.9,151.1,2.9,375.56,-10.0,17.86
SKQ202010S,TSG,2020-05-04T14:25:00Z,-149.4174,60.0811,178.47,9.3,150.04,150.71,0.63,0.36,0.0,1009.58,5.9,88.9,236.6,4.6,375.91,-10.0,18.53
SKQ202010S,TSG,2020-05-04T14:26:00Z,-149.4149,60.0789,187.03,9.3,151.03,151.37,0.68,0.36,0.0,1009.51,5.6,89.9,252.5,6.2,375.48,-10.0,19.11
SKQ202010S,TSG,2020-05-04T14:27:00Z,-149.4124,60.0766,194.91,9.3,151.18,151.05,0.74,0.36,0.0,1009.59,5.6,90.3,243.6,3.9,376.08,-10.0,19.73
SKQ202010S,TSG,2020-05-04T14:28:00Z,-149.4099,60.0744,203.18,9.3,150.9,150.77,0.8,0.37,-0.0,1009.6,5.8,89.8,187.0,2.3,376.91,-10.0,20.35
SKQ202010S,TSG,2020-05-04T14:29:00Z,-149.4073,60.0721,213.27,9.3,150.75,150.76,0.79,0.37,-0.0,1009.6,5.9,89.7,174.6,2.0,377.35,-10.0,20.9
SKQ202010S,TSG,2020-05-04T14:30:00Z,-149.4048,60.0699,225.78,9.3,150.79,150.95,0.75,0.36,-0.0,1009.6,5.9,89.6,209.4,1.8,377.85,-9.9,21.58
SKQ202010S,TSG,2020-05-04T14:31:00Z,-149.4023,60.0676,236.83,9.2,150.87,150.85,0.76,0.36,-0.0,1009.6,5.9,89.7,213.3,2.4,378.02,-9.39,22.6
SKQ202010S,TSG,2020-05-04T14:32:00Z,-149.3998,60.0654,247.05,9.2,150.54,150.55,0.77,0.36,-0.0,1009.66,5.9,90.1,200.1,2.7,378.33,-8.75,23.94
SKQ202010S,TSG,2020-05-04T14:33:00Z,-149.3973,60.0632,250.0,9.1,150.86,151.08,0.76,0.36,0.0,1009.7,5.9,90.0,185.8,2.7,378.55,-8.14,25.25
SKQ202010S,TSG,2020-05-04T14:34:00Z,-149.3949,60.061,246.15,9.1,150.79,150.85,0.81,0.36,-0.0,1009.65,5.9,90.1,147.3,1.6,378.48,-7.56,26.63
SKQ202010S,TSG,2020-05-04T14:35:00Z,-149.3924,60.0588,236.26,9.1,150.27,150.63,0.78,0.37,-0.0,1009.65,5.9,90.2,185.7,2.1,378.5,-6.98,27.96
SKQ202010S,TSG,2020-05-04T14:36:00Z,-149.3899,60.0566,234.59,9.1,150.65,150.96,0.75,0.36,-0.0,1009.68,5.9,90.4,206.0,2.7,378.32,-6.69,28.79
SKQ202010S,TSG,2020-05-04T14:37:00Z,-149.3874,60.0544,228.06,9.1,151.05,151.48,0.71,0.36,0.0,1009.7,5.9,90.9,208.8,3.1,378.13,-6.81,28.6
SKQ202010S,TSG,2020-05-04T14:38:00Z,-149.385,60.0522,216.12,9.1,151.5,151.86,0.75,0.37,-0.0,1009.7,5.8,91.2,221.0,4.3,378.06,-7.39,27.56
SKQ202010S,TSG,2020-05-04T14:39:00Z,-149.3826,60.05,238.59,9.1,151.33,151.8,0.68,0.36,0.0,1009.72,5.9,91.4,227.4,6.5,378.32,-7.9,26.75
SKQ202010S,TSG,2020-05-04T14:40:00Z,-149.3802,60.0478,272.59,9.1,151.52,151.87,0.72,0.37,0.0,1009.78,6.0,92.4,208.4,4.5,378.75,-7.98,26.63
SKQ202010S,TSG,2020-05-04T14:41:00Z,-149.3778,60.0455,291.31,9.1,151.43,151.55,0.79,0.37,0.0,1009.76,5.9,93.0,167.2,3.7,379.08,-7.95,26.63
SKQ202010S,TSG,2020-05-04T14:42:00Z,-149.3754,60.0433,292.35,9.1,151.36,151.54,0.77,0.37,-0.0,1009.8,5.9,92.4,202.2,3.0,379.39,-7.93,26.38
SKQ202010S,TSG,2020-05-04T14:43:00Z,-149.373,60.0411,292.25,9.2,151.68,151.75,0.78,0.37,-0.0,1009.81,5.9,92.2,192.6,3.6,379.86,-8.01,26.01
SKQ202010S,TSG,2020-05-04T14:44:00Z,-149.3705,60.0389,291.99,9.2,150.98,151.09,0.78,0.37,0.0,1009.88,6.0,91.7,192.3,5.4,379.91,-7.96,26.06
SKQ202010S,TSG,2020-05-04T14:45:00Z,-149.3681,60.0366,291.99,9.1,153.39,154.22,0.64,0.36,0.0,1009.86,6.1,90.2,175.4,5.4,379.89,-7.82,26.57
SKQ202010S,TSG,2020-05-04T14:46:00Z,-149.366,60.0343,291.8,9.1,155.55,155.85,0.74,0.37,-0.0,1009.9,6.2,88.7,189.6,4.7,379.97,-7.67,27.24
SKQ202010S,TSG,2020-05-04T14:47:00Z,-149.364,60.0321,291.46,8.7,157.05,157.48,0.68,0.35,0.0,1009.9,6.2,88.9,172.8,4.7,380.17,-7.52,27.82
SKQ202010S,TSG,2020-05-04T14:48:00Z,-149.3622,60.0299,292.14,8.3,156.58,156.05,0.83,0.37,0.0,1009.91,6.1,90.4,160.9,5.0,379.98,-7.59,27.82
SKQ202010S,TSG,2020-05-04T14:49:00Z,-149.3603,60.028,292.71,7.0,150.68,149.32,0.87,0.36,0.0,1009.99,6.0,91.5,180.9,5.1,380.21,-7.7,27.96
SKQ202010S,TSG,2020-05-04T14:50:00Z,-149.3586,60.0266,293.93,4.3,149.94,157.88,0.59,0.36,0.0,1010.0,6.0,92.2,178.6,5.6,380.72,-7.43,28.61
SKQ202010S,TSG,2020-05-04T14:51:00Z,-149.3581,60.0259,293.77,1.9,175.63,177.17,0.5,0.36,0.0,1010.0,5.9,93.2,149.8,5.1,380.52,-6.98,29.77
SKQ202010S,TSG,2020-05-04T14:52:00Z,-149.3581,60.0255,293.22,1.0,184.52,150.24,0.69,0.37,0.0,1010.05,5.8,93.9,155.1,4.2,380.39,-6.38,31.73
SKQ202010S,TSG,2020-05-04T14:53:00Z,-149.3581,60.0252,294.84,0.7,176.34,153.16,0.72,0.36,-0.0,1010.08,5.8,93.8,181.8,4.8,380.43,-5.62,34.29
SKQ202010S,TSG,2020-05-04T14:54:00Z,-149.3581,60.0251,293.59,0.4,182.33,160.32,0.77,0.36,-0.0,1010.1,5.8,94.0,179.8,4.1,380.29,-4.5,37.55
SKQ202010S,TSG,2020-05-04T14:55:00Z,-149.3581,60.025,292.81,0.1,174.88,168.13,0.87,0.37,0.0,1010.1,5.8,94.2,172.0,3.9,380.79,-3.28,41.02
SKQ202010S,TSG,2020-05-04T14:56:00Z,-149.3581,60.025,292.74,0.0,90.0,168.51,0.72,0.37,0.0,1010.1,5.8,94.5,169.3,4.2,381.02,-1.95,44.32
SKQ202010S,TSG,2020-05-04T14:57:00Z,-149.3581,60.025,292.35,0.0,191.09,168.68,0.76,0.36,-0.0,1010.04,5.8,94.5,160.3,4.4,380.28,-0.77,46.49
SKQ202010S,TSG,2020-05-04T14:58:00Z,-149.3581,60.025,292.11,0.0,185.34,168.79,0.8,0.37,0.01,1010.07,5.8,94.6,154.0,4.9,380.22,-0.5,46.94
SKQ202010S,TSG,2020-05-04T14:59:00Z,-149.3581,60.025,292.07,0.0,165.13,168.87,0.87,0.37,-0.0,1010.1,5.8,94.5,159.7,4.6,379.7,-1.1,46.08
SKQ202010S,TSG,2020-05-04T15:00:00Z,-149.3581,60.025,292.07,0.0,277.26,168.98,0.86,0.38,0.0,1010.1,5.8,94.5,155.9,4.5,379.86,-1.35,46.39
SKQ202010S,TSG,2020-05-04T15:01:00Z,-149.3581,60.025,292.11,0.0,40.95,169.03,0.86,0.37,0.0,1010.1,5.8,94.5,163.5,4.5,379.86,-0.28,49.36
SKQ202010S,TSG,2020-05-04T15:02:00Z,-149.3581,60.025,292.13,0.0,187.11,168.97,0.83,0.37,0.0,1010.1,5.8,94.5,168.0,4.5,380.9,1.15,53.28
SKQ202010S,TSG,2020-05-04T15:03:00Z,-149.3581,60.025,292.15,0.0,215.33,168.94,0.8,0.37,-0.0,1010.1,5.8,94.4,170.9,4.4,381.27,2.6,57.1
SKQ202010S,TSG,2020-05-04T15:04:00Z,-149.3581,60.025,292.07,0.0,90.0,168.99,0.9,0.37,-0.0,1010.11,5.9,94.3,171.8,5.3,381.34,3.84,59.75
SKQ202010S,TSG,2020-05-04T15:05:00Z,-149.3581,60.025,291.85,0.0,90.0,168.89,1.11,0.38,0.0,1010.18,5.8,93.4,174.7,6.3,381.53,4.36,60.51
SKQ202010S,TSG,2020-05-04T15:06:00Z,-149.3581,60.025,291.92,0.0,90.0,168.98,1.08,0.38,0.0,1010.19,5.9,93.1,168.5,5.6,381.23,4.2,60.15
SKQ202010S,TSG,2020-05-04T15:07:00Z,-149.3581,60.025,292.2,0.0,90.0,169.02,1.09,0.38,-0.0,1010.2,5.9,93.8,167.3,5.4,381.39,4.3,60.91
SKQ202010S,TSG,2020-05-04T15:08:00Z,-149.3581,60.025,291.98,0.0,193.47,169.0,1.11,0.38,-0.0,1010.2,5.9,94.1,159.1,5.4,381.24,4.98,63.22
SKQ202010S,TSG,2020-05-04T15:09:00Z,-149.3581,60.025,292.17,0.0,90.0,169.05,1.14,0.38,0.0,1010.2,5.9,94.1,162.7,5.5,380.34,6.14,66.34
SKQ202010S,TSG,2020-05-04T15:10:00Z,-149.3581,60.025,292.03,0.0,22.05,168.95,1.11,0.39,0.0,1010.2,5.8,93.6,175.1,6.2,380.6,7.22,69.56
SKQ202010S,TSG,2020-05-04T15:11:00Z,-149.3581,60.025,292.11,0.0,211.53,169.12,1.13,0.38,0.0,1010.2,5.8,93.5,155.4,5.4,380.31,8.35,72.35
SKQ202010S,TSG,2020-05-04T15:12:00Z,-149.3581,60.025,292.27,0.0,193.5,169.24,1.15,0.38,-0.0,1010.22,5.8,94.0,149.4,5.4,379.54,8.09,72.07
SKQ202010S,TSG,2020-05-04T15:13:00Z,-149.3581,60.025,292.31,0.0,90.0,169.17,1.16,0.38,0.0,1010.3,5.8,94.2,148.1,4.7,379.56,7.13,70.72
SKQ202010S,TSG,2020-05-04T15:14:00Z,-149.3581,60.025,292.24,0.0,90.0,169.14,1.16,0.39,-0.0,1010.3,5.8,94.1,151.3,5.2,380.26,6.26,69.19
SKQ202010S,TSG,2020-05-04T15:15:00Z,-149.3581,60.025,292.24,0.0,25.73,169.19,1.14,0.39,0.0,1010.3,5.8,94.1,159.0,5.0,379.78,5.18,66.78
SKQ202010S,TSG,2020-05-04T15:16:00Z,-149.3581,60.025,292.23,0.0,234.8,169.27,1.19,0.39,-0.0,1010.3,5.8,94.1,148.9,5.6,380.07,4.12,64.34
SKQ202010S,TSG,2020-05-04T15:17:00Z,-149.3581,60.025,292.26,0.0,16.13,169.33,1.54,0.39,0.0,1010.3,5.8,94.0,140.5,5.6,379.59,3.16,62.03
SKQ202010S,TSG,2020-05-04T15:18:00Z,-149.3581,60.025,292.3,0.0,196.77,169.4,1.47,0.39,-0.0,1010.3,5.8,94.2,124.1,6.2,380.97,2.36,60.15
SKQ202010S,TSG,2020-05-04T15:19:00Z,-149.3581,60.025,292.32,0.0,28.4,169.19,1.41,0.38,0.0,1010.31,5.8,94.2,130.1,5.4,380.94,2.45,60.25
SKQ202010S,TSG,2020-05-04T15:20:00Z,-149.3581,60.025,292.3,0.0,263.88,169.14,1.4,0.38,0.0,1010.33,5.7,94.3,135.2,5.7,381.05,3.69,62.73
SKQ202010S,TSG,2020-05-04T15:21:00Z,-149.3581,60.025,292.25,0.0,22.73,169.07,1.38,0.38,0.0,1010.37,5.7,94.3,145.4,4.7,379.94,5.24,66.24
SKQ202010S,TSG,2020-05-04T15:22:00Z,-149.3581,60.025,292.29,0.0,90.0,169.29,1.36,0.38,0.0,1010.39,5.7,94.6,139.3,5.3,379.88,6.34,68.95
SKQ202010S,TSG,2020-05-04T15:23:00Z,-149.3581,60.025,292.27,0.0,5.4,169.3,1.33,0.37,-0.0,1010.4,5.7,94.3,149.5,4.9,380.22,6.64,70.33
SKQ202010S,TSG,2020-05-04T15:24:00Z,-149.3581,60.025,292.1,0.0,302.01,169.26,1.33,0.37,-0.0,1010.4,5.7,94.4,145.7,4.6,379.66,6.78,71.45
SKQ202010S,TSG,2020-05-04T15:25:00Z,-149.3581,60.025,292.3,0.0,179.98,169.36,1.34,0.38,0.0,1010.4,5.7,94.5,148.6,4.8,379.51,7.36,73.65
SKQ202010S,TSG,2020-05-04T15:26:00Z,-149.3581,60.025,292.27,0.0,350.41,169.37,1.34,0.38,-0.0,1010.4,5.7,94.3,151.1,5.5,379.69,7.84,75.7
SKQ202010S,TSG,2020-05-04T15:27:00Z,-149.3581,60.025,292.33,0.0,16.98,169.31,1.32,0.38,-0.0,1010.4,5.7,93.9,151.7,6.1,379.98,7.86,76.76
SKQ202010S,TSG,2020-05-04T15:28:00Z,-149.3581,60.025,292.34,0.0,91.25,169.36,1.34,0.38,0.0,1010.47,5.7,93.7,149.2,6.5,379.92,8.45,78.86
SKQ202010S,TSG,2020-05-04T15:29:00Z,-149.3581,60.025,292.43,0.0,90.0,169.36,1.34,0.38,0.0,1010.5,5.7,93.5,147.6,6.7,379.84,9.88,82.69
SKQ202010S,TSG,2020-05-04T15:30:00Z,-149.3581,60.025,292.35,0.0,90.0,169.32,1.33,0.38,-0.0,1010.52,5.8,93.3,147.9,6.5,379.93,11.48,86.44
SKQ202010S,TSG,2020-05-04T15:31:00Z,-149.3581,60.025,292.42,0.0,7.53,169.16,1.3,0.38,0.0,1010.58,5.8,93.3,155.2,6.2,379.57,12.19,87.33
SKQ202010S,TSG,2020-05-04T15:32:00Z,-149.3581,60.025,292.27,0.0,90.0,169.27,1.28,0.38,0.0,1010.6,5.8,93.2,160.1,6.2,379.83,11.85,85.88
SKQ202010S,TSG,2020-05-04T15:33:00Z,-149.3581,60.025,292.38,0.0,32.89,169.41,1.3,0.38,0.0,1010.6,5.8,93.6,152.2,5.6,379.91,10.87,82.88
SKQ202010S,TSG,2020-05-04T15:34:00Z,-149.3581,60.025,292.44,0.0,90.0,169.42,1.31,0.37,0.0,1010.6,5.8,93.6,160.6,6.1,379.65,8.92,78.11
SKQ202010S,TSG,2020-05-04T15:35:00Z,-149.3581,60.025,292.4,0.0,90.0,169.26,1.29,0.37,-0.0,1010.63,5.7,93.3,165.4,6.3,380.28,6.72,72.58
SKQ202010S,TSG,2020-05-04T15:36:00Z,-149.3581,60.025,292.4,0.0,90.0,169.35,1.31,0.38,-0.0,1010.65,5.7,93.3,157.4,6.8,380.87,5.18,68.66
SKQ202010S,TSG,2020-05-04T15:37:00Z,-149.3581,60.025,292.77,0.0,90.0,169.49,1.32,0.38,0.0,1010.68,5.8,93.2,154.2,6.9,380.13,4.11,66.02
SKQ202010S,TSG,2020-05-04T15:38:00Z,-149.3581,60.025,293.21,0.0,282.44,169.38,1.32,0.37,0.0,1010.7,5.8,93.0,152.3,6.8,379.83,3.38,64.54
SKQ202010S,TSG,2020-05-04T15:39:00Z,-149.3581,60.025,293.1,0.0,90.0,169.39,1.34,0.38,0.0,1010.7,5.8,93.0,148.2,7.1,380.3,3.24,64.7
SKQ202010S,TSG,2020-05-04T15:40:00Z,-149.3581,60.025,293.08,0.0,297.17,168.89,1.33,0.38,-0.0,1010.72,5.8,93.0,151.6,6.0,380.11,3.96,66.95
SKQ202010S,TSG,2020-05-04T15:41:00Z,-149.3581,60.025,293.6,0.0,264.92,163.03,1.27,0.38,-0.0,1010.75,5.8,93.2,156.1,5.2,380.46,4.88,69.78
SKQ202010S,TSG,2020-05-04T15:42:00Z,-149.3581,60.025,292.83,0.0,262.35,159.68,1.29,0.37,-0.0,1010.79,5.8,93.3,150.0,3.9,381.42,6.39,73.49
SKQ202010S,TSG,2020-05-04T15:43:00Z,-149.3581,60.025,293.34,0.0,343.29,159.64,1.29,0.37,-0.0,1010.78,5.8,93.7,148.3,3.5,381.07,7.75,76.41
SKQ202010S,TSG,2020-05-04T15:44:00Z,-149.3581,60.025,293.23,0.0,183.58,159.54,1.28,0.37,0.0,1010.8,5.8,93.6,146.0,3.6,380.99,7.79,76.02
SKQ202010S,TSG,2020-05-04T15:45:00Z,-149.3581,60.025,292.85,0.0,213.42,159.55,1.25,0.37,0.01,1010.75,5.9,93.3,154.1,4.9,380.86,6.85,72.84
SKQ202010S,TSG,2020-05-04T15:46:00Z,-149.3581,60.025,292.93,0.0,49.18,159.53,1.28,0.37,0.0,1010.71,5.8,92.7,159.2,5.5,381.04,5.27,68.18
SKQ202010S,TSG,2020-05-04T15:47:00Z,-149.3581,60.025,292.69,0.0,283.8,159.51,1.26,0.37,-0.0,1010.71,5.8,92.4,172.5,5.1,380.72,3.44,63.03
SKQ202010S,TSG,2020-05-04T15:48:00Z,-149.3581,60.025,293.19,0.0,21.71,159.5,1.29,0.38,0.0,1010.7,5.8,92.4,178.7,3.7,380.94,1.52,58.19
SKQ202010S,TSG,2020-05-04T15:49:00Z,-149.3581,60.025,293.06,0.0,217.22,159.65,1.38,0.37,0.0,1010.77,5.8,92.8,177.2,3.8,380.87,0.49,56.14
SKQ202010S,TSG,2020-05-04T15:50:00Z,-149.3581,60.025,292.97,0.0,20.27,159.69,1.16,0.37,0.01,1010.8,5.8,92.6,189.1,3.9,381.2,0.68,57.27
SKQ202010S,TSG,2020-05-04T15:51:00Z,-149.3581,60.025,293.23,0.0,179.69,159.7,0.96,0.36,0.0,1010.8,5.8,92.9,179.3,2.5,380.87,2.38,62.67
SKQ202010S,TSG,2020-05-04T15:52:00Z,-149.3581,60.025,292.94,0.0,224.32,159.67,0.97,0.36,0.0,1010.8,5.8,93.4,182.4,2.2,380.84,5.18,71.67
SKQ202010S,TSG,2020-05-04T15:53:00Z,-149.3581,60.025,293.31,0.0,33.68,159.64,1.13,0.37,-0.0,1010.8,5.9,93.5,180.8,2.2,381.63,10.13,86.98
SKQ202010S,TSG,2020-05-04T15:54:00Z,-149.3581,60.025,293.15,0.0,90.0,159.62,1.33,0.38,-0.0,1010.8,5.8,93.4,162.9,2.1,381.72,20.71,113.56
SKQ202010S,TSG,2020-05-04T15:55:00Z,-149.3581,60.025,293.23,0.0,90.0,159.62,1.34,0.38,0.0,1010.79,5.8,93.7,149.5,2.5,380.85,29.45,134.16
SKQ202010S,TSG,2020-05-04T15:56:00Z,-149.3581,60.025,293.08,0.0,90.0,159.54,1.37,0.38,0.0,1010.7,5.8,93.4,168.6,2.1,380.2,32.05,143.31
SKQ202010S,TSG,2020-05-04T15:57:00Z,-149.3581,60.025,293.2,0.0,90.0,159.55,1.36,0.38,0.0,1010.7,5.8,93.2,162.3,2.9,379.94,33.31,149.08
SKQ202010S,TSG,2020-05-04T15:58:00Z,-149.3581,60.025,293.13,0.0,181.94,159.62,1.1,0.36,-0.0,1010.77,5.9,93.1,154.3,2.6,380.31,33.58,150.32
SKQ202010S,TSG,2020-05-04T15:59:00Z,-149.3581,60.025,293.24,0.0,90.0,159.75,0.98,0.36,-0.0,1010.8,5.9,92.9,133.0,3.4,379.53,32.33,147.77
SKQ202010S,TSG,2020-05-04T16:00:00Z,-149.3581,60.025,293.14,0.0,90.0,159.74,0.95,0.36,0.0,1010.87,5.9,92.4,149.2,4.3,379.23,29.82,143.35
SKQ202010S,TSG,2020-05-04T16:01:00Z,-149.3581,60.025,293.22,0.0,193.37,159.68,0.93,0.36,0.0,1010.81,5.9,92.1,133.6,5.0,379.04,29.36,144.45
SKQ202010S,TSG,2020-05-04T16:02:00Z,-149.3581,60.025,293.02,0.0,282.95,159.68,0.91,0.36,-0.0,1010.8,5.9,92.2,115.4,5.0,378.63,33.34,153.18
SKQ202010S,TSG,2020-05-04T16:03:00Z,-149.3581,60.025,293.18,0.0,357.43,159.54,0.91,0.36,-0.0,1010.7,5.9,92.3,121.4,3.8,379.14,37.94,163.65
SKQ202010S,TSG,2020-05-04T16:04:00Z,-149.3581,60.025,293.5,0.6,162.15,160.37,0.91,0.37,0.01,1010.7,5.9,92.7,110.7,3.5,378.83,39.38,168.39
SKQ202010S,TSG,2020-05-04T16:05:00Z,-149.3578,60.0245,294.0,3.0,164.04,163.32,0.89,0.39,0.01,1010.7,5.9,92.5,96.5,3.5,378.62,39.17,171.28
SKQ202010S,TSG,2020-05-04T16:06:00Z,-149.3572,60.0233,294.35,5.8,166.97,167.94,0.77,0.38,-0.0,1010.68,5.9,91.8,96.8,2.6,378.5,40.43,179.56
SKQ202010S,TSG,2020-05-04T16:07:00Z,-149.3566,60.0215,293.89,7.4,175.0,175.23,0.89,0.38,0.0,1010.7,5.9,91.4,84.9,3.1,378.63,49.05,201.9
SKQ202010S,TSG,2020-05-04T16:08:00Z,-149.3563,60.0193,294.1,8.5,175.17,174.89,0.94,0.37,0.0,1010.7,5.9,91.5,74.1,2.8,378.25,58.65,216.73
SKQ202010S,TSG,2020-05-04T16:09:00Z,-149.3559,60.0169,294.53,9.0,175.09,175.02,0.9,0.37,0.0,1010.69,5.9,91.4,69.9,2.0,377.75,54.02,206.95
SKQ202010S,TSG,2020-05-04T16:10:00Z,-149.3555,60.0143,293.82,9.4,175.67,175.56,0.91,0.37,-0.0,1010.67,6.0,91.1,82.8,2.3,376.74,47.17,192.32
SKQ202010S,TSG,2020-05-04T16:11:00Z,-149.3551,60.0117,292.91,9.6,175.79,175.47,0.94,0.37,-0.0,1010.65,6.0,91.4,84.0,3.3,376.67,41.42,177.52
SKQ202010S,TSG,2020-05-04T16:12:00Z,-149.3547,60.009,293.76,9.7,175.87,175.41,1.02,0.37,0.0,1010.61,5.9,91.8,93.6,5.0,377.88,34.93,161.09
SKQ202010S,TSG,2020-05-04T16:13:00Z,-149.3543,60.0063,293.34,9.7,175.96,175.5,1.0,0.37,0.0,1010.65,5.8,92.3,97.8,4.2,379.36,28.81,145.51
SKQ202010S,TSG,2020-05-04T16:14:00Z,-149.3539,60.0036,294.26,9.7,176.3,175.75,0.97,0.37,-0.0,1010.71,5.8,91.7,82.9,1.9,379.09,25.91,136.54
SKQ202010S,TSG,2020-05-04T16:15:00Z,-149.3536,60.0009,294.31,9.8,176.37,175.88,0.93,0.37,-0.0,1010.71,6.0,90.4,46.9,1.5,379.42,25.43,133.27
SKQ202010S,TSG,2020-05-04T16:16:00Z,-149.3533,59.9982,295.31,9.9,176.34,175.75,0.96,0.37,0.0,1010.73,6.0,90.4,58.9,2.2,379.15,25.23,132.5
SKQ202010S,TSG,2020-05-04T16:17:00Z,-149.3529,59.9955,296.1,10.0,176.29,175.71,0.99,0.37,0.0,1010.7,5.9,90.9,76.6,4.1,379.35,26.38,135.82
SKQ202010S,TSG,2020-05-04T16:18:00Z,-149.3525,59.9927,296.17,10.0,176.16,175.56,1.04,0.38,0.0,1010.7,5.9,91.8,84.7,5.2,380.44,28.88,140.58
SKQ202010S,TSG,2020-05-04T16:19:00Z,-149.3521,59.9899,297.39,10.0,175.81,175.56,0.98,0.38,-0.0,1010.75,5.8,92.7,82.6,3.7,381.64,28.12,136.57
SKQ202010S,TSG,2020-05-04T16:20:00Z,-149.3517,59.9872,298.6,10.0,175.82,175.77,0.95,0.36,-0.0,1010.77,5.7,92.7,87.9,3.4,379.88,22.56,123.71
SKQ202010S,TSG,2020-05-04T16:21:00Z,-149.3513,59.9844,297.69,10.0,175.93,175.82,0.91,0.37,-0.0,1010.79,5.8,92.4,89.5,3.2,380.65,18.96,114.51
SKQ202010S,TSG,2020-05-04T16:22:00Z,-149.3509,59.9817,296.44,10.0,175.46,175.21,0.95,0.37,0.0,1010.82,5.8,92.3,88.9,3.4,380.44,16.25,106.01
SKQ202010S,TSG,2020-05-04T16:23:00Z,-149.3505,59.9789,293.51,10.0,175.83,175.88,0.83,0.37,0.0,1010.88,5.9,91.4,78.1,2.9,379.77,12.57,95.35
SKQ202010S,TSG,2020-05-04T16:24:00Z,-149.3504,59.9762,281.59,9.8,185.9,188.7,0.12,0.33,0.0,1010.92,5.9,91.7,75.2,2.7,379.68,9.63,87.11
SKQ202010S,TSG,2020-05-04T16:25:00Z,-149.3518,59.9736,263.54,9.8,201.01,202.1,0.63,0.36,0.0,1010.98,5.9,91.8,74.2,2.1,379.99,7.48,81.59
SKQ202010S,TSG,2020-05-04T16:26:00Z,-149.3539,59.971,239.92,9.9,203.04,203.79,0.82,0.37,-0.0,1011.0,5.9,91.8,43.2,1.8,380.66,5.94,80.0
SKQ202010S,TSG,2020-05-04T16:27:00Z,-149.356,59.9685,212.05,9.9,202.32,203.69,0.72,0.36,0.0,1011.0,6.0,91.6,305.1,2.6,381.22,8.59,89.7
SKQ202010S,TSG,2020-05-04T16:28:00Z,-149.358,59.966,192.3,9.9,202.2,203.93,0.68,0.36,0.0,1011.01,6.0,90.6,303.4,4.2,381.36,14.78,105.68
SKQ202010S,TSG,2020-05-04T16:29:00Z,-149.3601,59.9634,194.97,10.0,202.02,203.7,0.69,0.36,-0.0,1011.08,6.0,90.0,300.8,3.7,381.24,17.93,114.42
SKQ202010S,TSG,2020-05-04T16:30:00Z,-149.3622,59.9609,202.26,10.0,202.36,203.81,0.71,0.36,0.0,1011.08,6.1,89.1,276.2,3.0,381.24,19.34,119.4
SKQ202010S,TSG,2020-05-04T16:31:00Z,-149.3643,59.9583,212.58,10.1,202.73,203.66,0.75,0.36,-0.0,1011.08,6.3,86.2,227.1,2.3,381.68,20.7,123.04
SKQ202010S,TSG,2020-05-04T16:32:00Z,-149.3665,59.9557,221.27,10.1,202.85,203.41,0.77,0.37,-0.0,1011.08,6.4,84.7,205.9,1.4,381.68,20.92,122.05
SKQ202010S,TSG,2020-05-04T16:33:00Z,-149.3687,59.9532,228.62,10.1,203.1,203.29,0.82,0.35,0.0,1011.06,6.4,85.4,166.2,2.5,381.26,17.49,110.54
SKQ202010S,TSG,2020-05-04T16:34:00Z,-149.3709,59.9506,232.99,10.1,204.12,204.69,0.71,0.37,0.01,1011.07,6.2,88.0,139.1,4.1,380.52,11.48,93.56
SKQ202010S,TSG,2020-05-04T16:35:00Z,-149.3735,59.9481,233.8,10.1,211.9,212.1,0.77,0.36,-0.0,1011.09,6.1,89.4,127.2,3.6,381.26,6.95,79.54
SKQ202010S,TSG,2020-05-04T16:36:00Z,-149.3765,59.9457,236.83,10.2,212.88,212.51,0.88,0.37,-0.0,1011.15,6.0,89.6,113.6,2.4,380.96,3.87,68.64
SKQ202010S,TSG,2020-05-04T16:37:00Z,-149.3796,59.9434,240.16,10.2,212.82,212.44,0.84,0.36,0.0,1011.22,6.0,88.5,49.0,1.1,381.45,0.83,58.66
SKQ202010S,TSG,2020-05-04T16:38:00Z,-149.3826,59.941,243.24,10.3,212.73,212.38,0.85,0.37,0.0,1011.3,6.1,87.7,20.6,1.9,381.45,-1.75,50.82
SKQ202010S,TSG,2020-05-04T16:39:00Z,-149.3857,59.9386,244.49,10.3,213.0,212.66,0.8,0.36,-0.0,1011.25,6.2,87.4,20.1,0.9,381.47,-3.15,46.26
SKQ202010S,TSG,2020-05-04T16:40:00Z,-149.3888,59.9362,245.83,10.3,213.07,212.61,0.86,0.36,0.0,1011.3,6.2,86.4,73.2,1.4,381.16,-3.58,45.07
SKQ202010S,TSG,2020-05-04T16:41:00Z,-149.3919,59.9338,236.78,10.3,212.9,212.48,0.86,0.36,0.0,1011.3,6.2,86.2,63.3,0.3,381.27,-3.11,46.39
SKQ202010S,TSG,2020-05-04T16:42:00Z,-149.395,59.9314,250.61,10.2,212.67,212.34,0.94,0.38,0.0,1011.27,6.2,86.7,136.3,3.5,381.1,-2.45,48.94
SKQ202010S,TSG,2020-05-04T16:43:00Z,-149.398,59.929,257.12,10.2,213.01,212.68,0.89,0.38,-0.0,1011.37,6.1,87.0,134.6,2.1,380.59,-1.63,52.27
SKQ202010S,TSG,2020-05-04T16:44:00Z,-149.4011,59.9267,260.19,10.2,212.55,211.77,1.02,0.38,0.01,1011.42,6.1,86.8,108.9,2.1,380.79,-0.35,57.05
SKQ202010S,TSG,2020-05-04T16:45:00Z,-149.4041,59.9243,262.75,10.2,213.05,212.89,0.83,0.37,-0.0,1011.47,6.1,86.9,93.6,1.4,381.3,1.48,64.74
SKQ202010S,TSG,2020-05-04T16:46:00Z,-149.4072,59.9219,265.17,10.1,213.34,212.79,0.97,0.37,0.01,1011.47,6.1,87.1,77.4,2.0,381.4,5.78,78.65
SKQ202010S,TSG,2020-05-04T16:47:00Z,-149.4102,59.9196,265.6,10.1,212.72,212.39,0.98,0.37,0.0,1011.45,6.1,87.1,40.4,1.1,380.93,10.97,93.62
SKQ202010S,TSG,2020-05-04T16:48:00Z,-149.4132,59.9172,265.88,10.1,212.95,212.75,0.64,0.37,0.02,1011.43,6.0,87.4,325.5,0.8,381.23,13.67,102.33
SKQ202010S,TSG,2020-05-04T16:49:00Z,-149.4162,59.9149,265.06,10.0,212.21,211.63,0.97,0.38,-0.0,1011.42,6.0,88.0,312.5,1.3,380.93,13.84,103.12
SKQ202010S,TSG,2020-05-04T16:50:00Z,-149.4192,59.9126,264.76,10.0,213.5,213.17,0.93,0.37,0.0,1011.49,5.9,88.0,315.3,2.3,380.81,11.86,98.15
SKQ202010S,TSG,2020-05-04T16:51:00Z,-149.4223,59.9103,264.78,10.0,212.44,212.09,0.89,0.36,0.0,1011.49,5.9,87.7,315.0,3.1,381.02,9.72,93.36
SKQ202010S,TSG,2020-05-04T16:52:00Z,-149.4252,59.9079,264.66,10.0,212.88,213.11,0.86,0.38,0.0,1011.5,6.0,87.5,338.8,2.7,380.86,8.89,92.27
SKQ202010S,TSG,2020-05-04T16:53:00Z,-149.4281,59.9055,262.84,10.0,210.05,211.77,1.17,0.41,0.01,1011.54,6.0,87.7,4.6,2.8,381.0,9.86,95.01
SKQ202010S,TSG,2020-05-04T16:54:00Z,-149.431,59.9032,262.3,10.0,212.55,215.04,1.01,0.38,0.01,1011.54,6.0,87.8,18.0,3.6,381.14,11.53,99.71
SKQ202010S,TSG,2020-05-04T16:55:00Z,-149.434,59.9008,261.36,10.0,213.26,215.24,0.89,0.38,0.0,1011.55,6.0,88.0,30.6,4.6,381.31,13.57,104.38
SKQ202010S,TSG,2020-05-04T16:56:00Z,-149.437,59.8985,261.22,10.0,212.93,214.46,0.95,0.38,0.01,1011.51,6.0,88.0,40.1,4.3,381.24,14.09,105.09
SKQ202010S,TSG,2020-05-04T16:57:00Z,-149.44,59.8962,261.86,10.1,213.4,214.59,1.27,0.38,0.0,1011.51,6.0,87.8,34.0,4.5,381.47,13.08,103.11
SKQ202010S,TSG,2020-05-04T16:58:00Z,-149.4431,59.8939,263.82,10.0,213.72,214.72,1.05,0.38,0.01,1011.5,5.9,87.3,42.7,4.6,381.69,12.2,100.4
SKQ202010S,TSG,2020-05-04T16:59:00Z,-149.4462,59.8915,264.86,10.1,213.92,214.68,1.09,0.38,-0.0,1011.53,6.0,87.0,55.4,5.8,381.7,11.52,98.85
SKQ202010S,TSG,2020-05-04T17:00:00Z,-149.4493,59.8892,266.78,10.1,213.6,213.9,1.22,0.38,0.0,1011.53,6.0,85.5,83.7,8.5,382.0,12.51,99.7
SKQ202010S,TSG,2020-05-04T17:01:00Z,-149.4524,59.8869,268.37,10.1,214.09,214.61,1.12,0.38,0.0,1011.53,6.1,84.7,72.9,9.5,382.1,11.75,96.71
SKQ202010S,TSG,2020-05-04T17:02:00Z,-149.4555,59.8846,268.53,10.1,214.65,215.35,1.0,0.38,0.01,1011.61,6.2,84.9,66.4,9.1,382.59,10.0,93.12
SKQ202010S,TSG,2020-05-04T17:03:00Z,-149.4589,59.8823,267.88,10.1,218.73,218.93,0.93,0.35,0.0,1011.62,6.2,85.2,62.4,7.7,382.39,10.83,95.31
SKQ202010S,TSG,2020-05-04T17:04:00Z,-149.4623,59.8802,264.0,10.0,218.37,217.94,1.17,0.42,-0.0,1011.49,6.2,85.0,77.3,5.1,381.82,10.95,96.32
SKQ202010S,TSG,2020-05-04T17:05:00Z,-149.4658,59.878,261.78,10.0,219.4,218.67,1.2,0.38,0.0,1011.34,6.3,83.0,104.1,11.2,382.5,11.19,98.31
SKQ202010S,TSG,2020-05-04T17:06:00Z,-149.4693,59.8758,261.89,10.0,218.89,217.88,1.22,0.38,-0.0,1011.38,6.5,80.4,92.0,13.9,382.24,11.7,99.32
SKQ202010S,TSG,2020-05-04T17:07:00Z,-149.4727,59.8737,263.07,10.0,218.94,218.19,1.05,0.38,0.02,1011.57,6.5,80.5,84.6,13.0,382.08,11.07,98.75
SKQ202010S,TSG,2020-05-04T17:08:00Z,-149.4762,59.8716,263.34,9.9,219.89,218.42,1.2,0.41,0.01,1011.71,6.5,81.5,71.7,14.6,382.08,12.08,101.25
SKQ202010S,TSG,2020-05-04T17:09:00Z,-149.4797,59.8694,260.93,9.9,219.8,219.01,0.95,0.37,0.0,1011.69,6.5,83.4,57.4,13.1,382.51,12.75,100.86
SKQ202010S,TSG,2020-05-04T17:10:00Z,-149.4832,59.8673,259.91,10.0,220.1,218.4,1.14,0.4,0.01,1011.71,6.3,85.3,62.4,11.9,383.39,10.05,93.87
SKQ202010S,TSG,2020-05-04T17:11:00Z,-149.4867,59.8652,260.97,9.9,219.19,217.22,1.2,0.39,0.01,1011.76,6.2,85.4,80.5,12.4,382.93,8.9,91.76
SKQ202010S,TSG,2020-05-04T17:12:00Z,-149.4902,59.8631,261.11,9.7,220.29,217.57,1.24,0.38,0.0,1011.57,6.3,83.5,82.0,16.2,382.72,11.34,98.14
SKQ202010S,TSG,2020-05-04T17:13:00Z,-149.4934,59.8612,261.39,8.6,219.7,216.75,1.35,0.38,0.0,1011.44,6.5,82.2,85.4,21.1,382.37,14.06,102.32
SKQ202010S,TSG,2020-05-04T17:14:00Z,-149.4962,59.8595,261.96,7.1,216.29,208.86,1.75,0.42,0.0,1011.5,6.6,81.2,77.9,15.8,382.35,11.78,95.65
SKQ202010S,TSG,2020-05-04T17:15:00Z,-149.4979,59.858,262.0,5.5,204.02,193.76,1.83,0.51,0.02,1011.39,6.6,81.2,80.7,18.7,382.82,9.46,90.69
SKQ202010S,TSG,2020-05-04T17:16:00Z,-149.4989,59.8567,262.06,4.7,200.59,193.15,1.32,0.39,0.01,1011.36,6.6,82.1,82.5,20.5,382.17,9.47,91.94
SKQ202010S,TSG,2020-05-04T17:17:00Z,-149.5001,59.8556,262.21,4.4,223.01,224.39,0.77,0.37,0.0,1011.57,6.6,83.4,64.5,17.3,381.47,11.26,95.5
SKQ202010S,TSG,2020-05-04T17:18:00Z,-149.5022,59.8549,260.62,5.1,244.27,235.5,1.48,0.42,0.0,1011.43,6.7,81.7,84.3,21.1,381.21,8.18,87.62
SKQ202010S,TSG,2020-05-04T17:19:00Z,-149.5044,59.8543,258.59,3.1,238.64,170.0,2.42,0.51,-0.0,1011.01,6.6,80.7,70.3,29.6,381.96,7.5,88.29
SKQ202010S,TSG,2020-05-04T17:20:00Z,-149.5054,59.8541,258.65,1.6,251.31,142.78,1.66,0.44,0.01,1010.96,6.6,80.0,69.6,27.5,381.67,11.48,96.89
SKQ202010S,TSG,2020-05-04T17:21:00Z,-149.5063,59.8539,258.13,1.8,253.94,141.42,1.38,0.36,-0.0,1011.37,6.6,80.4,76.0,23.1,381.54,10.99,95.22
SKQ202010S,TSG,2020-05-04T17:22:00Z,-149.5073,59.8538,257.42,2.0,254.33,131.23,1.24,0.41,-0.0,1011.28,6.6,81.2,69.0,23.7,381.88,8.78,90.13
SKQ202010S,TSG,2020-05-04T17:23:00Z,-149.5084,59.8536,256.49,2.4,245.67,114.61,1.4,0.44,0.0,1011.0,6.7,79.8,58.7,29.6,382.09,8.91,89.83
SKQ202010S,TSG,2020-05-04T17:24:00Z,-149.5095,59.8533,256.4,2.0,230.37,94.15,1.17,0.45,0.01,1011.29,6.8,78.6,52.9,23.4,382.26,7.29,84.63
SKQ202010S,TSG,2020-05-04T17:25:00Z,-149.5102,59.853,251.5,1.3,230.71,90.05,1.09,0.37,0.01,1011.57,6.7,79.9,64.5,22.5,382.71,3.4,77.51
SKQ202010S,TSG,2020-05-04T17:26:00Z,-149.5107,59.8527,251.61,1.2,215.33,91.05,1.14,0.46,0.0,1011.34,6.7,80.4,69.4,30.6,382.42,6.22,89.77
SKQ202010S,TSG,2020-05-04T17:27:00Z,-149.5109,59.8525,NaN,0.4,157.63,84.6,0.96,0.39,0.02,1011.65,6.5,79.0,79.7,25.9,381.29,12.5,104.16
SKQ202010S,TSG,2020-05-04T17:28:00Z,-149.5104,59.8525,252.97,1.7,66.89,83.53,0.67,0.46,0.0,1011.61,6.6,78.8,95.1,23.7,381.18,12.58,108.27
SKQ202010S,TSG,2020-05-04T17:29:00Z,-149.5094,59.8528,254.39,2.3,68.61,89.27,0.57,0.41,0.01,1011.52,6.6,79.6,83.4,21.0,381.35,13.46,108.96
SKQ202010S,TSG,2020-05-04T17:30:00Z,-149.508,59.8529,256.5,2.6,87.82,92.19,1.02,0.52,-0.0,1011.37,6.6,80.3,66.8,21.2,382.03,9.22,97.91
SKQ202010S,TSG,2020-05-04T17:31:00Z,-149.5066,59.8529,257.34,2.4,83.46,79.93,1.1,0.39,0.0,1011.49,6.6,80.6,73.5,26.3,382.08,10.21,104.65
SKQ202010S,TSG,2020-05-04T17:32:00Z,-149.5057,59.8531,259.58,1.7,46.27,62.73,0.7,0.37,0.0,1011.77,6.8,78.8,82.3,21.3,382.36,15.17,116.54
SKQ202010S,TSG,2020-05-04T17:33:00Z,-149.5053,59.8535,259.15,1.4,4.58,56.88,0.47,0.37,0.03,1011.78,6.8,78.8,81.9,23.5,382.25,18.68,127.59
SKQ202010S,TSG,2020-05-04T17:34:00Z,-149.5054,59.8538,NaN,1.3,330.58,54.3,0.57,0.36,0.0,1011.77,6.7,79.2,74.8,25.3,381.98,22.88,139.56
SKQ202010S,TSG,2020-05-04T17:35:00Z,-149.506,59.8541,257.33,1.6,310.31,54.95,0.43,0.34,0.0,1011.71,6.7,79.3,88.6,27.5,381.63,24.11,138.87
SKQ202010S,TSG,2020-05-04T17:36:00Z,-149.5067,59.8545,NaN,1.9,315.84,67.16,0.63,0.38,0.01,1011.68,6.8,78.8,89.5,27.3,381.72,22.19,135.67
SKQ202010S,TSG,2020-05-04T17:37:00Z,-149.5073,59.8548,NaN,1.2,300.18,89.01,1.78,0.44,0.0,1011.57,6.8,79.6,76.6,26.3,381.97,23.43,137.1
SKQ202010S,TSG,2020-05-04T17:38:00Z,-149.5078,59.8548,256.97,0.6,229.97,100.62,1.48,0.41,0.02,1011.19,6.9,78.3,76.7,29.7,382.16,24.19,137.54
SKQ202010S,TSG,2020-05-04T17:39:00Z,-149.508,59.8546,256.71,0.8,208.51,101.01,1.35,0.42,0.01,1011.25,7.0,77.4,72.2,27.7,382.2,21.79,128.89
SKQ202010S,TSG,2020-05-04T17:40:00Z,-149.5083,59.8544,255.93,1.0,219.79,104.19,1.15,0.44,-0.0,1011.48,6.8,78.6,80.7,23.4,382.55,15.75,113.6
SKQ202010S,TSG,2020-05-04T17:41:00Z,-149.5084,59.8542,255.57,1.1,167.34,102.05,1.49,0.41,0.01,1011.43,6.7,80.3,73.5,25.3,382.85,14.65,113.46
SKQ202010S,TSG,2020-05-04T17:42:00Z,-149.508,59.8539,NaN,1.2,120.21,98.22,1.46,0.51,0.0,1011.56,6.8,79.4,76.5,22.1,382.25,15.49,117.85
SKQ202010S,TSG,2020-05-04T17:43:00Z,-149.5075,59.8538,257.31,1.1,102.63,99.08,1.18,0.31,0.01,1011.65,6.8,79.0,88.2,27.1,381.68,20.42,134.68
SKQ202010S,TSG,2020-05-04T17:44:00Z,-149.5066,59.8537,257.32,2.1,109.24,103.02,1.45,0.52,0.0,1011.22,6.7,79.1,81.1,31.0,381.3,28.4,160.89
SKQ202010S,TSG,2020-05-04T17:45:00Z,-149.5052,59.8534,258.6,3.7,106.18,98.74,1.64,0.44,0.0,1011.08,6.5,80.6,75.4,31.1,381.53,38.78,186.7
SKQ202010S,TSG,2020-05-04T17:46:00Z,-149.5028,59.8532,260.57,5.1,97.51,97.19,1.21,0.51,0.02,1011.29,6.5,79.7,85.4,28.3,381.5,39.31,185.45
SKQ202010S,TSG,2020-05-04T17:47:00Z,-149.4998,59.853,263.29,5.7,98.42,98.39,1.32,0.58,0.01,1011.21,6.7,80.1,75.1,26.7,381.48,38.54,190.27
SKQ202010S,TSG,2020-05-04T17:48:00Z,-149.4968,59.8527,264.89,5.6,106.76,105.89,1.36,0.48,0.0,1011.0,6.6,80.7,78.2,25.9,381.9,41.96,188.21
SKQ202010S,TSG,2020-05-04T17:49:00Z,-149.4938,59.8521,267.16,6.0,116.65,112.23,1.86,0.48,0.0,1011.0,6.6,80.7,77.2,30.5,382.19,27.63,155.27
SKQ202010S,TSG,2020-05-04T17:50:00Z,-149.4908,59.8513,268.43,6.2,113.45,108.44,1.86,0.56,0.02,1011.0,6.6,80.7,69.1,25.3,382.03,31.84,162.13
SKQ202010S,TSG,2020-05-04T17:51:00Z,-149.4877,59.8507,269.29,5.9,112.08,110.39,1.53,0.47,0.0,1010.98,6.6,79.2,77.5,24.5,382.15,27.72,151.0
SKQ202010S,TSG,2020-05-04T17:52:00Z,-149.4848,59.8498,268.42,6.3,126.72,117.22,2.44,0.54,0.0,1010.83,6.6,78.7,76.0,30.1,382.26,24.87,141.71
SKQ202010S,TSG,2020-05-04T17:53:00Z,-149.4819,59.849,269.08,6.1,116.93,112.68,1.84,0.49,0.01,1010.84,6.6,80.3,75.8,27.7,382.23,18.71,126.04
SKQ202010S,TSG,2020-05-04T17:54:00Z,-149.4791,59.8481,270.17,6.1,124.78,114.43,2.57,0.53,-0.0,1010.68,6.6,81.1,72.1,30.9,382.41,19.1,127.27
SKQ202010S,TSG,2020-05-04T17:55:00Z,-149.4762,59.8472,270.41,6.3,118.64,113.84,1.62,0.49,-0.0,1011.18,6.6,81.4,81.1,22.6,382.67,14.82,113.1
SKQ202010S,TSG,2020-05-04T17:56:00Z,-149.4732,59.8463,270.87,6.2,124.91,117.33,2.25,0.63,0.0,1010.54,6.5,82.8,77.4,32.7,382.53,15.93,120.41
SKQ202010S,TSG,2020-05-04T17:57:00Z,-149.4707,59.8455,271.28,4.9,120.45,110.65,1.99,0.44,0.0,1011.04,6.5,82.4,78.2,30.0,382.7,17.34,121.11
SKQ202010S,TSG,2020-05-04T17:58:00Z,-149.4689,59.8449,270.84,2.3,119.59,102.91,1.73,0.49,0.02,1011.29,6.7,82.1,74.6,25.4,382.3,14.93,116.05
SKQ202010S,TSG,2020-05-04T17:59:00Z,-149.4684,59.8447,270.2,0.9,172.6,96.86,1.16,0.45,0.0,1011.74,6.6,82.7,86.1,23.1,381.91,15.56,119.04
SKQ202010S,TSG,2020-05-04T18:00:00Z,-149.4685,59.8445,270.41,0.6,256.6,85.2,0.96,0.37,-0.0,1011.79,6.6,83.0,86.2,20.7,381.72,19.68,132.47
SKQ202010S,TSG,2020-05-04T18:01:00Z,-149.4691,59.8445,271.18,1.2,268.68,84.66,1.28,0.38,0.01,1011.53,6.6,82.7,76.6,31.8,381.5,22.18,138.86
SKQ202010S,TSG,2020-05-04T18:02:00Z,-149.4698,59.8444,270.59,1.3,251.27,85.94,1.17,0.42,0.01,1011.5,6.6,81.1,71.8,28.3,381.47,21.81,133.99
SKQ202010S,TSG,2020-05-04T18:03:00Z,-149.4702,59.8444,270.31,0.3,326.8,83.2,1.19,0.42,0.0,1011.51,6.6,81.8,69.8,26.4,381.95,15.62,122.21
SKQ202010S,TSG,2020-05-04T18:04:00Z,-149.4702,59.8444,270.42,0.2,167.74,86.87,1.05,0.39,-0.0,1011.63,6.5,81.6,81.2,27.0,381.27,19.8,130.6
SKQ202010S,TSG,2020-05-04T18:05:00Z,-149.4702,59.8444,271.43,0.3,352.21,83.67,0.88,0.37,-0.0,1011.74,6.6,80.7,87.1,24.7,381.37,20.15,134.89
SKQ202010S,TSG,2020-05-04T18:06:00Z,-149.4702,59.8446,271.39,0.6,356.41,87.63,0.58,0.39,0.02,1011.75,6.7,81.6,88.4,27.9,381.64,23.11,141.01
SKQ202010S,TSG,2020-05-04T18:07:00Z,-149.4702,59.8446,NaN,0.1,8.43,89.31,1.07,0.41,0.0,1011.73,6.8,79.4,77.2,22.2,381.86,20.1,134.18
SKQ202010S,TSG,2020-05-04T18:08:00Z,-149.4702,59.8446,271.46,0.3,191.81,86.67,1.32,0.41,0.03,1011.61,6.6,80.4,73.5,30.2,381.49,22.14,139.13
SKQ202010S,TSG,2020-05-04T18:09:00Z,-149.4702,59.8446,270.86,0.4,6.57,81.5,1.4,0.43,0.0,1011.8,6.5,81.1,81.8,24.3,381.64,19.97,130.69
SKQ202010S,TSG,2020-05-04T18:10:00Z,-149.4702,59.8448,271.74,0.4,356.48,87.2,1.36,0.4,-0.0,1011.85,6.4,83.3,89.9,24.2,381.94,17.92,125.0
SKQ202010S,TSG,2020-05-04T18:11:00Z,-149.4702,59.8448,270.01,0.3,354.86,86.52,1.4,0.4,0.02,1011.78,6.3,83.7,87.0,18.0,381.93,13.92,112.43
SKQ202010S,TSG,2020-05-04T18:12:00Z,-149.4703,59.845,NaN,0.8,353.22,85.08,1.18,0.42,-0.0,1012.02,6.3,84.3,99.4,26.2,381.91,14.51,120.0
SKQ202010S,TSG,2020-05-04T18:13:00Z,-149.4703,59.8452,NaN,0.5,2.69,90.79,1.17,0.42,0.0,1011.8,6.4,84.0,84.7,28.3,382.38,18.17,125.01
SKQ202010S,TSG,2020-05-04T18:14:00Z,-149.4703,59.8452,NaN,0.1,179.96,89.6,1.37,0.4,0.02,1011.68,6.4,83.6,68.2,27.4,382.58,14.78,116.61
SKQ202010S,TSG,2020-05-04T18:15:00Z,-149.4703,59.8452,271.26,0.2,177.23,83.26,1.47,0.47,0.0,1011.82,6.5,83.9,90.6,31.5,382.57,16.47,120.24
SKQ202010S,TSG,2020-05-04T18:16:00Z,-149.4703,59.8453,270.67,0.9,355.47,84.31,1.23,0.39,0.01,1011.87,6.4,82.4,96.9,26.0,382.18,14.67,117.45
SKQ202010S,TSG,2020-05-04T18:17:00Z,-149.4703,59.8455,NaN,0.5,3.35,89.88,1.02,0.41,0.0,1011.91,6.6,83.8,97.3,22.2,382.75,17.42,124.25
SKQ202010S,TSG,2020-05-04T18:18:00Z,-149.4703,59.8456,NaN,0.4,353.36,88.17,0.88,0.39,0.03,1011.89,6.6,85.5,81.3,23.6,382.85,16.22,121.49
SKQ202010S,TSG,2020-05-04T18:19:00Z,-149.4703,59.8457,NaN,0.3,0.64,86.99,1.32,0.42,-0.0,1011.91,6.6,84.5,81.7,21.6,382.63,17.04,123.21
SKQ202010S,TSG,2020-05-04T18:20:00Z,-149.4703,59.8458,NaN,0.5,355.62,84.92,1.35,0.4,0.0,1012.02,6.5,84.8,91.9,24.9,382.49,18.69,128.6
SKQ202010S,TSG,2020-05-04T18:21:00Z,-149.4703,59.846,NaN,0.7,356.25,87.63,0.93,0.38,0.0,1012.02,6.6,84.5,92.3,22.9,382.68,17.62,122.46
SKQ202010S,TSG,2020-05-04T18:22:00Z,-149.4704,59.8462,NaN,0.4,1.69,88.28,1.18,0.36,0.01,1012.07,6.6,84.7,90.5,21.8,382.73,12.76,111.47
SKQ202010S,TSG,2020-05-04T18:23:00Z,-149.4704,59.8463,NaN,0.4,355.32,86.64,1.18,0.41,0.02,1012.09,6.6,84.0,88.3,26.9,382.46,16.93,123.58
SKQ202010S,TSG,2020-05-04T18:24:00Z,-149.4704,59.8464,NaN,0.5,357.68,86.73,1.19,0.43,0.0,1012.09,6.6,83.4,94.8,26.5,382.33,14.99,114.3
SKQ202010S,TSG,2020-05-04T18:25:00Z,-149.4704,59.8465,NaN,0.2,343.8,87.89,1.3,0.42,0.0,1011.87,6.6,83.6,77.8,29.4,382.4,12.57,111.43
SKQ202010S,TSG,2020-05-04T18:26:00Z,-149.4704,59.8465,269.65,0.3,0.24,83.53,1.3,0.39,0.01,1012.04,6.6,83.6,98.7,24.9,382.35,12.45,105.72
SKQ202010S,TSG,2020-05-04T18:27:00Z,-149.4704,59.8467,269.9,0.5,3.96,91.05,1.06,0.44,0.0,1012.1,6.5,85.5,83.5,19.7,382.75,9.23,99.74
SKQ202010S,TSG,2020-05-04T18:28:00Z,-149.4704,59.8468,NaN,0.2,341.47,89.43,1.37,0.43,0.0,1012.01,6.4,85.5,77.2,25.4,381.96,10.68,102.21
SKQ202010S,TSG,2020-05-04T18:29:00Z,-149.4704,59.8468,271.57,0.2,164.09,87.16,1.71,0.41,0.0,1011.78,6.5,83.6,72.6,30.7,381.47,12.27,108.94
SKQ202010S,TSG,2020-05-04T18:30:00Z,-149.4704,59.8468,270.05,0.1,356.98,82.27,1.13,0.38,0.01,1012.13,6.4,83.8,82.8,26.3,381.7,12.85,109.84
SKQ202010S,TSG,2020-05-04T18:31:00Z,-149.4704,59.8469,269.82,0.4,5.22,88.0,1.29,0.4,-0.0,1012.02,6.5,84.2,84.4,22.6,381.69,13.86,113.37
SKQ202010S,TSG,2020-05-04T18:32:00Z,-149.4704,59.847,270.01,0.3,348.66,87.95,1.62,0.42,0.0,1012.07,6.5,85.2,78.4,23.0,382.01,12.86,108.62
SKQ202010S,TSG,2020-05-04T18:33:00Z,-149.4704,59.847,269.79,0.2,333.9,85.77,1.49,0.42,0.0,1012.02,6.4,84.1,75.0,23.2,382.16,9.77,100.86
SKQ202010S,TSG,2020-05-04T18:34:00Z,-149.4704,59.8471,270.24,0.6,359.13,83.67,0.9,0.4,0.02,1012.27,6.5,84.3,93.3,25.0,382.02,11.66,107.63
SKQ202010S,TSG,2020-05-04T18:35:00Z,-149.4705,59.8473,NaN,0.6,356.77,87.53,1.31,0.38,0.0,1011.92,6.4,84.7,70.8,26.2,381.96,11.67,106.67
SKQ202010S,TSG,2020-05-04T18:36:00Z,-149.4705,59.8473,269.38,0.2,179.9,87.8,1.67,0.51,0.0,1011.92,6.3,85.4,72.1,25.8,382.42,10.13,100.54
SKQ202010S,TSG,2020-05-04T18:37:00Z,-149.4705,59.8474,269.68,0.4,352.34,82.4,1.55,0.4,-0.0,1011.93,6.2,86.5,74.2,29.7,382.15,9.69,100.95
SKQ202010S,TSG,2020-05-04T18:38:00Z,-149.4705,59.8474,270.0,0.1,106.62,86.91,1.59,0.41,0.0,1011.66,6.3,85.4,62.5,28.6,382.35,10.77,103.03
SKQ202010S,TSG,2020-05-04T18:39:00Z,-149.4705,59.8473,269.78,0.6,187.09,85.85,1.76,0.46,0.0,1011.92,6.4,84.3,70.9,32.2,382.14,10.91,104.33
SKQ202010S,TSG,2020-05-04T18:40:00Z,-149.4704,59.8472,270.07,0.3,151.47,82.47,1.54,0.4,0.0,1012.06,6.4,84.5,74.2,27.0,381.79,12.19,106.83
SKQ202010S,TSG,2020-05-04T18:41:00Z,-149.4704,59.8472,272.25,0.3,352.84,83.28,1.58,0.45,0.01,1012.01,6.4,84.2,78.8,27.9,381.96,9.24,98.11
SKQ202010S,TSG,2020-05-04T18:42:00Z,-149.4704,59.8473,269.75,0.4,351.63,85.99,1.52,0.43,-0.0,1012.08,6.5,84.8,80.3,27.2,382.55,8.03,94.96
SKQ202010S,TSG,2020-05-04T18:43:00Z,-149.4705,59.8474,270.38,0.4,353.26,85.09,1.55,0.41,0.01,1012.19,6.4,85.0,86.5,31.5,382.16,8.61,99.23
SKQ202010S,TSG,2020-05-04T18:44:00Z,-149.4705,59.8476,NaN,0.6,347.51,84.84,1.53,0.47,0.0,1012.36,6.2,85.5,81.6,28.6,381.69,12.02,106.77
SKQ202010S,TSG,2020-05-04T18:45:00Z,-149.4705,59.8477,NaN,0.6,0.49,84.44,1.35,0.37,0.0,1012.32,6.0,86.7,76.0,24.8,381.85,10.09,102.44
SKQ202010S,TSG,2020-05-04T18:46:00Z,-149.4706,59.8478,NaN,0.2,348.45,84.58,1.38,0.45,0.01,1012.29,6.2,85.5,82.9,25.7,381.77,11.38,106.74
SKQ202010S,TSG,2020-05-04T18:47:00Z,-149.4706,59.8479,NaN,0.6,359.9,83.25,1.38,0.38,0.0,1012.38,6.2,86.6,90.2,20.9,382.25,12.28,107.56
SKQ202010S,TSG,2020-05-04T18:48:00Z,-149.4706,59.8481,NaN,0.6,353.02,86.45,1.39,0.39,-0.0,1012.43,6.3,85.7,84.8,22.3,382.29,8.37,92.67
SKQ202010S,TSG,2020-05-04T18:49:00Z,-149.4707,59.8482,NaN,0.1,268.05,85.02,1.37,0.43,0.01,1012.13,6.2,85.2,87.9,34.9,382.38,5.31,87.02
SKQ202010S,TSG,2020-05-04T18:50:00Z,-149.4707,59.8483,NaN,1.1,0.44,81.36,1.02,0.44,0.02,1012.47,6.0,86.3,101.7,22.3,382.07,6.86,89.28
SKQ202010S,TSG,2020-05-04T18:51:00Z,-149.4707,59.8486,NaN,0.7,0.71,88.58,1.38,0.38,0.0,1012.55,6.1,85.8,95.7,25.7,381.85,6.84,88.94
SKQ202010S,TSG,2020-05-04T18:52:00Z,-149.4707,59.8487,NaN,0.2,349.13,87.17,1.48,0.43,0.0,1012.48,6.3,84.8,82.5,27.4,381.68,5.12,84.87
SKQ202010S,TSG,2020-05-04T18:53:00Z,-149.4707,59.8488,NaN,0.4,351.48,83.84,1.5,0.42,0.01,1012.4,6.1,85.6,80.6,29.2,381.45,6.39,88.83
SKQ202010S,TSG,2020-05-04T18:54:00Z,-149.4707,59.8488,270.28,0.2,13.64,84.73,1.12,0.38,-0.0,1012.46,5.9,85.9,94.8,27.9,381.27,6.33,87.34
SKQ202010S,TSG,2020-05-04T18:55:00Z,-149.4707,59.849,270.65,0.5,351.76,86.49,1.58,0.42,0.01,1012.35,6.0,85.9,75.7,28.5,381.49,3.16,78.95
SKQ202010S,TSG,2020-05-04T18:56:00Z,-149.4708,59.849,NaN,0.0,24.35,85.45,1.34,0.42,0.0,1012.48,6.0,85.7,85.4,34.2,381.38,4.7,86.5
SKQ202010S,TSG,2020-05-04T18:57:00Z,-149.4708,59.8491,271.07,0.6,359.83,84.43,1.37,0.41,0.01,1012.69,6.0,84.2,90.9,23.4,381.25,5.85,85.59
SKQ202010S,TSG,2020-05-04T18:58:00Z,-149.4708,59.8493,NaN,0.6,351.31,87.03,1.03,0.38,0.0,1012.71,6.0,85.2,90.1,28.2,381.25,4.49,83.48
SKQ202010S,TSG,2020-05-04T18:59:00Z,-149.4708,59.8495,NaN,1.1,358.13,84.66,0.99,0.48,0.02,1012.72,6.0,85.0,105.3,25.9,381.18,5.14,85.73
SKQ202010S,TSG,2020-05-04T19:00:00Z,-149.4708,59.8498,NaN,0.6,355.26,90.28,0.99,0.36,-0.0,1012.67,6.0,85.4,83.6,25.9,381.07,5.66,85.79
SKQ202010S,TSG,2020-05-04T19:01:00Z,-149.4709,59.8499,NaN,0.5,0.26,86.26,1.21,0.41,0.0,1012.79,5.9,86.0,82.5,20.9,380.95,4.57,83.7
SKQ202010S,TSG,2020-05-04T19:02:00Z,-149.4709,59.85,NaN,0.4,350.31,85.83,1.53,0.4,0.0,1012.53,6.1,85.8,71.5,26.0,381.57,5.75,87.77
SKQ202010S,TSG,2020-05-04T19:03:00Z,-149.4709,59.8502,NaN,0.8,350.06,80.19,1.41,0.46,0.04,1012.76,6.2,85.0,83.4,26.6,381.43,5.52,89.03
SKQ202010S,TSG,2020-05-04T19:04:00Z,-149.4709,59.8504,NaN,0.9,6.74,86.78,1.14,0.38,0.0,1012.86,6.2,85.0,93.4,23.8,381.6,8.43,97.13
SKQ202010S,TSG,2020-05-04T19:05:00Z,-149.4709,59.8506,NaN,0.3,342.76,90.11,1.52,0.49,0.01,1012.33,6.3,84.4,68.1,27.3,382.07,8.45,97.41
SKQ202010S,TSG,2020-05-04T19:06:00Z,-149.471,59.8506,269.37,0.1,322.48,82.07,1.8,0.44,0.0,1012.54,6.3,83.9,78.3,30.9,382.2,9.5,101.6
SKQ202010S,TSG,2020-05-04T19:07:00Z,-149.471,59.8507,269.6,0.6,6.03,84.47,1.43,0.41,0.0,1012.69,6.2,84.4,80.2,24.8,381.88,8.31,96.51
SKQ202010S,TSG,2020-05-04T19:08:00Z,-149.471,59.8509,NaN,0.6,353.28,86.81,1.6,0.43,0.0,1012.66,6.4,84.7,91.8,27.6,381.87,9.82,105.73
SKQ202010S,TSG,2020-05-04T19:09:00Z,-149.471,59.8511,NaN,0.8,355.75,86.22,1.36,0.41,0.02,1012.88,6.3,85.0,101.0,24.4,382.0,12.76,113.74
SKQ202010S,TSG,2020-05-04T19:10:00Z,-149.471,59.8513,NaN,0.7,358.58,89.01,0.9,0.41,0.01,1012.87,6.4,84.5,96.5,22.2,381.55,15.52,122.02
SKQ202010S,TSG,2020-05-04T19:11:00Z,-149.4711,59.8514,NaN,0.2,344.01,88.27,1.29,0.42,-0.0,1012.61,6.3,85.1,76.4,28.5,381.52,16.29,123.88
SKQ202010S,TSG,2020-05-04T19:12:00Z,-149.4711,59.8514,NaN,0.4,352.08,80.32,1.31,0.45,-0.0,1012.82,6.3,84.9,88.2,26.2,381.5,16.48,124.64
SKQ202010S,TSG,2020-05-04T19:13:00Z,-149.4711,59.8517,NaN,1.0,359.4,83.75,0.69,0.36,0.01,1012.99,6.3,84.4,96.6,25.6,381.68,17.79,128.14
SKQ202010S,TSG,2020-05-04T19:14:00Z,-149.4711,59.8519,NaN,0.7,349.77,86.92,0.89,0.41,0.0,1012.85,6.3,84.5,84.4,30.0,381.45,19.1,131.48
SKQ202010S,TSG,2020-05-04T19:15:00Z,-149.4712,59.8521,NaN,0.5,357.03,86.21,0.93,0.41,0.0,1012.82,6.2,83.9,83.2,28.8,381.24,19.7,134.83
SKQ202010S,TSG,2020-05-04T19:16:00Z,-149.4712,59.8522,NaN,0.7,0.82,83.21,0.7,0.35,-0.0,1012.96,6.1,84.2,85.4,26.8,380.83,20.77,139.27
SKQ202010S,TSG,2020-05-04T19:17:00Z,-149.4712,59.8524,NaN,0.2,352.08,87.54,1.1,0.41,0.0,1012.8,6.2,85.2,75.8,24.4,381.06,21.45,140.92
SKQ202010S,TSG,2020-05-04T19:18:00Z,-149.4712,59.8524,NaN,0.1,342.46,85.31,1.09,0.46,0.0,1012.83,6.2,86.3,82.4,25.5,381.8,22.8,146.1
SKQ202010S,TSG,2020-05-04T19:19:00Z,-149.4712,59.8525,269.92,0.6,357.11,82.5,1.03,0.37,0.0,1012.92,6.2,85.3,87.6,24.3,381.84,21.61,143.03
SKQ202010S,TSG,2020-05-04T19:20:00Z,-149.4713,59.8526,269.13,0.5,354.06,85.26,0.74,0.38,0.01,1013.01,6.3,84.1,90.3,30.5,381.37,22.49,145.68
SKQ202010S,TSG,2020-05-04T19:21:00Z,-149.4713,59.8528,NaN,0.5,359.29,86.94,0.65,0.35,0.0,1012.95,6.3,85.1,81.6,24.2,381.83,20.19,138.41
SKQ202010S,TSG,2020-05-04T19:22:00Z,-149.4713,59.8529,NaN,0.2,342.49,85.96,0.89,0.39,-0.0,1013.05,6.2,85.9,81.7,24.2,382.05,20.22,137.46
SKQ202010S,TSG,2020-05-04T19:23:00Z,-149.4713,59.853,NaN,0.5,354.68,83.21,0.9,0.38,0.0,1012.93,6.2,85.1,85.4,24.7,381.88,16.99,129.65
SKQ202010S,TSG,2020-05-04T19:24:00Z,-149.4713,59.8531,NaN,0.7,355.18,84.91,0.97,0.48,0.0,1012.95,6.3,84.9,94.9,25.6,381.75,18.0,132.11
SKQ202010S,TSG,2020-05-04T19:25:00Z,-149.4713,59.8533,NaN,0.5,1.79,86.45,1.15,0.32,0.0,1013.03,6.3,85.3,83.7,22.6,381.47,19.23,141.59
SKQ202010S,TSG,2020-05-04T19:26:00Z,-149.4714,59.8534,268.47,0.5,357.0,84.81,0.8,0.39,0.01,1013.08,6.2,85.5,100.1,20.2,381.35,25.27,156.08
SKQ202010S,TSG,2020-05-04T19:27:00Z,-149.4714,59.8536,NaN,0.9,353.59,85.29,0.73,0.39,0.0,1013.07,6.3,85.0,105.4,19.1,381.67,24.27,154.69
SKQ202010S,TSG,2020-05-04T19:28:00Z,-149.4714,59.8538,NaN,0.6,356.98,89.87,1.19,0.42,0.0,1013.04,6.3,85.3,89.9,22.8,381.87,25.8,155.25
SKQ202010S,TSG,2020-05-04T19:29:00Z,-149.4714,59.854,NaN,0.7,353.55,84.56,1.04,0.45,0.03,1013.11,6.3,85.3,102.1,19.9,382.12,21.1,143.33
SKQ202010S,TSG,2020-05-04T19:30:00Z,-149.4715,59.8542,NaN,0.9,0.64,87.99,1.02,0.4,0.0,1013.09,6.3,85.7,99.2,22.9,382.35,22.1,146.81
SKQ202010S,TSG,2020-05-04T19:31:00Z,-149.4715,59.8544,NaN,0.4,5.7,92.29,1.33,0.44,0.0,1012.98,6.3,86.3,80.0,22.3,382.2,22.13,148.35
SKQ202010S,TSG,2020-05-04T19:32:00Z,-149.4715,59.8545,268.84,0.6,349.67,82.28,0.9,0.36,0.03,1012.85,6.1,86.1,104.5,27.5,381.7,29.2,168.69
SKQ202010S,TSG,2020-05-04T19:33:00Z,-149.4715,59.8548,NaN,1.3,2.11,86.59,0.89,0.42,0.0,1013.08,6.1,85.3,101.6,20.6,381.01,33.14,177.15
SKQ202010S,TSG,2020-05-04T19:34:00Z,-149.4715,59.855,NaN,0.5,355.23,91.26,0.76,0.42,0.02,1013.08,6.2,86.3,87.8,22.2,381.77,28.47,164.03
SKQ202010S,TSG,2020-05-04T19:35:00Z,-149.4715,59.8551,NaN,0.2,174.55,90.24,1.2,0.42,0.0,1012.65,6.2,84.4,67.0,29.4,381.99,30.52,175.49
SKQ202010S,TSG,2020-05-04T19:36:00Z,-149.4715,59.8549,268.71,0.8,178.43,88.09,1.38,0.4,-0.0,1012.63,6.3,83.5,74.3,26.7,382.07,36.55,187.63
SKQ202010S,TSG,2020-05-04T19:37:00Z,-149.4715,59.8548,NaN,0.1,241.24,83.43,1.11,0.43,0.02,1012.94,6.3,84.0,77.8,29.0,381.96,27.45,167.9
SKQ202010S,TSG,2020-05-04T19:38:00Z,-149.4714,59.8548,269.42,0.8,103.67,100.28,0.99,0.45,-0.0,1013.09,6.2,84.6,102.8,25.2,381.49,34.78,186.25
SKQ202010S,TSG,2020-05-04T19:39:00Z,-149.4704,59.8546,269.35,3.1,125.72,127.05,1.11,0.43,0.0,1012.95,6.3,84.5,92.2,22.0,381.9,35.48,189.15
SKQ202010S,TSG,2020-05-04T19:40:00Z,-149.4693,59.8536,270.14,5.3,163.67,154.24,2.04,0.48,0.0,1012.41,6.2,85.2,80.2,26.2,382.31,32.07,179.1
SKQ202010S,TSG,2020-05-04T19:41:00Z,-149.4684,59.852,270.02,6.2,165.31,153.88,2.65,0.6,0.03,1012.15,6.2,84.7,76.3,33.1,382.13,34.7,189.47
SKQ202010S,TSG,2020-05-04T19:42:00Z,-149.4675,59.8503,269.66,6.4,161.76,152.32,2.27,0.53,0.0,1012.34,6.2,85.1,73.5,25.5,382.25,35.31,184.97
SKQ202010S,TSG,2020-05-04T19:43:00Z,-149.4663,59.8486,270.81,6.8,162.22,153.84,2.14,0.51,0.0,1012.57,6.2,85.5,83.3,24.6,382.53,31.49,182.57
SKQ202010S,TSG,2020-05-04T19:44:00Z,-149.4651,59.8467,271.02,7.3,160.96,153.52,2.51,0.5,0.0,1012.3,6.1,85.9,78.6,27.8,382.34,38.47,199.66
SKQ202010S,TSG,2020-05-04T19:45:00Z,-149.4639,59.8448,271.57,7.0,161.95,153.95,2.51,0.57,0.03,1012.61,6.0,86.5,84.4,26.4,381.95,45.91,223.67
SKQ202010S,TSG,2020-05-04T19:46:00Z,-149.4626,59.843,271.16,7.1,161.12,154.08,2.34,0.54,0.0,1012.52,5.8,88.4,89.1,25.3,381.63,51.41,233.23
SKQ202010S,TSG,2020-05-04T19:47:00Z,-149.4614,59.8411,272.51,7.2,162.53,154.13,2.66,0.53,0.01,1012.37,5.9,86.8,83.3,28.6,382.01,45.26,217.04
SKQ202010S,TSG,2020-05-04T19:48:00Z,-149.4602,59.8392,272.28,7.0,162.53,154.21,2.77,0.59,0.0,1011.99,6.0,87.1,79.8,29.7,382.11,46.72,223.23
SKQ202010S,TSG,2020-05-04T19:49:00Z,-149.4591,59.8373,271.71,6.8,163.67,153.76,3.06,0.64,0.0,1011.96,5.9,88.1,73.2,34.6,382.17,45.09,215.37
SKQ202010S,TSG,2020-05-04T19:50:00Z,-149.458,59.8356,272.22,6.8,161.74,154.11,2.37,0.44,0.0,1012.4,5.9,89.2,73.2,25.9,382.28,45.5,215.08
SKQ202010S,TSG,2020-05-04T19:51:00Z,-149.4568,59.8337,273.35,7.0,162.51,153.51,2.95,0.62,0.01,1012.12,5.9,89.7,72.3,30.8,382.76,38.36,193.28
SKQ202010S,TSG,2020-05-04T19:52:00Z,-149.4555,59.8319,274.18,6.6,157.5,149.34,2.48,0.54,0.02,1012.57,6.0,89.0,64.3,24.6,382.89,33.06,188.93
SKQ202010S,TSG,2020-05-04T19:53:00Z,-149.4541,59.8302,276.1,6.6,158.59,150.57,2.4,0.57,0.0,1012.5,6.1,89.8,70.8,24.9,382.78,42.76,214.21
SKQ202010S,TSG,2020-05-04T19:54:00Z,-149.4528,59.8285,277.5,6.8,159.08,150.03,2.8,0.59,0.0,1012.1,6.1,90.1,74.9,30.8,382.8,47.15,224.66
SKQ202010S,TSG,2020-05-04T19:55:00Z,-149.4515,59.8268,277.25,6.5,160.3,150.16,2.63,0.62,0.04,1012.13,6.2,89.7,76.1,28.9,383.19,47.4,219.89
SKQ202010S,TSG,2020-05-04T19:56:00Z,-149.4504,59.8251,277.29,6.4,159.85,149.48,2.77,0.54,0.0,1012.06,6.2,89.6,70.4,30.3,383.06,43.69,213.45
SKQ202010S,TSG,2020-05-04T19:57:00Z,-149.4491,59.8234,277.79,6.6,159.64,150.01,2.86,0.6,0.01,1012.01,6.2,90.2,73.7,28.7,382.66,43.16,210.09
SKQ202010S,TSG,2020-05-04T19:58:00Z,-149.4478,59.8217,277.66,6.7,159.21,149.76,2.85,0.62,0.02,1012.2,6.2,89.9,75.1,30.7,382.93,33.34,182.11
SKQ202010S,TSG,2020-05-04T19:59:00Z,-149.4466,59.82,277.69,6.5,159.4,150.0,2.89,0.53,0.0,1012.15,6.2,90.0,75.6,27.9,382.47,31.23,175.42
SKQ202010S,TSG,2020-05-04T20:00:00Z,-149.4451,59.8183,277.83,6.9,156.02,148.36,2.73,0.56,0.01,1012.22,6.2,89.6,75.5,26.1,382.71,26.26,158.41
SKQ202010S,TSG,2020-05-04T20:01:00Z,-149.4437,59.8165,277.8,6.7,157.93,149.17,2.82,0.62,0.03,1012.34,6.2,90.2,77.9,25.6,383.23,21.59,147.56
SKQ202010S,TSG,2020-05-04T20:02:00Z,-149.4424,59.8149,277.69,6.3,159.86,150.13,3.24,0.59,0.0,1012.17,6.1,90.6,75.5,28.6,382.44,22.36,149.98
SKQ202010S,TSG,2020-05-04T20:03:00Z,-149.4412,59.8132,278.0,6.4,158.84,150.12,2.81,0.54,0.0,1012.47,6.0,91.0,72.6,26.6,381.82,22.67,152.18
SKQ202010S,TSG,2020-05-04T20:04:00Z,-149.4398,59.8115,278.46,6.6,157.27,149.4,2.81,0.56,0.03,1012.55,6.1,91.3,75.5,25.7,381.83,23.39,153.71
SKQ202010S,TSG,2020-05-04T20:05:00Z,-149.4386,59.8099,278.41,6.1,161.16,151.25,2.85,0.65,0.02,1012.46,6.1,92.0,78.6,26.2,382.46,23.96,157.71
SKQ202010S,TSG,2020-05-04T20:06:00Z,-149.4374,59.8083,278.59,6.5,159.57,150.48,2.57,0.63,0.0,1012.69,6.2,92.5,78.4,27.9,382.45,29.55,176.64
SKQ202010S,TSG,2020-05-04T20:07:00Z,-149.4361,59.8065,278.12,6.8,158.03,149.32,2.86,0.47,0.0,1012.53,6.1,92.9,74.5,25.4,382.05,34.16,189.57
SKQ202010S,TSG,2020-05-04T20:08:00Z,-149.4347,59.8048,278.49,6.6,158.01,149.61,2.52,0.64,0.04,1012.64,6.2,93.4,80.4,26.2,382.22,37.07,194.67
SKQ202010S,TSG,2020-05-04T20:09:00Z,-149.4334,59.8031,278.71,6.4,160.36,150.6,2.73,0.56,0.0,1012.68,6.2,93.2,82.9,27.5,382.7,36.89,192.05
SKQ202010S,TSG,2020-05-04T20:10:00Z,-149.4323,59.8015,278.29,6.0,162.99,151.12,2.97,0.58,0.0,1012.56,6.3,92.6,84.1,30.2,382.52,35.55,190.96
SKQ202010S,TSG,2020-05-04T20:11:00Z,-149.4314,59.7999,277.63,6.1,163.88,150.92,2.95,0.69,-0.0,1012.37,6.4,92.2,83.8,31.0,382.22,36.17,194.76
SKQ202010S,TSG,2020-05-04T20:12:00Z,-149.4303,59.7983,277.62,6.2,158.76,147.68,3.12,0.55,-0.0,1012.38,6.5,92.2,81.0,29.9,382.18,37.62,198.29
SKQ202010S,TSG,2020-05-04T20:13:00Z,-149.4291,59.7967,277.64,5.9,159.2,146.3,2.97,0.68,-0.0,1012.41,6.4,92.1,80.5,29.5,382.45,37.85,196.25
SKQ202010S,TSG,2020-05-04T20:14:00Z,-149.4282,59.7952,NaN,5.3,162.85,147.11,3.03,0.62,0.03,1012.48,6.4,91.3,80.7,31.3,383.0,35.03,184.83
SKQ202010S,TSG,2020-05-04T20:15:00Z,-149.4271,59.7938,275.45,5.9,159.24,146.09,2.98,0.67,0.0,1012.41,6.5,91.2,79.4,29.6,382.88,33.14,178.89
SKQ202010S,TSG,2020-05-04T20:16:00Z,-149.4259,59.7922,275.61,6.2,156.88,145.47,3.06,0.67,0.0,1012.03,6.5,91.5,80.5,31.1,383.13,31.26,170.84
SKQ202010S,TSG,2020-05-04T20:17:00Z,-149.4246,59.7906,275.03,6.3,158.02,146.24,2.88,0.47,-0.0,1012.42,6.5,91.0,79.1,30.0,383.62,32.57,175.9
SKQ202010S,TSG,2020-05-04T20:18:00Z,-149.4232,59.789,275.22,6.1,154.29,142.3,2.86,0.7,0.04,1012.31,6.5,91.2,80.7,30.0,383.99,33.23,175.77
SKQ202010S,TSG,2020-05-04T20:19:00Z,-149.4218,59.7875,NaN,5.8,153.38,140.47,3.07,0.6,0.0,1012.3,6.5,91.6,78.7,29.5,383.83,32.45,181.35
SKQ202010S,TSG,2020-05-04T20:20:00Z,-149.4204,59.7862,271.83,5.7,153.71,140.39,2.92,0.61,0.0,1012.45,6.4,91.7,76.6,29.6,383.64,36.21,187.2
SKQ202010S,TSG,2020-05-04T20:21:00Z,-149.4188,59.7847,271.79,6.0,150.08,137.72,3.0,0.61,0.02,1012.15,6.4,91.1,78.2,31.5,383.93,31.63,175.83
SKQ202010S,TSG,2020-05-04T20:22:00Z,-149.4172,59.7833,270.82,5.9,147.32,135.52,2.97,0.58,0.0,1012.38,6.5,91.2,75.1,29.7,383.8,32.6,181.6
SKQ202010S,TSG,2020-05-04T20:23:00Z,-149.4153,59.7819,270.54,6.4,146.06,135.02,3.04,0.62,0.01,1012.08,6.5,90.8,73.6,31.2,383.85,34.88,186.15
SKQ202010S,TSG,2020-05-04T20:24:00Z,-149.4133,59.7804,269.47,6.4,145.62,135.06,2.93,0.6,0.0,1012.22,6.5,90.5,76.9,31.8,383.73,33.58,182.97
SKQ202010S,TSG,2020-05-04T20:25:00Z,-149.4114,59.7789,270.26,6.5,148.16,137.57,2.73,0.48,0.0,1012.28,6.6,90.1,74.7,29.2,383.82,35.25,184.6
SKQ202010S,TSG,2020-05-04T20:26:00Z,-149.4095,59.7774,268.42,6.5,149.15,138.78,2.81,0.7,0.02,1012.31,6.6,90.9,74.3,29.2,384.28,31.8,176.77
SKQ202010S,TSG,2020-05-04T20:27:00Z,-149.4078,59.7759,277.29,6.2,150.23,138.19,3.07,0.64,-0.0,1012.47,6.6,91.2,73.6,29.9,384.58,33.03,176.63
SKQ202010S,TSG,2020-05-04T20:28:00Z,-149.4062,59.7744,266.02,5.8,152.42,139.43,3.02,0.66,0.0,1012.22,6.6,91.5,76.1,31.0,384.94,31.59,176.32
SKQ202010S,TSG,2020-05-04T20:29:00Z,-149.4048,59.773,NaN,5.9,154.56,139.86,3.39,0.63,0.0,1012.07,6.5,91.9,76.0,31.7,385.36,28.41,162.39
SKQ202010S,TSG,2020-05-04T20:30:00Z,-149.4032,59.7715,263.87,6.4,149.72,138.0,3.29,0.57,0.0,1012.07,6.5,92.3,77.3,32.6,385.35,28.52,170.68
SKQ202010S,TSG,2020-05-04T20:31:00Z,-149.4015,59.77,264.04,5.9,150.21,137.91,3.25,0.56,0.04,1012.34,6.5,92.3,78.3,31.0,384.72,33.49,177.98
SKQ202010S,TSG,2020-05-04T20:32:00Z,-149.4,59.7686,357.63,5.2,152.92,137.67,3.11,0.6,0.01,1012.39,6.5,92.5,78.6,31.9,385.11,24.49,154.14
SKQ202010S,TSG,2020-05-04T20:33:00Z,-149.3988,59.7675,NaN,4.1,153.81,126.44,3.15,0.56,-0.0,1012.42,6.5,92.9,79.6,30.9,385.05,28.36,162.05
SKQ202010S,TSG,2020-05-04T20:34:00Z,-149.3981,59.7668,NaN,1.4,134.66,88.29,1.94,0.5,0.0,1013.37,6.5,93.5,88.1,26.7,385.08,26.96,161.96
SKQ202010S,TSG,2020-05-04T20:35:00Z,-149.3979,59.7667,260.08,0.2,300.29,79.52,1.22,0.47,0.0,1013.52,6.5,93.2,95.0,28.3,383.97,30.77,166.71
SKQ202010S,TSG,2020-05-04T20:36:00Z,-149.398,59.7668,261.22,0.5,3.57,83.33,1.01,0.44,0.01,1013.53,6.5,92.6,92.9,27.2,384.09,25.58,149.49
SKQ202010S,TSG,2020-05-04T20:37:00Z,-149.3979,59.7669,260.66,0.4,350.04,85.04,1.09,0.43,0.01,1013.69,6.5,93.0,98.5,25.4,385.14,15.65,122.16
SKQ202010S,TSG,2020-05-04T20:38:00Z,-149.398,59.7671,259.94,0.6,358.78,84.94,0.78,0.39,0.0,1013.67,6.5,93.3,90.9,25.3,385.2,15.1,123.87
SKQ202010S,TSG,2020-05-04T20:39:00Z,-149.398,59.7672,261.45,0.2,3.34,85.16,1.25,0.44,0.0,1013.64,6.5,93.2,88.7,29.5,384.82,19.55,141.49
SKQ202010S,TSG,2020-05-04T20:40:00Z,-149.398,59.7673,261.18,0.5,359.03,81.38,1.25,0.42,0.03,1013.72,6.5,92.9,93.6,26.3,384.1,27.12,156.64
SKQ202010S,TSG,2020-05-04T20:41:00Z,-149.398,59.7675,NaN,0.5,357.15,88.25,0.92,0.47,0.0,1013.7,6.5,93.4,91.1,26.6,384.45,21.05,143.77
SKQ202010S,TSG,2020-05-04T20:42:00Z,-149.398,59.7676,NaN,0.1,346.04,90.83,1.04,0.42,0.01,1013.71,6.5,93.0,92.8,30.2,384.49,22.17,145.28
SKQ202010S,TSG,2020-05-04T20:43:00Z,-149.398,59.7676,260.9,0.3,347.12,87.9,1.06,0.38,0.0,1013.8,6.5,92.5,95.4,28.3,383.82,24.52,157.31
SKQ202010S,TSG,2020-05-04T20:44:00Z,-149.398,59.7677,NaN,0.5,7.24,87.31,1.21,0.48,0.04,1013.8,6.5,92.3,92.6,28.2,383.62,24.86,157.52
SKQ202010S,TSG,2020-05-04T20:45:00Z,-149.398,59.7678,260.34,0.2,191.79,95.67,1.41,0.47,0.0,1013.72,6.5,90.5,89.5,32.2,383.55,24.67,156.5
SKQ202010S,TSG,2020-05-04T20:46:00Z,-149.398,59.7677,260.58,0.1,8.94,86.92,1.59,0.51,-0.0,1013.78,6.6,91.1,89.5,27.8,383.65,23.54,153.57
SKQ202010S,TSG,2020-05-04T20:47:00Z,-149.398,59.7678,260.68,0.3,16.52,89.87,1.4,0.38,0.0,1013.8,6.4,92.2,89.7,29.2,383.66,25.08,159.26
SKQ202010S,TSG,2020-05-04T20:48:00Z,-149.398,59.7679,261.35,0.3,346.96,89.87,1.4,0.42,0.0,1013.9,6.5,91.9,94.5,29.2,383.61,28.4,167.84
SKQ202010S,TSG,2020-05-04T20:49:00Z,-149.398,59.768,260.88,0.2,354.34,91.99,1.31,0.46,0.04,1013.9,6.5,92.2,93.9,26.6,382.7,31.39,176.33
SKQ202010S,TSG,2020-05-04T20:50:00Z,-149.398,59.768,261.2,0.1,264.21,89.96,1.44,0.5,0.0,1013.94,6.5,92.6,91.0,24.4,383.47,31.93,180.17
SKQ202010S,TSG,2020-05-04T20:51:00Z,-149.3981,59.768,261.59,0.3,254.39,89.14,1.1,0.35,0.0,1013.9,6.5,92.5,88.4,27.1,383.11,32.18,178.3
SKQ202010S,TSG,2020-05-04T20:52:00Z,-149.3982,59.768,261.04,0.2,254.69,89.45,1.27,0.46,0.0,1013.88,6.5,92.0,86.8,26.8,382.48,29.51,174.23
SKQ202010S,TSG,2020-05-04T20:53:00Z,-149.3983,59.7679,261.45,0.5,202.97,91.16,1.34,0.47,0.01,1013.87,6.6,91.4,85.7,29.6,382.58,32.27,182.35
SKQ202010S,TSG,2020-05-04T20:54:00Z,-149.3984,59.7678,261.36,0.2,244.61,84.96,1.64,0.44,0.02,1013.91,6.6,91.4,88.3,27.6,382.64,33.6,185.96
SKQ202010S,TSG,2020-05-04T20:55:00Z,-149.3985,59.7678,261.08,0.2,311.73,88.88,1.42,0.38,0.0,1013.88,6.6,91.2,86.0,27.6,382.83,33.2,185.03
SKQ202010S,TSG,2020-05-04T20:56:00Z,-149.3986,59.7678,261.46,0.3,221.6,91.03,1.43,0.53,-0.0,1013.88,6.6,90.9,85.6,27.8,382.37,34.31,188.49
SKQ202010S,TSG,2020-05-04T20:57:00Z,-149.3987,59.7678,261.23,0.2,249.95,89.33,1.5,0.34,-0.0,1014.01,6.6,90.8,84.5,27.4,382.35,33.39,187.18
SKQ202010S,TSG,2020-05-04T20:58:00Z,-149.3989,59.7677,261.39,0.3,232.17,90.01,1.64,0.56,0.04,1013.9,6.6,91.2,86.1,26.8,382.15,35.38,194.97
SKQ202010S,TSG,2020-05-04T20:59:00Z,-149.399,59.7677,261.72,0.2,285.82,88.24,1.51,0.42,0.0,1014.02,6.6,90.7,88.5,30.4,381.91,38.68,203.04
SKQ202010S,TSG,2020-05-04T21:00:00Z,-149.3991,59.7678,261.39,0.4,317.72,87.56,1.52,0.42,0.0,1014.06,6.6,90.6,87.7,26.3,382.44,36.23,193.73
SKQ202010S,TSG,2020-05-04T21:01:00Z,-149.3992,59.7679,261.84,0.3,339.83,90.96,1.54,0.47,0.0,1014.06,6.6,90.9,90.1,26.4,382.52,36.61,197.72
SKQ202010S,TSG,2020-05-04T21:02:00Z,-149.3993,59.7679,261.27,0.3,326.32,90.15,1.48,0.41,0.0,1014.09,6.6,91.1,89.0,25.6,383.02,36.81,190.92
SKQ202010S,TSG,2020-05-04T21:03:00Z,-149.3994,59.768,261.72,0.3,304.23,91.53,1.56,0.45,0.0,1014.05,6.6,91.4,84.5,25.0,383.7,26.26,159.16
SKQ202010S,TSG,2020-05-04T21:04:00Z,-149.3995,59.768,261.44,0.1,286.85,88.53,1.77,0.45,0.0,1014.12,6.6,91.2,88.7,24.3,384.0,23.47,154.05
SKQ202010S,TSG,2020-05-04T21:05:00Z,-149.3996,59.7681,261.81,0.6,311.33,88.54,1.57,0.4,0.0,1014.11,6.6,91.3,88.8,23.0,383.66,23.99,154.35
SKQ202010S,TSG,2020-05-04T21:06:00Z,-149.3998,59.7682,261.52,0.4,311.48,91.15,1.36,0.45,0.0,1014.12,6.6,91.0,89.3,26.3,383.64,26.2,160.94
SKQ202010S,TSG,2020-05-04T21:07:00Z,-149.4,59.7682,261.3,0.3,241.81,91.76,1.31,0.38,-0.0,1014.2,6.5,90.3,91.1,28.5,383.18,28.46,168.62
SKQ202010S,TSG,2020-05-04T21:08:00Z,-149.4001,59.7681,261.45,0.3,273.69,87.95,1.71,0.47,0.01,1014.23,6.6,89.6,96.4,26.9,382.23,30.36,174.36
SKQ202010S,TSG,2020-05-04T21:09:00Z,-149.4003,59.7682,261.58,0.7,330.73,86.75,1.48,0.5,0.02,1014.19,6.6,89.8,94.8,28.3,381.96,30.64,179.29
SKQ202010S,TSG,2020-05-04T21:10:00Z,-149.4005,59.7684,261.7,0.6,330.19,92.43,1.37,0.41,0.01,1014.13,6.6,90.1,89.2,27.2,382.14,34.58,192.9
SKQ202010S,TSG,2020-05-04T21:11:00Z,-149.4006,59.7685,261.94,0.3,310.31,96.99,1.14,0.45,0.02,1014.12,6.6,89.6,93.7,30.8,382.06,37.04,198.18
SKQ202010S,TSG,2020-05-04T21:12:00Z,-149.4008,59.7685,262.31,0.4,225.02,100.49,1.34,0.38,0.0,1014.11,6.6,88.9,89.6,31.4,381.68,37.07,199.81
SKQ202010S,TSG,2020-05-04T21:13:00Z,-149.4009,59.7684,261.88,0.5,164.57,103.26,1.54,0.52,0.03,1013.96,6.6,88.9,88.6,30.4,381.72,38.33,202.9
SKQ202010S,TSG,2020-05-04T21:14:00Z,-149.4006,59.7681,NaN,2.5,170.26,144.34,2.66,0.51,0.0,1013.04,6.6,88.0,86.4,33.5,382.01,39.25,206.22
SKQ202010S,TSG,2020-05-04T21:15:00Z,-149.4005,59.7671,NaN,4.1,175.31,149.23,3.42,0.61,0.01,1013.13,6.5,88.8,85.3,32.8,382.24,42.69,216.26
SKQ202010S,TSG,2020-05-04T21:16:00Z,-149.4,59.7658,NaN,5.4,163.03,147.15,3.27,0.61,0.0,1012.74,6.5,88.5,83.4,32.6,382.5,45.19,220.79
SKQ202010S,TSG,2020-05-04T21:17:00Z,-149.3989,59.7643,258.65,5.9,157.48,145.23,3.19,0.54,0.01,1012.88,6.6,88.2,83.0,31.5,382.82,46.52,224.76
SKQ202010S,TSG,2020-05-04T21:18:00Z,-149.3975,59.7628,NaN,6.1,154.38,143.29,2.97,0.68,0.0,1013.15,6.6,89.0,81.3,30.3,383.34,47.01,228.07
SKQ202010S,TSG,2020-05-04T21:19:00Z,-149.3959,59.7612,257.58,6.6,151.76,142.43,3.17,0.59,0.0,1012.75,6.6,88.7,81.4,34.5,383.51,48.59,231.81
SKQ202010S,TSG,2020-05-04T21:20:00Z,-149.3942,59.7595,256.38,6.9,151.12,142.6,3.28,0.5,0.01,1012.73,6.6,87.8,79.8,33.2,383.88,46.75,232.71
SKQ202010S,TSG,2020-05-04T21:21:00Z,-149.3923,59.7579,255.57,6.8,150.82,142.21,3.39,0.65,0.01,1012.6,6.5,88.4,80.0,33.7,382.36,59.16,268.01
SKQ202010S,TSG,2020-05-04T21:22:00Z,-149.3906,59.7563,254.38,6.7,151.76,142.96,3.09,0.59,0.0,1012.68,6.6,87.8,80.3,32.0,381.97,63.69,271.36
SKQ202010S,TSG,2020-05-04T21:23:00Z,-149.389,59.7547,NaN,5.9,155.16,144.22,3.07,0.7,0.06,1012.92,6.7,87.8,81.6,32.3,382.94,55.04,250.07
SKQ202010S,TSG,2020-05-04T21:24:00Z,-149.3876,59.7532,NaN,6.1,155.15,144.01,3.34,0.61,0.0,1012.86,6.7,87.9,80.6,31.8,383.13,49.82,231.1
SKQ202010S,TSG,2020-05-04T21:25:00Z,-149.3861,59.7517,252.87,6.1,152.3,143.02,3.25,0.67,-0.0,1013.17,6.6,88.5,83.3,31.3,383.54,42.99,218.51
SKQ202010S,TSG,2020-05-04T21:26:00Z,-149.3846,59.7502,252.28,5.9,154.44,143.42,3.27,0.66,0.03,1012.93,6.6,88.9,86.1,32.6,383.7,46.55,226.91
SKQ202010S,TSG,2020-05-04T21:27:00Z,-149.3833,59.7488,NaN,5.6,155.71,143.87,3.32,0.59,0.0,1012.93,6.7,88.1,79.5,33.6,383.68,43.34,220.24
SKQ202010S,TSG,2020-05-04T21:28:00Z,-149.382,59.7473,NaN,6.0,155.32,144.03,3.37,0.75,0.01,1012.65,6.7,87.6,81.2,34.1,383.33,47.33,234.63
SKQ202010S,TSG,2020-05-04T21:29:00Z,-149.3807,59.7458,NaN,6.0,156.5,144.04,3.39,0.65,0.0,1012.67,6.8,87.3,85.0,34.2,383.58,52.04,244.51
SKQ202010S,TSG,2020-05-04T21:30:00Z,-149.3792,59.7443,253.78,6.2,152.2,142.08,3.35,0.61,-0.0,1012.86,6.8,86.5,83.2,34.3,383.18,50.27,240.89
SKQ202010S,TSG,2020-05-04T21:31:00Z,-149.3776,59.7427,250.39,6.4,151.87,143.03,3.16,0.54,0.02,1012.88,6.8,87.4,80.7,34.3,383.32,50.41,238.85
SKQ202010S,TSG,2020-05-04T21:32:00Z,-149.3759,59.7411,NaN,6.6,152.48,143.39,3.26,0.63,0.0,1012.88,6.8,87.7,82.4,34.1,383.41,49.97,234.29
SKQ202010S,TSG,2020-05-04T21:33:00Z,-149.3743,59.7395,247.83,6.3,152.01,142.49,3.31,0.58,0.0,1013.11,6.8,88.0,82.7,32.7,383.55,49.07,231.47
SKQ202010S,TSG,2020-05-04T21:34:00Z,-149.3728,59.738,NaN,5.8,155.11,144.39,3.32,0.76,0.01,1012.98,6.8,88.6,83.5,31.9,384.04,44.19,215.9
