Cruise,Type,Date_Time_[UTC],Longitude_[decimal_degrees_east],Latitude_[decimal_degrees_north],Bottom_Depth_[m],Speed_[knots],Course_[degrees_true],Heading_[degree],Roll_[degree],Pitch_[degree],Heave,Atmos_Pressure_[hPa],Air_Temperature_[C],Relative_Humidity_[%],Wind_Dir_[degrees_true],Wind_Speed_[knots],Longwave_Downwelling_[W/m2],Shortwave_Downwelling_[W/m2],PAR_[uE/m2/s]
SKQ202010S,TSG,2020-09-01T15:26:00Z,-149.3598,60.0259,291.71,2.6,149.74,139.49,-0.55,0.36,0.0,1000.3,12.7,92.8,167.6,4.0,402.11,-3.04,21.34
SKQ202010S,TSG,2020-09-01T15:27:00Z,-149.3593,60.0255,291.42,1.2,151.37,136.72,-0.63,0.35,0.0,1000.3,12.8,92.5,169.3,4.7,402.35,-2.95,21.78
SKQ202010S,TSG,2020-09-01T15:28:00Z,-149.3591,60.0253,291.56,0.7,149.76,143.19,-0.52,0.35,-0.0,1000.3,12.8,91.8,163.7,4.5,402.42,-2.91,22.15
SKQ202010S,TSG,2020-09-01T15:29:00Z,-149.3589,60.0252,293.53,0.2,141.44,149.72,-0.51,0.36,0.0,1000.31,12.8,91.4,164.1,4.6,402.91,-2.84,22.54
SKQ202010S,TSG,2020-09-01T15:30:00Z,-149.3589,60.0251,292.13,0.0,196.09,149.98,-0.55,0.35,-0.0,1000.31,12.8,92.0,158.4,3.8,402.96,-2.75,23.0
SKQ202010S,TSG,2020-09-01T15:31:00Z,-149.3589,60.0251,292.25,0.0,62.39,150.15,-0.54,0.36,0.0,1000.31,12.8,91.8,162.1,4.0,403.23,-2.6,23.5
SKQ202010S,TSG,2020-09-01T15:32:00Z,-149.3589,60.0251,292.68,0.0,289.72,149.84,-0.61,0.35,-0.0,1000.35,12.8,92.1,162.0,3.8,403.29,-2.37,24.08
SKQ202010S,TSG,2020-09-01T15:33:00Z,-149.3589,60.0251,293.75,0.0,313.02,149.91,-0.55,0.36,-0.0,1000.37,12.7,92.7,154.1,3.5,403.46,-2.19,24.7
SKQ202010S,TSG,2020-09-01T15:34:00Z,-149.3589,60.0251,293.78,0.0,127.95,150.26,-0.5,0.36,-0.0,1000.35,12.7,92.4,150.2,4.0,403.61,-1.95,25.37
SKQ202010S,TSG,2020-09-01T15:35:00Z,-149.3589,60.0251,293.42,0.0,212.04,150.05,-0.6,0.36,0.01,1000.39,12.7,90.6,155.5,3.4,404.13,-1.7,26.15
SKQ202010S,TSG,2020-09-01T15:36:00Z,-149.3589,60.0251,294.01,0.0,176.45,149.68,-0.57,0.34,-0.0,1000.4,12.7,90.5,151.1,3.0,403.85,-1.47,26.91
SKQ202010S,TSG,2020-09-01T15:37:00Z,-149.3589,60.0251,293.98,0.0,352.05,149.9,-0.64,0.36,-0.0,1000.4,12.7,90.3,167.5,4.3,403.69,-1.25,27.66
SKQ202010S,TSG,2020-09-01T15:38:00Z,-149.3589,60.0251,293.9,0.0,22.09,150.06,-0.64,0.34,0.0,1000.4,12.7,90.4,168.6,3.5,403.58,-1.06,28.42
SKQ202010S,TSG,2020-09-01T15:39:00Z,-149.3589,60.0251,294.31,0.0,213.19,150.07,-0.67,0.35,0.0,1000.4,12.7,90.3,165.2,3.5,403.32,-0.87,29.14
SKQ202010S,TSG,2020-09-01T15:40:00Z,-149.3589,60.0251,293.58,0.0,29.22,149.94,-0.63,0.36,-0.0,1000.4,12.6,90.2,166.2,3.1,403.27,-0.75,29.85
SKQ202010S,TSG,2020-09-01T15:41:00Z,-149.3589,60.0251,293.89,0.0,55.87,150.0,-0.7,0.35,-0.0,1000.41,12.6,90.4,169.5,2.9,403.26,-0.56,30.6
SKQ202010S,TSG,2020-09-01T15:42:00Z,-149.3589,60.0251,293.85,0.0,198.38,149.95,-0.64,0.35,0.0,1000.41,12.6,90.7,166.3,2.9,403.46,-0.31,31.43
SKQ202010S,TSG,2020-09-01T15:43:00Z,-149.3589,60.0251,294.02,0.0,103.48,149.91,-0.48,0.35,0.0,1000.4,12.6,90.8,167.2,3.2,403.74,0.03,32.34
SKQ202010S,TSG,2020-09-01T15:44:00Z,-149.3589,60.0251,294.33,0.0,9.99,150.05,-0.18,0.38,0.0,1000.45,12.7,90.4,166.7,2.7,403.83,0.26,33.16
SKQ202010S,TSG,2020-09-01T15:45:00Z,-149.3589,60.0251,293.9,0.0,245.08,150.12,-0.18,0.37,0.0,1000.49,12.7,90.6,167.5,3.0,403.77,0.39,33.81
SKQ202010S,TSG,2020-09-01T15:46:00Z,-149.3589,60.0251,293.41,0.0,8.37,150.05,-0.31,0.36,0.0,1000.5,12.7,90.3,166.7,3.4,403.35,0.49,34.34
SKQ202010S,TSG,2020-09-01T15:47:00Z,-149.3589,60.0251,293.59,0.0,122.08,149.94,-0.14,0.37,0.0,1000.5,12.7,90.3,171.6,3.4,402.71,0.54,34.68
SKQ202010S,TSG,2020-09-01T15:48:00Z,-149.3589,60.0251,294.19,0.0,234.46,150.12,-0.21,0.38,0.0,1000.5,12.7,90.3,176.6,3.2,402.57,0.5,35.06
SKQ202010S,TSG,2020-09-01T15:49:00Z,-149.3589,60.0251,293.55,0.0,326.46,150.25,-0.23,0.37,-0.0,1000.51,12.7,89.8,177.3,3.3,402.38,0.46,35.47
SKQ202010S,TSG,2020-09-01T15:50:00Z,-149.3589,60.0251,293.55,0.0,284.51,150.17,-0.19,0.36,-0.0,1000.53,12.7,89.7,179.0,3.3,402.29,0.46,36.01
SKQ202010S,TSG,2020-09-01T15:51:00Z,-149.3589,60.0251,293.59,0.0,189.86,150.1,-0.23,0.37,0.0,1000.58,12.7,89.9,169.5,2.9,402.37,0.48,36.6
SKQ202010S,TSG,2020-09-01T15:52:00Z,-149.3589,60.0251,294.2,0.0,107.81,149.97,-0.23,0.37,-0.0,1000.59,12.8,90.8,155.3,2.6,402.71,0.55,37.22
SKQ202010S,TSG,2020-09-01T15:53:00Z,-149.3589,60.0251,294.47,0.0,8.53,149.99,-0.31,0.36,0.0,1000.6,12.7,91.3,153.3,2.3,403.08,0.76,37.9
SKQ202010S,TSG,2020-09-01T15:54:00Z,-149.3589,60.0251,293.27,0.0,253.16,149.6,-0.14,0.38,0.0,1000.6,12.7,91.5,148.6,2.6,403.24,1.04,38.68
SKQ202010S,TSG,2020-09-01T15:55:00Z,-149.3589,60.0251,290.92,0.0,257.21,146.83,-0.16,0.37,0.0,1000.6,12.6,91.7,142.8,2.4,403.67,1.34,39.65
SKQ202010S,TSG,2020-09-01T15:56:00Z,-149.3589,60.0251,290.87,0.0,2.84,146.55,-0.23,0.37,0.01,1000.6,12.6,91.9,142.2,2.5,403.95,1.7,40.82
SKQ202010S,TSG,2020-09-01T15:57:00Z,-149.3589,60.0251,290.86,0.0,191.52,146.49,-0.22,0.37,-0.0,1000.6,12.6,92.1,131.1,2.9,403.85,2.27,42.26
SKQ202010S,TSG,2020-09-01T15:58:00Z,-149.3589,60.0251,291.62,0.0,284.11,146.55,-0.19,0.37,-0.0,1000.61,12.6,92.5,125.4,2.9,403.41,2.79,43.89
SKQ202010S,TSG,2020-09-01T15:59:00Z,-149.3589,60.0251,291.3,0.0,250.57,146.59,-0.2,0.37,0.0,1000.63,12.6,92.9,134.4,2.6,403.5,3.37,45.72
SKQ202010S,TSG,2020-09-01T16:00:00Z,-149.3589,60.0251,290.96,0.0,334.06,146.48,-0.19,0.37,0.0,1000.65,12.5,92.6,144.7,2.2,403.83,4.0,47.64
SKQ202010S,TSG,2020-09-01T16:01:00Z,-149.3589,60.0251,291.09,0.0,28.06,146.45,-0.18,0.37,-0.0,1000.7,12.5,92.3,152.0,2.1,403.72,4.73,49.69
SKQ202010S,TSG,2020-09-01T16:02:00Z,-149.3589,60.0251,291.98,0.0,40.97,146.49,-0.17,0.37,-0.0,1000.69,12.5,92.5,155.4,2.3,403.41,5.57,51.91
SKQ202010S,TSG,2020-09-01T16:03:00Z,-149.3589,60.0251,291.59,0.0,204.65,146.41,-0.14,0.38,0.01,1000.7,12.5,92.3,152.6,2.5,403.13,6.42,54.36
SKQ202010S,TSG,2020-09-01T16:04:00Z,-149.3589,60.0251,291.76,0.0,190.15,146.45,-0.16,0.37,-0.0,1000.7,12.5,92.7,157.3,2.2,402.4,7.28,57.1
SKQ202010S,TSG,2020-09-01T16:05:00Z,-149.3589,60.0251,292.07,0.0,0.27,146.48,-0.15,0.37,-0.0,1000.7,12.5,93.0,163.5,2.2,402.64,8.22,59.88
SKQ202010S,TSG,2020-09-01T16:06:00Z,-149.3589,60.0251,291.38,0.0,336.4,146.45,-0.15,0.38,0.0,1000.7,12.5,92.9,168.2,2.7,402.29,9.17,62.57
SKQ202010S,TSG,2020-09-01T16:07:00Z,-149.3589,60.0251,291.68,0.0,210.44,146.49,-0.17,0.37,-0.0,1000.7,12.5,92.7,175.9,2.4,402.44,10.15,65.35
SKQ202010S,TSG,2020-09-01T16:08:00Z,-149.3589,60.0251,291.69,0.0,76.14,146.54,-0.2,0.37,-0.0,1000.72,12.6,92.8,174.0,2.0,402.32,11.14,68.12
SKQ202010S,TSG,2020-09-01T16:09:00Z,-149.3589,60.0251,291.35,0.0,215.79,146.49,-0.14,0.38,-0.0,1000.78,12.5,92.8,171.9,1.5,401.53,12.08,70.8
SKQ202010S,TSG,2020-09-01T16:10:00Z,-149.3589,60.0251,291.71,0.0,40.6,146.47,-0.16,0.36,-0.0,1000.77,12.6,93.5,295.9,1.1,401.28,12.9,73.36
SKQ202010S,TSG,2020-09-01T16:11:00Z,-149.3589,60.0251,291.43,0.0,19.68,146.49,-0.12,0.37,-0.0,1000.8,12.5,94.2,318.5,1.2,401.31,13.74,75.96
SKQ202010S,TSG,2020-09-01T16:12:00Z,-149.3589,60.0251,292.8,0.0,300.83,146.48,0.07,0.38,0.0,1000.8,12.5,94.6,295.7,1.5,401.14,14.58,78.55
SKQ202010S,TSG,2020-09-01T16:13:00Z,-149.3589,60.0251,292.29,0.0,46.82,146.54,0.04,0.36,-0.0,1000.8,12.4,94.9,301.7,1.3,400.99,15.26,80.89
SKQ202010S,TSG,2020-09-01T16:14:00Z,-149.3589,60.0251,291.45,0.0,3.47,146.47,-0.13,0.36,0.0,1000.8,12.4,95.1,301.3,1.7,401.41,15.96,83.25
SKQ202010S,TSG,2020-09-01T16:15:00Z,-149.3589,60.0251,291.55,0.0,31.42,146.52,-0.08,0.36,0.0,1000.8,12.4,95.3,293.2,1.1,401.6,16.69,85.45
SKQ202010S,TSG,2020-09-01T16:16:00Z,-149.3589,60.0251,293.35,0.0,208.12,146.63,-0.14,0.35,0.0,1000.82,12.4,95.4,304.1,1.5,401.65,17.42,87.74
SKQ202010S,TSG,2020-09-01T16:17:00Z,-149.3589,60.0251,291.5,0.0,222.7,146.58,-0.17,0.36,-0.0,1000.89,12.4,95.5,287.0,1.3,401.5,18.21,90.21
SKQ202010S,TSG,2020-09-01T16:18:00Z,-149.3589,60.0251,291.32,0.0,7.93,146.48,-0.16,0.35,0.0,1000.9,12.4,95.5,295.0,1.5,401.48,19.1,92.88
SKQ202010S,TSG,2020-09-01T16:19:00Z,-149.3589,60.0251,291.34,0.0,20.05,146.43,-0.11,0.36,0.0,1000.9,12.4,95.6,313.8,0.7,401.47,20.21,95.87
SKQ202010S,TSG,2020-09-01T16:20:00Z,-149.3589,60.0251,291.53,0.0,19.43,146.51,-0.17,0.35,0.0,1000.9,12.3,95.8,282.2,1.2,401.57,21.44,99.28
SKQ202010S,TSG,2020-09-01T16:21:00Z,-149.3589,60.0251,292.64,0.0,348.15,146.56,-0.15,0.36,0.0,1000.9,12.3,96.3,289.8,1.0,401.33,22.89,102.91
SKQ202010S,TSG,2020-09-01T16:22:00Z,-149.3589,60.0251,291.61,0.0,43.81,146.56,-0.13,0.36,-0.0,1000.9,12.3,96.5,320.9,0.9,400.78,24.38,106.6
SKQ202010S,TSG,2020-09-01T16:23:00Z,-149.3589,60.0251,291.4,0.0,207.77,146.54,-0.12,0.36,0.0,1000.9,12.3,96.9,275.6,0.6,400.6,25.72,110.13
SKQ202010S,TSG,2020-09-01T16:24:00Z,-149.3589,60.0251,291.3,0.0,12.06,146.46,-0.08,0.37,-0.0,1000.91,12.3,97.0,345.6,0.5,400.09,26.88,113.51
SKQ202010S,TSG,2020-09-01T16:25:00Z,-149.3589,60.0251,290.9,0.0,194.23,146.48,-0.09,0.36,-0.0,1000.9,12.3,97.0,297.7,0.7,399.71,27.83,116.67
SKQ202010S,TSG,2020-09-01T16:26:00Z,-149.3589,60.0251,291.77,0.0,332.87,146.51,-0.13,0.36,0.0,1000.94,12.3,97.0,351.3,1.5,400.34,28.52,119.48
SKQ202010S,TSG,2020-09-01T16:27:00Z,-149.3589,60.0251,291.37,0.0,197.94,146.5,-0.09,0.36,-0.0,1000.96,12.2,96.8,356.5,1.8,400.37,29.12,121.87
SKQ202010S,TSG,2020-09-01T16:28:00Z,-149.3589,60.0251,291.29,0.0,145.75,146.51,-0.1,0.36,0.01,1000.95,12.2,96.9,357.6,1.8,400.55,29.61,124.04
SKQ202010S,TSG,2020-09-01T16:29:00Z,-149.3589,60.0251,291.98,0.0,180.4,146.55,-0.1,0.36,-0.0,1000.98,12.2,97.0,356.4,1.8,400.64,30.08,125.86
SKQ202010S,TSG,2020-09-01T16:30:00Z,-149.3589,60.0251,292.0,0.0,5.36,146.52,-0.1,0.36,-0.0,1000.98,12.2,97.3,356.7,1.7,400.55,30.36,127.3
SKQ202010S,TSG,2020-09-01T16:31:00Z,-149.3589,60.0251,291.57,0.0,326.81,146.5,-0.1,0.36,0.01,1001.0,12.2,97.8,357.3,1.8,401.08,30.41,128.29
SKQ202010S,TSG,2020-09-01T16:32:00Z,-149.3589,60.0251,291.94,0.0,15.53,146.49,-0.09,0.36,-0.0,1001.0,12.2,98.3,0.2,1.5,400.81,30.37,129.12
SKQ202010S,TSG,2020-09-01T16:33:00Z,-149.3589,60.0251,292.29,0.0,106.46,146.54,-0.04,0.37,0.0,1001.0,12.2,98.7,355.3,1.6,400.5,30.31,129.77
SKQ202010S,TSG,2020-09-01T16:34:00Z,-149.3589,60.0251,291.87,0.0,22.08,146.55,-0.15,0.37,0.0,1001.0,12.2,98.9,357.3,1.8,400.41,30.23,130.48
SKQ202010S,TSG,2020-09-01T16:35:00Z,-149.3589,60.0251,292.42,0.0,75.12,146.55,-0.1,0.36,-0.0,1001.06,12.2,98.9,357.1,1.7,400.46,30.28,131.39
SKQ202010S,TSG,2020-09-01T16:36:00Z,-149.3589,60.0251,291.51,0.0,217.29,146.53,-0.03,0.36,-0.0,1001.09,12.1,99.0,359.6,1.8,400.36,30.38,132.34
SKQ202010S,TSG,2020-09-01T16:37:00Z,-149.3589,60.0251,291.87,0.0,191.56,146.53,0.01,0.37,-0.0,1001.1,12.2,99.1,359.1,1.8,400.45,30.49,133.3
SKQ202010S,TSG,2020-09-01T16:38:00Z,-149.3589,60.0251,291.99,0.0,1.49,146.51,0.04,0.37,0.0,1001.1,12.2,99.1,358.0,1.8,400.5,30.65,134.34
SKQ202010S,TSG,2020-09-01T16:39:00Z,-149.3589,60.0251,291.59,0.0,18.67,146.5,-0.29,0.35,0.0,1001.1,12.2,99.2,356.1,1.8,400.52,30.92,135.67
SKQ202010S,TSG,2020-09-01T16:40:00Z,-149.3589,60.0251,292.0,0.0,17.71,146.53,-0.43,0.35,0.0,1001.1,12.2,99.4,357.8,1.7,400.47,31.26,137.21
SKQ202010S,TSG,2020-09-01T16:41:00Z,-149.3589,60.0251,291.7,0.0,187.51,146.55,-0.45,0.35,-0.0,1001.1,12.1,99.2,354.8,1.9,400.35,31.66,138.64
SKQ202010S,TSG,2020-09-01T16:42:00Z,-149.3589,60.0251,291.33,0.0,183.11,146.47,-0.43,0.35,0.0,1001.1,12.1,99.2,355.8,2.2,400.05,32.22,140.21
SKQ202010S,TSG,2020-09-01T16:43:00Z,-149.3589,60.0251,291.49,0.0,23.99,146.45,-0.5,0.35,0.0,1001.12,12.1,99.2,351.7,2.1,399.99,32.95,142.14
SKQ202010S,TSG,2020-09-01T16:44:00Z,-149.3589,60.0251,291.66,0.0,200.45,146.52,-0.5,0.34,-0.0,1001.13,12.1,99.3,356.5,2.4,399.38,33.81,144.48
SKQ202010S,TSG,2020-09-01T16:45:00Z,-149.3589,60.0251,291.37,0.0,14.7,146.53,-0.47,0.35,-0.0,1001.18,11.9,99.0,352.2,3.2,399.06,34.91,147.46
SKQ202010S,TSG,2020-09-01T16:46:00Z,-149.3589,60.0251,291.32,0.0,281.36,146.51,-0.46,0.35,-0.0,1001.2,11.8,99.4,355.7,2.8,399.75,36.29,151.01
SKQ202010S,TSG,2020-09-01T16:47:00Z,-149.3589,60.0251,292.04,0.0,41.25,146.58,-0.5,0.35,0.0,1001.2,11.8,99.7,356.3,3.0,400.36,37.91,154.89
SKQ202010S,TSG,2020-09-01T16:48:00Z,-149.3589,60.0251,291.9,0.0,44.26,146.61,-0.46,0.35,-0.0,1001.2,11.9,99.8,358.0,2.9,400.44,39.41,158.73
SKQ202010S,TSG,2020-09-01T16:49:00Z,-149.3589,60.0251,291.75,0.0,173.2,146.52,-0.47,0.35,0.0,1001.2,11.9,100.0,357.9,2.5,399.26,40.79,162.32
SKQ202010S,TSG,2020-09-01T16:50:00Z,-149.3589,60.0251,291.67,0.0,5.58,146.44,-0.46,0.35,0.0,1001.2,11.9,100.1,350.2,2.6,397.94,41.83,165.55
SKQ202010S,TSG,2020-09-01T16:51:00Z,-149.3589,60.0251,293.17,0.0,24.89,146.54,0.02,0.37,-0.0,1001.2,11.7,100.0,349.0,2.7,398.52,42.88,168.56
SKQ202010S,TSG,2020-09-01T16:52:00Z,-149.3589,60.0251,293.32,0.0,4.25,146.59,0.19,0.38,-0.0,1001.2,11.7,100.3,346.4,1.8,398.84,44.01,171.71
SKQ202010S,TSG,2020-09-01T16:53:00Z,-149.3589,60.0251,292.16,0.0,198.45,146.55,0.12,0.38,-0.0,1001.21,11.7,100.1,355.6,2.9,399.07,45.37,175.06
SKQ202010S,TSG,2020-09-01T16:54:00Z,-149.3589,60.0251,292.89,0.0,344.2,146.56,0.18,0.38,-0.0,1001.25,11.7,100.2,352.3,3.0,399.06,46.91,178.65
SKQ202010S,TSG,2020-09-01T16:55:00Z,-149.3589,60.0251,293.22,0.0,186.09,146.59,0.17,0.38,0.0,1001.3,11.7,100.2,356.9,2.8,398.54,48.68,182.46
SKQ202010S,TSG,2020-09-01T16:56:00Z,-149.3589,60.0251,294.04,0.0,8.71,146.6,0.16,0.38,0.0,1001.3,11.7,100.5,352.2,2.3,398.75,50.5,186.44
SKQ202010S,TSG,2020-09-01T16:57:00Z,-149.3589,60.0251,292.92,0.0,337.59,146.6,0.19,0.38,-0.0,1001.3,11.7,100.6,349.0,1.6,398.29,52.25,190.43
SKQ202010S,TSG,2020-09-01T16:58:00Z,-149.3589,60.0251,293.28,0.0,193.94,146.67,0.17,0.38,0.01,1001.3,11.6,100.6,351.7,3.1,398.2,53.63,193.85
SKQ202010S,TSG,2020-09-01T16:59:00Z,-149.3589,60.0251,292.26,0.0,212.88,146.66,-0.03,0.37,0.01,1001.3,11.6,100.4,352.0,2.3,398.21,54.51,196.29
SKQ202010S,TSG,2020-09-01T17:00:00Z,-149.3589,60.0251,291.43,0.0,138.96,146.53,-0.24,0.36,0.0,1001.3,11.5,100.5,355.6,3.2,398.32,54.87,197.56
SKQ202010S,TSG,2020-09-01T17:01:00Z,-149.3589,60.0251,291.23,0.0,188.94,146.46,-0.34,0.35,-0.0,1001.38,11.5,100.4,349.5,2.2,398.13,54.81,197.86
SKQ202010S,TSG,2020-09-01T17:02:00Z,-149.3589,60.0251,291.45,0.0,337.11,146.47,-0.35,0.35,-0.0,1001.4,11.5,100.5,351.4,2.3,398.29,54.49,197.65
SKQ202010S,TSG,2020-09-01T17:03:00Z,-149.3589,60.0251,291.78,0.0,10.46,146.56,-0.4,0.36,-0.0,1001.4,11.5,100.7,350.3,2.3,398.05,54.17,197.47
SKQ202010S,TSG,2020-09-01T17:04:00Z,-149.3589,60.0251,291.77,0.0,202.31,146.56,-0.33,0.35,0.01,1001.4,11.5,100.7,349.8,2.2,398.48,54.0,197.4
SKQ202010S,TSG,2020-09-01T17:05:00Z,-149.3589,60.0251,291.4,0.0,6.79,146.54,-0.35,0.35,-0.0,1001.4,11.5,100.7,348.8,2.3,398.44,53.86,197.45
SKQ202010S,TSG,2020-09-01T17:06:00Z,-149.3589,60.0251,292.08,0.0,198.31,146.56,-0.37,0.35,0.0,1001.4,11.5,100.8,341.0,1.2,398.19,53.8,197.88
SKQ202010S,TSG,2020-09-01T17:07:00Z,-149.3589,60.0251,291.99,0.0,28.48,146.54,-0.37,0.36,-0.0,1001.4,11.6,101.0,315.5,0.5,398.28,53.78,198.35
SKQ202010S,TSG,2020-09-01T17:08:00Z,-149.3589,60.0251,291.66,0.0,335.97,146.53,-0.35,0.35,0.01,1001.4,11.6,101.1,317.3,0.3,398.71,53.66,198.64
SKQ202010S,TSG,2020-09-01T17:09:00Z,-149.3589,60.0251,291.33,0.0,345.55,146.43,-0.36,0.35,0.0,1001.4,11.7,101.1,183.6,0.1,398.57,53.44,198.76
SKQ202010S,TSG,2020-09-01T17:10:00Z,-149.3589,60.0251,292.05,0.0,41.74,146.48,-0.37,0.35,-0.0,1001.42,11.7,101.0,312.3,0.9,398.6,53.09,198.57
SKQ202010S,TSG,2020-09-01T17:11:00Z,-149.3589,60.0251,292.92,0.0,21.11,146.6,-0.37,0.36,0.0,1001.45,11.7,100.4,296.6,1.5,398.7,52.54,197.84
SKQ202010S,TSG,2020-09-01T17:12:00Z,-149.3589,60.0251,292.58,0.0,201.05,146.68,-0.33,0.34,0.0,1001.5,11.7,99.8,298.1,1.1,398.72,51.99,196.98
SKQ202010S,TSG,2020-09-01T17:13:00Z,-149.3589,60.0251,292.04,0.0,329.08,146.58,-0.39,0.36,0.0,1001.5,11.7,99.5,300.3,1.7,399.19,51.69,196.62
SKQ202010S,TSG,2020-09-01T17:14:00Z,-149.3589,60.0251,291.25,0.0,157.76,146.46,-0.4,0.35,0.0,1001.5,11.7,99.3,304.4,1.7,398.9,51.68,196.74
SKQ202010S,TSG,2020-09-01T17:15:00Z,-149.3589,60.0251,291.41,0.0,5.56,146.55,-0.36,0.35,-0.0,1001.5,11.8,99.1,296.1,1.0,398.81,52.06,197.63
SKQ202010S,TSG,2020-09-01T17:16:00Z,-149.3589,60.0251,291.55,0.0,238.6,146.61,-0.35,0.35,-0.0,1001.5,11.8,99.2,307.0,1.5,398.69,52.8,199.6
SKQ202010S,TSG,2020-09-01T17:17:00Z,-149.3589,60.0251,291.32,0.0,203.94,146.57,-0.33,0.36,0.0,1001.5,11.8,98.9,297.3,1.0,398.68,53.98,202.47
SKQ202010S,TSG,2020-09-01T17:18:00Z,-149.3589,60.0251,292.67,0.2,136.01,146.47,-0.34,0.35,-0.0,1001.5,11.8,98.7,298.9,1.3,398.64,55.37,205.97
SKQ202010S,TSG,2020-09-01T17:19:00Z,-149.3587,60.025,292.01,0.5,141.57,149.52,-0.31,0.36,-0.0,1001.51,11.8,98.6,301.6,1.7,398.45,56.73,209.01
SKQ202010S,TSG,2020-09-01T17:20:00Z,-149.3585,60.0249,291.6,0.9,143.68,151.39,-0.37,0.36,0.0,1001.57,11.8,98.5,324.6,1.9,398.17,58.02,212.28
SKQ202010S,TSG,2020-09-01T17:21:00Z,-149.3582,60.0246,292.89,1.1,148.79,160.91,0.13,0.38,-0.0,1001.59,11.8,98.4,315.7,3.4,398.05,59.32,215.42
SKQ202010S,TSG,2020-09-01T17:22:00Z,-149.3579,60.0244,292.81,1.1,160.17,168.16,0.17,0.4,0.0,1001.6,11.7,97.9,317.4,3.9,398.0,60.68,218.64
SKQ202010S,TSG,2020-09-01T17:23:00Z,-149.3577,60.0239,292.77,2.5,164.35,166.29,0.2,0.4,0.01,1001.6,11.7,98.5,313.9,3.5,398.37,61.62,220.53
SKQ202010S,TSG,2020-09-01T17:24:00Z,-149.3572,60.023,292.85,4.5,170.84,172.87,0.08,0.4,-0.0,1001.6,11.7,98.4,304.3,3.7,398.72,64.11,225.94
SKQ202010S,TSG,2020-09-01T17:25:00Z,-149.3569,60.0214,293.07,6.7,174.67,175.24,0.23,0.41,0.0,1001.6,11.6,98.5,315.8,3.9,398.93,66.65,231.12
SKQ202010S,TSG,2020-09-01T17:26:00Z,-149.3565,60.0194,291.81,7.9,175.44,175.63,0.17,0.39,-0.0,1001.6,11.6,98.9,316.8,4.0,399.16,67.6,233.47
SKQ202010S,TSG,2020-09-01T17:27:00Z,-149.3562,60.0171,291.64,8.5,175.37,175.53,0.2,0.39,0.0,1001.6,11.6,99.4,318.8,3.7,399.95,66.91,232.22
SKQ202010S,TSG,2020-09-01T17:28:00Z,-149.3558,60.0147,291.47,9.0,175.65,175.85,0.17,0.39,-0.0,1001.6,11.5,99.8,320.6,4.2,401.37,63.67,226.92
SKQ202010S,TSG,2020-09-01T17:29:00Z,-149.3554,60.0122,291.27,9.2,175.68,175.7,0.18,0.39,0.0,1001.6,11.6,100.2,315.7,4.4,402.84,58.86,219.28
SKQ202010S,TSG,2020-09-01T17:30:00Z,-149.355,60.0096,290.86,9.3,175.95,175.9,0.19,0.38,-0.0,1001.6,11.6,100.2,314.7,4.4,403.96,55.03,213.91
SKQ202010S,TSG,2020-09-01T17:31:00Z,-149.3547,60.0071,290.83,9.3,176.11,175.79,0.23,0.39,-0.0,1001.6,11.6,100.2,319.0,4.8,404.58,53.46,213.57
SKQ202010S,TSG,2020-09-01T17:32:00Z,-149.3543,60.0045,292.05,9.3,176.23,175.85,0.17,0.39,-0.0,1001.6,11.6,100.2,317.8,4.8,404.6,54.65,219.46
SKQ202010S,TSG,2020-09-01T17:33:00Z,-149.354,60.0019,292.39,9.3,176.57,175.82,0.17,0.38,-0.0,1001.6,11.6,100.2,320.1,5.1,404.16,60.27,233.84
SKQ202010S,TSG,2020-09-01T17:34:00Z,-149.3537,59.9994,292.21,9.4,176.09,175.5,0.17,0.39,-0.0,1001.6,11.5,99.2,320.6,5.0,403.08,67.93,251.68
SKQ202010S,TSG,2020-09-01T17:35:00Z,-149.3533,59.9968,293.75,9.4,176.56,175.96,0.17,0.39,0.0,1001.6,11.5,99.9,323.5,5.1,402.24,73.81,266.5
SKQ202010S,TSG,2020-09-01T17:36:00Z,-149.353,59.9941,293.22,9.5,176.25,175.86,0.22,0.39,-0.0,1001.61,11.5,100.6,322.1,5.0,401.58,78.02,278.02
SKQ202010S,TSG,2020-09-01T17:37:00Z,-149.3527,59.9915,294.43,9.5,176.11,175.88,0.18,0.39,0.0,1001.66,11.5,101.0,326.3,5.1,400.93,80.24,286.35
SKQ202010S,TSG,2020-09-01T17:38:00Z,-149.3523,59.9889,295.75,9.6,175.68,175.7,0.19,0.39,0.0,1001.68,11.5,101.4,330.3,5.1,399.23,85.9,301.05
SKQ202010S,TSG,2020-09-01T17:39:00Z,-149.3519,59.9862,296.11,9.6,175.73,175.75,0.16,0.38,-0.0,1001.69,11.6,101.8,335.3,5.1,397.05,94.24,320.72
SKQ202010S,TSG,2020-09-01T17:40:00Z,-149.3515,59.9836,296.0,9.6,175.99,176.0,0.18,0.38,-0.0,1001.7,11.6,102.0,335.7,4.9,395.2,101.97,340.4
SKQ202010S,TSG,2020-09-01T17:41:00Z,-149.3511,59.9809,293.96,9.5,175.84,175.77,0.17,0.39,-0.0,1001.7,11.7,101.9,342.3,5.0,393.85,108.31,357.44
SKQ202010S,TSG,2020-09-01T17:42:00Z,-149.3507,59.9783,288.96,9.5,175.57,175.51,0.16,0.39,0.0,1001.7,11.6,101.9,343.9,5.0,393.1,112.35,369.5
SKQ202010S,TSG,2020-09-01T17:43:00Z,-149.3503,59.9757,276.94,9.5,175.63,175.69,0.19,0.4,0.0,1001.7,11.7,101.9,340.9,5.0,392.6,114.19,375.93
SKQ202010S,TSG,2020-09-01T17:44:00Z,-149.35,59.9731,263.19,9.4,179.68,181.75,-0.28,0.38,0.01,1001.7,11.7,101.9,338.3,5.7,391.84,115.3,379.92
SKQ202010S,TSG,2020-09-01T17:45:00Z,-149.3508,59.9705,248.02,9.2,198.2,199.41,-0.13,0.38,0.0,1001.7,11.7,101.8,345.0,5.8,391.0,116.4,383.19
SKQ202010S,TSG,2020-09-01T17:46:00Z,-149.3526,59.9681,222.85,9.4,201.7,202.29,0.02,0.39,0.0,1001.7,11.7,101.7,342.6,5.4,390.27,119.21,391.83
SKQ202010S,TSG,2020-09-01T17:47:00Z,-149.3547,59.9657,200.08,9.5,204.06,203.94,0.14,0.4,0.0,1001.7,11.8,101.4,348.4,5.2,389.97,122.01,399.54
SKQ202010S,TSG,2020-09-01T17:48:00Z,-149.3568,59.9633,194.76,9.5,204.13,203.92,0.14,0.39,0.0,1001.7,11.8,101.4,352.0,4.9,390.62,122.55,403.03
SKQ202010S,TSG,2020-09-01T17:49:00Z,-149.359,59.9609,199.85,9.6,204.03,203.68,0.07,0.38,-0.0,1001.7,11.9,101.3,352.9,4.8,391.45,123.73,409.25
SKQ202010S,TSG,2020-09-01T17:50:00Z,-149.3611,59.9585,209.03,9.6,203.76,203.48,0.1,0.39,0.0,1001.71,11.9,101.2,358.6,4.5,391.48,126.13,417.53
SKQ202010S,TSG,2020-09-01T17:51:00Z,-149.3633,59.956,217.34,9.6,203.7,203.54,0.15,0.38,0.0,1001.76,11.9,100.9,3.4,4.4,390.99,128.81,425.91
SKQ202010S,TSG,2020-09-01T17:52:00Z,-149.3654,59.9536,223.46,9.4,203.52,203.75,0.13,0.38,-0.0,1001.77,12.0,100.9,8.5,4.2,390.39,128.53,427.23
SKQ202010S,TSG,2020-09-01T17:53:00Z,-149.3675,59.9513,227.86,9.2,204.5,204.86,0.09,0.38,-0.0,1001.8,12.0,100.6,7.6,4.2,389.65,127.84,426.09
SKQ202010S,TSG,2020-09-01T17:54:00Z,-149.3696,59.949,230.17,9.1,204.71,204.77,0.13,0.38,-0.0,1001.8,12.1,100.4,10.0,3.8,389.12,128.61,429.22
SKQ202010S,TSG,2020-09-01T17:55:00Z,-149.3717,59.9467,231.36,9.1,204.48,204.45,0.17,0.39,0.0,1001.8,12.1,100.3,5.3,3.6,388.78,130.4,432.66
SKQ202010S,TSG,2020-09-01T17:56:00Z,-149.3737,59.9444,233.64,8.9,204.26,204.04,0.24,0.37,-0.0,1001.8,12.1,100.1,4.3,3.3,388.99,129.71,433.53
SKQ202010S,TSG,2020-09-01T17:57:00Z,-149.3755,59.9422,236.3,7.9,199.31,198.39,0.31,0.38,0.0,1001.8,12.2,100.2,12.0,2.8,389.58,126.33,424.36
SKQ202010S,TSG,2020-09-01T17:58:00Z,-149.377,59.9402,238.21,7.2,204.51,206.19,0.02,0.36,-0.0,1001.8,12.2,100.3,9.8,3.2,389.5,122.84,417.69
SKQ202010S,TSG,2020-09-01T17:59:00Z,-149.3787,59.9385,238.14,6.5,206.76,205.11,0.35,0.38,-0.0,1001.81,12.3,100.6,17.1,2.9,388.26,123.8,420.26
SKQ202010S,TSG,2020-09-01T18:00:00Z,-149.3801,59.937,234.29,6.0,200.59,199.35,0.28,0.38,-0.0,1001.82,12.3,100.5,359.5,2.5,387.4,127.39,430.83
SKQ202010S,TSG,2020-09-01T18:01:00Z,-149.3813,59.9353,230.51,6.9,203.44,203.72,0.14,0.38,0.0,1001.81,12.3,100.0,5.1,2.4,387.16,128.64,435.47
SKQ202010S,TSG,2020-09-01T18:02:00Z,-149.3831,59.9335,226.73,7.8,205.64,205.23,0.26,0.4,-0.0,1001.8,12.4,99.9,2.3,2.3,388.37,127.39,438.3
SKQ202010S,TSG,2020-09-01T18:03:00Z,-149.385,59.9315,222.11,8.2,205.35,204.8,0.25,0.39,0.0,1001.81,12.4,98.4,307.2,1.6,389.59,124.06,435.83
SKQ202010S,TSG,2020-09-01T18:04:00Z,-149.3869,59.9294,218.03,8.1,205.45,204.88,0.19,0.38,-0.0,1001.82,12.4,97.2,321.3,1.4,388.23,121.65,439.82
SKQ202010S,TSG,2020-09-01T18:05:00Z,-149.3888,59.9274,218.26,8.0,205.44,204.58,0.25,0.38,0.01,1001.86,12.5,96.6,8.6,0.8,386.95,123.66,451.82
SKQ202010S,TSG,2020-09-01T18:06:00Z,-149.3907,59.9254,219.67,7.9,205.97,205.09,0.27,0.39,0.0,1001.87,12.5,95.9,14.7,0.2,385.91,127.01,463.27
SKQ202010S,TSG,2020-09-01T18:07:00Z,-149.3926,59.9234,223.35,8.1,205.48,204.77,0.29,0.39,-0.0,1001.84,12.6,95.3,140.5,0.4,385.37,132.12,477.58
SKQ202010S,TSG,2020-09-01T18:08:00Z,-149.3946,59.9214,229.82,8.4,205.38,204.81,0.29,0.39,0.01,1001.86,12.6,94.8,211.5,0.5,384.3,136.23,489.77
SKQ202010S,TSG,2020-09-01T18:09:00Z,-149.3966,59.9192,234.09,8.7,204.66,204.44,0.25,0.39,-0.0,1001.85,12.6,94.7,230.4,0.6,383.2,138.37,500.26
SKQ202010S,TSG,2020-09-01T18:10:00Z,-149.3986,59.917,239.56,8.9,205.11,205.15,0.25,0.39,0.0,1001.84,12.6,94.7,234.9,0.4,382.44,141.3,515.94
SKQ202010S,TSG,2020-09-01T18:11:00Z,-149.4007,59.9147,245.5,9.2,204.79,204.78,0.32,0.41,0.01,1001.84,12.6,94.6,278.0,0.2,383.07,141.05,520.92
SKQ202010S,TSG,2020-09-01T18:12:00Z,-149.4029,59.9124,251.13,9.2,204.8,204.44,0.29,0.38,0.0,1001.84,12.6,94.6,251.0,0.4,382.71,140.35,522.44
SKQ202010S,TSG,2020-09-01T18:13:00Z,-149.4049,59.9101,254.96,8.9,204.39,204.58,0.14,0.39,0.01,1001.84,12.5,95.1,264.0,0.6,382.8,140.46,531.23
SKQ202010S,TSG,2020-09-01T18:14:00Z,-149.4071,59.9079,256.89,9.0,205.76,205.52,0.29,0.38,0.0,1001.82,12.4,95.4,284.2,0.8,383.24,141.58,544.41
SKQ202010S,TSG,2020-09-01T18:15:00Z,-149.4092,59.9056,258.23,9.1,205.32,204.98,0.18,0.39,0.01,1001.86,12.2,95.6,306.4,1.1,382.9,141.65,554.91
SKQ202010S,TSG,2020-09-01T18:16:00Z,-149.4114,59.9033,259.63,9.1,205.16,204.59,0.21,0.38,0.01,1001.85,12.1,95.8,314.5,1.7,381.18,145.22,568.81
SKQ202010S,TSG,2020-09-01T18:17:00Z,-149.4135,59.901,260.49,9.1,205.1,204.72,0.17,0.39,-0.0,1001.86,12.0,95.7,320.2,1.2,379.01,151.39,589.46
SKQ202010S,TSG,2020-09-01T18:18:00Z,-149.4156,59.8987,261.83,9.1,205.29,204.88,0.2,0.38,0.0,1001.87,12.2,95.0,339.6,1.3,377.05,160.64,620.36
SKQ202010S,TSG,2020-09-01T18:19:00Z,-149.4178,59.8965,262.69,9.0,205.25,204.48,0.19,0.41,0.01,1001.89,12.2,94.7,333.8,2.1,375.56,168.05,648.99
SKQ202010S,TSG,2020-09-01T18:20:00Z,-149.4199,59.8942,264.11,9.1,205.04,204.33,0.2,0.39,0.0,1001.88,12.1,94.7,329.9,2.1,374.73,175.72,678.0
SKQ202010S,TSG,2020-09-01T18:21:00Z,-149.422,59.8919,266.59,9.1,205.47,204.98,0.23,0.4,0.0,1001.89,12.0,95.3,328.9,2.7,373.82,182.89,714.74
SKQ202010S,TSG,2020-09-01T18:22:00Z,-149.4242,59.8897,268.51,9.1,205.31,204.66,0.28,0.38,-0.0,1001.92,11.8,95.9,329.1,3.0,373.21,196.98,786.41
SKQ202010S,TSG,2020-09-01T18:23:00Z,-149.4263,59.8874,270.68,9.0,205.85,205.12,0.03,0.39,0.0,1001.92,11.7,96.3,326.2,3.2,372.76,245.17,1038.91
SKQ202010S,TSG,2020-09-01T18:24:00Z,-149.4284,59.8852,271.22,9.0,204.72,203.8,0.24,0.39,0.01,1001.95,11.6,96.7,328.3,3.8,373.05,304.24,1274.72
SKQ202010S,TSG,2020-09-01T18:25:00Z,-149.4305,59.8829,271.4,9.0,206.46,206.22,0.13,0.41,0.0,1001.95,11.4,97.2,326.8,4.2,373.86,445.95,1864.29
SKQ202010S,TSG,2020-09-01T18:26:00Z,-149.4327,59.8807,269.91,8.9,205.28,204.32,0.31,0.42,0.01,1002.0,11.4,97.3,331.2,3.6,374.33,483.1,1974.22
SKQ202010S,TSG,2020-09-01T18:27:00Z,-149.4348,59.8784,270.06,9.0,205.32,205.19,0.16,0.41,0.0,1002.0,11.5,96.7,331.8,4.1,374.37,483.42,1921.97
SKQ202010S,TSG,2020-09-01T18:28:00Z,-149.437,59.8762,268.63,9.0,206.79,206.56,0.17,0.4,0.01,1002.02,11.5,96.8,328.4,5.0,374.21,477.09,1908.99
SKQ202010S,TSG,2020-09-01T18:29:00Z,-149.4392,59.874,268.78,9.0,206.79,206.24,0.27,0.42,0.0,1002.01,11.5,97.3,325.6,5.3,374.1,492.85,1968.7
SKQ202010S,TSG,2020-09-01T18:30:00Z,-149.4414,59.8718,268.05,8.8,206.54,205.74,0.27,0.38,0.01,1002.05,11.3,97.6,324.6,5.5,373.56,486.03,1886.28
SKQ202010S,TSG,2020-09-01T18:31:00Z,-149.4436,59.8696,266.9,8.9,206.01,205.42,0.2,0.41,0.0,1002.07,11.2,97.9,325.8,5.8,373.97,519.85,1976.71
SKQ202010S,TSG,2020-09-01T18:32:00Z,-149.4458,59.8674,265.23,8.9,206.65,206.0,0.04,0.38,0.01,1002.08,11.2,98.0,329.3,5.8,371.91,325.02,1161.64
SKQ202010S,TSG,2020-09-01T18:33:00Z,-149.448,59.8652,265.62,9.0,207.83,207.59,0.16,0.4,0.0,1002.13,11.1,98.4,333.9,5.9,371.52,261.28,1012.31
SKQ202010S,TSG,2020-09-01T18:34:00Z,-149.4503,59.863,266.1,9.0,208.53,207.86,0.33,0.39,0.01,1002.15,11.1,98.4,338.1,5.7,371.93,254.67,1003.35
SKQ202010S,TSG,2020-09-01T18:35:00Z,-149.4527,59.8608,266.74,8.9,208.82,207.67,0.34,0.46,0.01,1002.14,11.2,98.5,340.4,5.9,373.6,422.92,1694.62
SKQ202010S,TSG,2020-09-01T18:36:00Z,-149.4549,59.8587,266.68,8.4,205.71,203.81,0.45,0.4,0.0,1002.19,11.2,98.3,340.3,5.6,373.49,377.27,1382.28
SKQ202010S,TSG,2020-09-01T18:37:00Z,-149.4567,59.8567,267.44,7.3,202.83,201.92,0.35,0.42,0.03,1002.18,11.3,97.9,338.8,5.6,372.8,337.55,1354.17
SKQ202010S,TSG,2020-09-01T18:38:00Z,-149.4583,59.855,267.18,6.5,208.58,207.73,0.18,0.38,0.0,1002.2,11.4,97.6,341.1,5.8,372.26,322.67,1226.28
SKQ202010S,TSG,2020-09-01T18:39:00Z,-149.46,59.8535,267.65,6.1,208.22,205.76,0.42,0.42,0.0,1002.18,11.5,97.0,344.6,5.7,371.75,332.24,1316.15
SKQ202010S,TSG,2020-09-01T18:40:00Z,-149.4615,59.852,268.1,6.1,207.12,205.67,0.25,0.41,0.01,1002.2,11.6,96.5,346.6,5.7,372.51,356.58,1370.09
SKQ202010S,TSG,2020-09-01T18:41:00Z,-149.4631,59.8505,267.78,6.0,208.08,206.37,0.35,0.39,0.0,1002.22,11.7,95.6,346.9,5.8,371.57,293.74,1127.36
SKQ202010S,TSG,2020-09-01T18:42:00Z,-149.4646,59.849,268.16,5.6,206.89,203.52,0.45,0.43,0.0,1002.18,11.7,95.4,348.2,5.6,371.6,310.78,1238.95
SKQ202010S,TSG,2020-09-01T18:43:00Z,-149.4658,59.8477,268.21,4.9,205.33,202.1,0.42,0.43,0.02,1002.16,11.8,94.8,351.7,5.6,372.79,354.02,1417.64
SKQ202010S,TSG,2020-09-01T18:44:00Z,-149.4669,59.8465,268.56,4.5,205.64,202.4,0.37,0.38,0.0,1002.21,11.9,93.8,355.4,5.2,373.36,300.07,1150.32
SKQ202010S,TSG,2020-09-01T18:45:00Z,-149.4679,59.8455,268.8,3.4,203.82,195.61,0.24,0.39,0.0,1002.22,12.0,94.3,1.2,5.0,374.59,260.86,1009.76
SKQ202010S,TSG,2020-09-01T18:46:00Z,-149.4685,59.8448,268.42,2.3,201.9,197.87,0.13,0.38,0.01,1002.22,12.0,94.8,3.0,4.4,376.01,206.33,780.93
SKQ202010S,TSG,2020-09-01T18:47:00Z,-149.4689,59.8444,268.84,1.4,219.43,177.64,-0.66,0.37,0.01,1002.25,12.1,95.0,37.8,3.0,379.02,181.61,698.48
SKQ202010S,TSG,2020-09-01T18:48:00Z,-149.4694,59.8441,268.65,1.2,223.82,124.76,-0.44,0.32,0.0,1002.28,12.1,94.5,3.8,6.5,382.2,173.21,683.37
SKQ202010S,TSG,2020-09-01T18:49:00Z,-149.4698,59.8439,268.9,1.0,216.87,84.55,-0.35,0.36,0.0,1002.25,11.8,93.2,348.4,7.2,387.47,165.62,678.11
SKQ202010S,TSG,2020-09-01T18:50:00Z,-149.47,59.8438,269.02,0.3,75.03,63.77,-0.3,0.37,0.01,1002.29,11.6,93.3,347.6,6.5,392.73,154.53,646.05
SKQ202010S,TSG,2020-09-01T18:51:00Z,-149.4693,59.8439,268.69,2.2,68.67,68.2,-0.27,0.4,0.0,1002.3,11.6,93.0,349.7,6.3,395.41,146.22,617.37
SKQ202010S,TSG,2020-09-01T18:52:00Z,-149.4681,59.8441,268.59,1.9,69.96,67.9,-0.15,0.37,0.0,1002.32,11.6,93.0,351.2,6.4,397.75,142.47,604.19
SKQ202010S,TSG,2020-09-01T18:53:00Z,-149.4674,59.8443,268.78,1.0,73.41,67.28,-0.41,0.36,0.01,1002.34,11.6,93.8,354.8,6.3,399.69,141.3,597.54
SKQ202010S,TSG,2020-09-01T18:54:00Z,-149.467,59.8443,268.91,0.5,52.94,73.29,-0.11,0.36,0.0,1002.38,11.5,93.9,353.2,6.1,400.4,139.34,590.4
SKQ202010S,TSG,2020-09-01T18:55:00Z,-149.4669,59.8444,269.29,0.2,20.06,85.09,-0.36,0.34,-0.0,1002.41,11.5,94.0,353.8,6.2,400.63,138.83,584.86
SKQ202010S,TSG,2020-09-01T18:56:00Z,-149.4669,59.8445,268.94,0.1,1.76,95.47,-0.68,0.34,0.02,1002.43,11.6,94.3,350.9,5.5,400.62,140.75,585.77
SKQ202010S,TSG,2020-09-01T18:57:00Z,-149.4669,59.8445,269.16,0.1,44.78,106.41,-0.5,0.37,0.0,1002.44,11.7,94.4,347.2,5.3,400.41,144.81,591.4
SKQ202010S,TSG,2020-09-01T18:58:00Z,-149.4668,59.8445,269.11,0.1,27.51,118.96,-0.39,0.31,0.0,1002.49,11.7,94.1,345.6,5.3,400.33,151.79,604.49
SKQ202010S,TSG,2020-09-01T18:59:00Z,-149.4668,59.8445,269.0,0.1,24.66,122.59,-0.47,0.37,0.0,1002.49,11.8,94.3,346.5,5.2,400.86,160.82,631.07
SKQ202010S,TSG,2020-09-01T19:00:00Z,-149.4668,59.8445,269.32,0.1,38.76,133.28,-0.47,0.4,0.0,1002.53,12.0,94.9,341.1,3.3,399.89,173.2,659.9
SKQ202010S,TSG,2020-09-01T19:01:00Z,-149.4668,59.8446,269.12,0.1,95.68,144.84,-0.42,0.31,0.0,1002.56,12.1,95.3,336.1,1.9,399.82,181.61,677.56
SKQ202010S,TSG,2020-09-01T19:02:00Z,-149.4667,59.8446,269.05,0.1,252.9,157.08,-0.25,0.39,0.0,1002.58,12.2,95.0,350.7,1.8,399.13,189.54,698.73
SKQ202010S,TSG,2020-09-01T19:03:00Z,-149.4668,59.8445,268.92,0.3,247.99,159.77,-0.16,0.36,-0.0,1002.61,12.2,94.3,10.7,2.6,398.26,196.31,719.24
SKQ202010S,TSG,2020-09-01T19:04:00Z,-149.467,59.8445,268.79,0.4,246.75,159.66,-0.17,0.33,0.01,1002.58,12.4,94.2,13.0,2.8,397.63,200.85,734.14
SKQ202010S,TSG,2020-09-01T19:05:00Z,-149.4672,59.8445,268.76,0.4,252.34,159.59,-0.17,0.39,0.0,1002.59,12.4,93.3,11.3,3.2,396.6,203.07,739.56
SKQ202010S,TSG,2020-09-01T19:06:00Z,-149.4674,59.8444,268.69,0.5,250.1,159.65,-0.18,0.33,0.0,1002.63,12.4,92.7,13.7,3.0,394.78,203.31,739.97
SKQ202010S,TSG,2020-09-01T19:07:00Z,-149.4677,59.8444,268.71,0.3,251.28,154.33,-0.0,0.42,0.01,1002.62,12.5,92.8,14.0,3.6,391.89,236.35,948.54
SKQ202010S,TSG,2020-09-01T19:08:00Z,-149.4678,59.8444,268.87,0.1,226.62,152.26,0.05,0.38,0.0,1002.63,12.5,92.6,4.3,2.9,388.26,297.75,1142.53
SKQ202010S,TSG,2020-09-01T19:09:00Z,-149.4677,59.8444,268.76,0.1,68.03,152.87,0.02,0.34,0.0,1002.64,12.5,92.6,4.6,2.6,384.1,223.41,863.97
SKQ202010S,TSG,2020-09-01T19:10:00Z,-149.4677,59.8444,268.61,0.2,60.79,154.24,-0.01,0.37,0.0,1002.64,12.5,92.6,5.1,2.4,380.99,204.84,820.74
SKQ202010S,TSG,2020-09-01T19:11:00Z,-149.4676,59.8444,268.53,0.2,55.68,155.3,0.1,0.44,0.0,1002.63,12.5,92.5,357.3,1.8,374.7,198.7,768.35
SKQ202010S,TSG,2020-09-01T19:12:00Z,-149.4675,59.8444,268.7,0.0,169.11,156.87,-0.13,0.31,0.01,1002.65,12.5,92.4,7.8,2.8,370.55,198.26,768.11
SKQ202010S,TSG,2020-09-01T19:13:00Z,-149.4675,59.8444,268.69,0.1,255.76,155.99,-0.19,0.37,0.0,1002.67,12.5,92.1,7.5,2.4,367.28,196.2,775.36
SKQ202010S,TSG,2020-09-01T19:14:00Z,-149.4676,59.8444,268.75,0.2,249.13,155.17,-0.11,0.41,0.03,1002.67,12.5,92.2,8.6,3.2,365.0,212.71,937.73
SKQ202010S,TSG,2020-09-01T19:15:00Z,-149.4677,59.8444,268.64,0.2,239.5,154.84,-0.17,0.3,0.0,1002.71,12.5,92.1,11.7,2.7,363.31,238.18,993.08
SKQ202010S,TSG,2020-09-01T19:16:00Z,-149.4678,59.8444,268.54,0.3,247.14,154.92,-0.09,0.38,0.01,1002.72,12.4,92.1,8.1,2.9,362.04,213.15,914.18
SKQ202010S,TSG,2020-09-01T19:17:00Z,-149.468,59.8443,268.84,0.3,244.0,147.53,-0.06,0.41,0.01,1002.73,12.3,92.4,10.8,4.2,361.71,267.61,1106.58
SKQ202010S,TSG,2020-09-01T19:18:00Z,-149.4681,59.8443,269.2,0.2,226.75,142.19,-0.03,0.34,-0.0,1002.74,12.2,92.3,9.3,4.2,360.53,360.97,1423.28
SKQ202010S,TSG,2020-09-01T19:19:00Z,-149.4681,59.8443,269.07,0.1,242.35,140.13,-0.14,0.35,0.0,1002.74,12.1,92.3,12.4,4.2,359.35,290.13,1175.24
SKQ202010S,TSG,2020-09-01T19:20:00Z,-149.4681,59.8443,268.7,0.0,239.72,140.07,0.09,0.37,0.01,1002.74,12.1,92.9,15.3,4.3,358.5,365.03,1512.38
SKQ202010S,TSG,2020-09-01T19:21:00Z,-149.4681,59.8443,268.63,0.1,43.72,139.16,-0.09,0.36,0.0,1002.79,12.1,93.1,15.0,4.4,357.86,433.98,1668.97
SKQ202010S,TSG,2020-09-01T19:22:00Z,-149.4681,59.8443,268.64,0.1,58.62,139.72,-0.05,0.4,0.02,1002.78,12.2,92.8,13.2,4.5,356.46,342.43,1380.15
SKQ202010S,TSG,2020-09-01T19:23:00Z,-149.468,59.8443,268.85,0.2,49.52,141.01,-0.12,0.34,0.0,1002.78,12.2,93.1,8.1,4.6,355.48,299.36,1185.74
SKQ202010S,TSG,2020-09-01T19:24:00Z,-149.4679,59.8443,268.57,0.1,53.31,141.12,-0.44,0.33,0.0,1002.79,12.2,93.8,1.9,5.0,353.92,241.61,1018.94
SKQ202010S,TSG,2020-09-01T19:25:00Z,-149.4679,59.8444,268.77,0.1,49.83,140.25,-0.01,0.39,0.01,1002.81,12.1,93.8,358.6,5.4,352.68,237.43,995.51
SKQ202010S,TSG,2020-09-01T19:26:00Z,-149.4678,59.8444,268.95,0.1,47.71,140.94,0.03,0.4,0.0,1002.82,11.9,93.4,353.7,5.0,351.54,218.77,924.82
SKQ202010S,TSG,2020-09-01T19:27:00Z,-149.4678,59.8444,268.98,0.1,58.83,141.19,-0.05,0.37,0.0,1002.84,11.9,93.1,352.1,5.2,350.3,198.21,842.16
SKQ202010S,TSG,2020-09-01T19:28:00Z,-149.4677,59.8444,268.7,0.1,30.48,140.8,0.0,0.37,0.0,1002.85,11.6,91.9,355.3,5.3,349.77,228.74,1022.45
SKQ202010S,TSG,2020-09-01T19:29:00Z,-149.4677,59.8444,268.75,0.1,53.95,140.43,-0.0,0.35,-0.0,1002.87,11.5,92.0,354.1,5.1,351.1,324.43,1313.87
SKQ202010S,TSG,2020-09-01T19:30:00Z,-149.4677,59.8444,268.95,0.1,228.73,137.19,-0.14,0.38,0.01,1002.9,11.5,92.3,355.2,5.2,352.41,263.77,1147.64
SKQ202010S,TSG,2020-09-01T19:31:00Z,-149.4677,59.8444,268.72,0.0,32.75,136.22,-0.09,0.36,0.0,1002.9,11.5,92.2,352.9,4.8,355.25,453.32,1825.31
SKQ202010S,TSG,2020-09-01T19:32:00Z,-149.4677,59.8444,268.91,0.0,357.86,135.62,-0.11,0.35,0.0,1002.93,11.6,92.2,349.8,4.8,359.56,519.7,1954.22
SKQ202010S,TSG,2020-09-01T19:33:00Z,-149.4677,59.8444,269.43,0.0,22.93,135.51,-0.27,0.34,0.0,1002.95,11.7,92.3,348.8,4.0,358.32,478.4,1879.56
SKQ202010S,TSG,2020-09-01T19:34:00Z,-149.4677,59.8444,268.81,0.0,125.48,137.25,-0.12,0.39,0.01,1002.94,11.9,92.3,348.4,4.1,361.36,577.93,2171.73
SKQ202010S,TSG,2020-09-01T19:35:00Z,-149.4677,59.8444,269.11,0.0,316.27,137.46,-0.1,0.38,0.0,1002.97,12.1,91.6,350.2,4.1,363.13,585.36,2182.53
SKQ202010S,TSG,2020-09-01T19:36:00Z,-149.4677,59.8444,268.93,0.0,140.85,137.36,0.11,0.36,0.0,1002.97,12.2,91.3,349.1,3.9,363.15,459.36,1679.71
SKQ202010S,TSG,2020-09-01T19:37:00Z,-149.4677,59.8444,269.14,0.0,169.42,137.26,-0.12,0.37,0.02,1003.0,12.2,90.5,350.3,4.9,363.02,332.44,1352.17
SKQ202010S,TSG,2020-09-01T19:38:00Z,-149.4677,59.8444,269.05,0.0,229.93,137.4,0.12,0.35,0.0,1003.03,12.2,90.4,350.8,4.7,363.67,375.79,1438.42
SKQ202010S,TSG,2020-09-01T19:39:00Z,-149.4678,59.8444,269.0,0.2,226.5,137.69,0.8,0.42,0.0,1003.03,12.3,90.1,351.4,4.2,364.44,411.23,1592.79
SKQ202010S,TSG,2020-09-01T19:40:00Z,-149.4679,59.8444,269.15,0.1,229.94,135.78,0.27,0.41,0.02,1003.04,12.3,89.9,351.5,5.2,367.62,462.26,1726.09
SKQ202010S,TSG,2020-09-01T19:41:00Z,-149.4679,59.8444,269.17,0.0,62.78,135.68,0.21,0.35,0.0,1003.07,12.3,90.4,351.8,4.5,366.88,400.62,1528.36
SKQ202010S,TSG,2020-09-01T19:42:00Z,-149.4679,59.8444,268.93,0.0,212.52,139.25,-0.08,0.37,-0.0,1003.1,12.3,90.1,351.7,4.6,368.2,338.79,1285.76
SKQ202010S,TSG,2020-09-01T19:43:00Z,-149.4679,59.8444,269.11,0.0,244.54,138.76,-0.1,0.34,0.0,1003.12,12.3,90.2,352.7,4.8,369.96,284.2,1066.03
SKQ202010S,TSG,2020-09-01T19:44:00Z,-149.4679,59.8444,269.45,0.0,9.8,138.0,-0.1,0.41,0.01,1003.1,12.4,90.1,350.1,4.2,372.5,256.03,968.13
SKQ202010S,TSG,2020-09-01T19:45:00Z,-149.4679,59.8444,269.35,0.0,171.83,137.86,-0.01,0.34,0.0,1003.15,12.4,90.0,352.5,4.6,376.28,235.55,890.46
SKQ202010S,TSG,2020-09-01T19:46:00Z,-149.4679,59.8444,269.17,0.0,95.32,137.78,-0.11,0.36,0.01,1003.15,12.4,90.0,354.2,4.5,380.23,229.79,865.53
SKQ202010S,TSG,2020-09-01T19:47:00Z,-149.4679,59.8444,269.16,0.0,255.58,137.63,-0.05,0.35,0.0,1003.16,12.4,89.8,352.6,4.7,383.3,230.49,863.78
SKQ202010S,TSG,2020-09-01T19:48:00Z,-149.4679,59.8444,269.44,0.0,33.73,137.44,0.05,0.38,-0.0,1003.18,12.4,90.2,355.8,4.2,384.9,230.43,870.08
SKQ202010S,TSG,2020-09-01T19:49:00Z,-149.4679,59.8444,269.25,0.0,77.86,137.37,-0.08,0.39,0.01,1003.21,12.5,90.1,353.2,4.3,384.79,239.16,916.08
SKQ202010S,TSG,2020-09-01T19:50:00Z,-149.4679,59.8444,269.17,0.0,178.48,137.41,-0.07,0.33,-0.0,1003.18,12.5,90.1,353.0,4.4,384.22,255.23,982.06
SKQ202010S,TSG,2020-09-01T19:51:00Z,-149.4679,59.8444,269.66,0.0,350.04,137.49,0.0,0.41,0.0,1003.21,12.5,90.2,353.4,4.1,381.61,261.58,998.18
SKQ202010S,TSG,2020-09-01T19:52:00Z,-149.4679,59.8444,269.15,0.0,175.17,137.67,-0.06,0.34,-0.0,1003.21,12.5,90.0,356.4,3.8,377.52,233.8,897.72
SKQ202010S,TSG,2020-09-01T19:53:00Z,-149.4679,59.8444,269.18,0.0,316.88,136.67,-0.06,0.36,-0.0,1003.22,12.5,90.0,356.3,4.0,372.25,215.86,859.3
SKQ202010S,TSG,2020-09-01T19:54:00Z,-149.4679,59.8444,269.2,0.0,137.52,137.91,-0.04,0.38,0.01,1003.2,12.5,90.3,359.0,4.2,367.32,190.27,789.52
SKQ202010S,TSG,2020-09-01T19:55:00Z,-149.4679,59.8444,269.43,0.0,350.85,138.04,-0.09,0.38,0.0,1003.22,12.5,90.5,5.7,3.7,364.07,172.49,749.91
SKQ202010S,TSG,2020-09-01T19:56:00Z,-149.4679,59.8444,269.31,0.0,169.19,137.83,-0.03,0.33,0.0,1003.22,12.5,90.7,3.5,3.9,362.36,164.47,728.92
SKQ202010S,TSG,2020-09-01T19:57:00Z,-149.4679,59.8444,269.25,0.0,322.7,137.96,0.08,0.35,0.01,1003.22,12.5,90.6,2.8,3.9,361.95,162.91,713.86
SKQ202010S,TSG,2020-09-01T19:58:00Z,-149.4679,59.8444,269.34,0.0,163.51,137.79,-0.08,0.37,0.0,1003.24,12.5,90.9,1.1,3.9,362.27,165.17,706.98
SKQ202010S,TSG,2020-09-01T19:59:00Z,-149.4679,59.8444,269.28,0.0,12.22,137.38,-0.03,0.36,0.0,1003.23,12.5,90.7,2.5,3.5,362.71,170.57,718.51
SKQ202010S,TSG,2020-09-01T20:00:00Z,-149.4679,59.8444,269.42,0.0,330.35,137.24,0.01,0.4,0.0,1003.23,12.5,90.9,1.0,3.1,361.7,182.98,754.75
SKQ202010S,TSG,2020-09-01T20:01:00Z,-149.4679,59.8444,269.33,0.0,307.81,137.63,0.06,0.38,0.0,1003.24,12.5,91.2,2.3,3.0,359.7,208.1,846.76
SKQ202010S,TSG,2020-09-01T20:02:00Z,-149.4679,59.8444,269.39,0.0,124.65,137.59,-0.14,0.34,0.01,1003.26,12.5,91.2,4.6,3.0,357.72,483.39,1866.94
SKQ202010S,TSG,2020-09-01T20:03:00Z,-149.4679,59.8444,269.43,0.0,323.69,137.64,-0.02,0.38,-0.0,1003.26,12.6,91.0,10.9,3.0,356.84,644.43,2289.87
SKQ202010S,TSG,2020-09-01T20:04:00Z,-149.4679,59.8444,269.37,0.0,213.46,137.35,-0.03,0.39,0.02,1003.26,12.6,90.9,9.2,3.1,354.45,471.21,1639.58
SKQ202010S,TSG,2020-09-01T20:05:00Z,-149.4679,59.8444,269.26,0.0,83.73,137.72,-0.04,0.36,0.0,1003.27,12.6,91.0,8.1,3.1,352.82,432.87,1662.94
SKQ202010S,TSG,2020-09-01T20:06:00Z,-149.4679,59.8444,269.38,0.0,296.04,137.77,-0.03,0.34,0.01,1003.28,12.6,91.0,8.1,3.2,352.14,352.01,1333.44
SKQ202010S,TSG,2020-09-01T20:07:00Z,-149.4679,59.8444,269.4,0.0,144.27,137.43,-0.0,0.37,0.0,1003.28,12.6,91.1,358.3,4.0,350.43,275.36,1053.34
SKQ202010S,TSG,2020-09-01T20:08:00Z,-149.4679,59.8444,269.4,0.0,319.23,137.58,-0.0,0.35,0.0,1003.32,12.4,91.8,3.2,3.9,349.36,251.11,1021.68
SKQ202010S,TSG,2020-09-01T20:09:00Z,-149.4679,59.8444,269.53,0.0,149.48,137.65,-0.06,0.36,0.01,1003.32,12.3,92.1,4.9,4.0,348.45,356.26,1466.04
SKQ202010S,TSG,2020-09-01T20:10:00Z,-149.4679,59.8444,269.42,0.0,201.13,137.73,-0.05,0.37,0.01,1003.33,12.4,92.6,11.0,3.7,348.48,594.33,2093.6
SKQ202010S,TSG,2020-09-01T20:11:00Z,-149.4679,59.8444,269.52,0.0,65.41,137.37,-0.04,0.36,-0.0,1003.34,12.4,92.3,14.0,3.7,348.64,572.68,2036.45
SKQ202010S,TSG,2020-09-01T20:12:00Z,-149.4679,59.8444,269.48,0.0,346.92,137.56,-0.07,0.39,0.0,1003.32,12.3,91.4,18.4,3.9,347.86,553.33,1938.56
SKQ202010S,TSG,2020-09-01T20:13:00Z,-149.4679,59.8444,269.42,0.0,170.5,137.75,0.07,0.37,0.0,1003.34,12.3,90.6,16.5,4.1,347.52,454.23,1720.46
SKQ202010S,TSG,2020-09-01T20:14:00Z,-149.4679,59.8444,269.33,0.0,344.28,137.62,0.19,0.38,0.01,1003.34,12.3,90.7,15.3,4.1,346.92,527.07,1906.24
SKQ202010S,TSG,2020-09-01T20:15:00Z,-149.4679,59.8444,269.54,0.0,168.28,137.52,0.05,0.37,0.0,1003.35,12.4,90.9,12.3,4.6,347.25,545.22,1986.64
SKQ202010S,TSG,2020-09-01T20:16:00Z,-149.4679,59.8444,269.48,0.0,13.9,137.52,-0.26,0.32,0.0,1003.38,12.4,90.5,14.6,4.6,346.89,561.3,2017.41
SKQ202010S,TSG,2020-09-01T20:17:00Z,-149.4679,59.8444,269.55,0.0,196.8,137.12,-0.38,0.35,-0.0,1003.38,12.4,90.2,12.4,4.7,347.03,564.17,2021.72
SKQ202010S,TSG,2020-09-01T20:18:00Z,-149.4679,59.8444,269.49,0.0,126.44,137.44,-0.19,0.38,0.0,1003.38,12.4,90.3,6.4,4.5,347.02,565.88,2027.45
SKQ202010S,TSG,2020-09-01T20:19:00Z,-149.4679,59.8444,269.49,0.0,29.86,138.1,0.1,0.35,0.0,1003.4,12.5,90.8,8.8,4.2,347.12,572.59,2039.55
SKQ202010S,TSG,2020-09-01T20:20:00Z,-149.4679,59.8444,269.47,0.0,232.53,138.2,0.34,0.4,0.0,1003.42,12.5,90.5,10.3,4.1,347.78,578.54,2050.2
SKQ202010S,TSG,2020-09-01T20:21:00Z,-149.4679,59.8444,269.65,0.0,313.78,137.72,0.37,0.4,0.0,1003.46,12.5,90.5,8.6,3.9,348.16,582.62,2057.41
SKQ202010S,TSG,2020-09-01T20:22:00Z,-149.4679,59.8444,269.55,0.0,147.19,137.66,0.42,0.36,0.01,1003.47,12.6,90.7,10.6,4.0,349.09,585.76,2063.34
SKQ202010S,TSG,2020-09-01T20:23:00Z,-149.4679,59.8444,269.63,0.0,49.01,137.33,0.17,0.37,-0.0,1003.5,12.6,90.3,8.0,4.2,349.53,591.94,2080.8
SKQ202010S,TSG,2020-09-01T20:24:00Z,-149.4679,59.8444,269.55,0.0,312.02,137.61,0.41,0.42,0.01,1003.53,12.6,89.9,7.2,4.2,349.43,604.28,2106.98
SKQ202010S,TSG,2020-09-01T20:25:00Z,-149.4679,59.8444,269.82,0.0,292.3,137.51,0.38,0.39,0.01,1003.53,12.7,90.4,1.7,4.6,349.26,620.96,2145.15
SKQ202010S,TSG,2020-09-01T20:26:00Z,-149.4679,59.8444,269.54,0.0,130.06,137.54,0.4,0.38,0.0,1003.54,12.6,90.7,0.3,4.9,348.73,632.85,2177.06
SKQ202010S,TSG,2020-09-01T20:27:00Z,-149.4679,59.8444,269.61,0.0,345.33,137.62,-0.21,0.34,0.0,1003.53,12.6,90.8,1.4,5.0,348.58,646.96,2218.65
SKQ202010S,TSG,2020-09-01T20:28:00Z,-149.4679,59.8444,269.62,0.0,259.54,137.29,0.04,0.38,-0.0,1003.57,12.6,91.1,3.7,4.6,348.87,613.47,2066.16
SKQ202010S,TSG,2020-09-01T20:29:00Z,-149.4679,59.8444,269.84,0.0,288.81,137.29,-0.08,0.36,0.0,1003.57,12.6,90.8,4.0,4.5,348.94,494.49,1733.73
SKQ202010S,TSG,2020-09-01T20:30:00Z,-149.4679,59.8444,270.03,0.1,234.14,136.82,-0.01,0.35,0.0,1003.57,12.7,91.3,1.7,4.1,348.69,464.99,1665.45
SKQ202010S,TSG,2020-09-01T20:31:00Z,-149.4679,59.8444,269.41,0.0,36.23,134.34,0.02,0.34,-0.0,1003.6,12.7,91.8,1.4,3.7,348.88,411.1,1506.75
SKQ202010S,TSG,2020-09-01T20:32:00Z,-149.4679,59.8444,269.7,0.2,53.62,135.7,0.04,0.4,0.01,1003.6,12.7,91.9,1.1,3.3,349.23,376.48,1440.28
SKQ202010S,TSG,2020-09-01T20:33:00Z,-149.4677,59.8444,269.75,0.3,47.89,137.97,-0.12,0.35,0.0,1003.62,12.7,91.8,1.8,2.8,349.86,416.21,1560.59
SKQ202010S,TSG,2020-09-01T20:34:00Z,-149.4676,59.8445,269.62,0.4,49.83,139.37,-0.03,0.37,0.0,1003.66,12.7,91.5,359.6,2.6,350.99,389.65,1414.87
SKQ202010S,TSG,2020-09-01T20:35:00Z,-149.4674,59.8446,269.83,0.4,45.11,138.64,-0.17,0.37,0.02,1003.66,12.7,91.6,354.8,2.6,352.26,270.17,1069.54
SKQ202010S,TSG,2020-09-01T20:36:00Z,-149.4673,59.8446,270.04,0.3,50.18,139.51,-0.22,0.33,-0.0,1003.68,12.7,91.5,349.9,2.4,353.1,247.84,1010.92
SKQ202010S,TSG,2020-09-01T20:37:00Z,-149.4672,59.8446,269.89,0.1,64.78,139.57,-0.27,0.33,0.0,1003.67,12.7,91.3,354.8,2.6,353.86,253.4,1044.44
SKQ202010S,TSG,2020-09-01T20:38:00Z,-149.4673,59.8446,270.41,0.0,244.45,138.08,0.22,0.38,-0.0,1003.68,12.7,91.6,352.6,2.7,353.89,279.24,1127.36
SKQ202010S,TSG,2020-09-01T20:39:00Z,-149.4673,59.8446,270.08,0.0,97.43,137.47,0.41,0.4,0.0,1003.68,12.8,91.5,355.7,3.0,353.45,321.62,1269.5
SKQ202010S,TSG,2020-09-01T20:40:00Z,-149.4673,59.8446,269.97,0.1,238.5,137.49,0.2,0.36,-0.0,1003.66,12.8,91.5,354.2,3.0,353.63,378.85,1461.39
SKQ202010S,TSG,2020-09-01T20:41:00Z,-149.4673,59.8446,270.68,0.1,223.44,135.6,0.66,0.42,-0.0,1003.68,12.7,91.0,355.4,3.9,354.07,390.75,1454.89
SKQ202010S,TSG,2020-09-01T20:42:00Z,-149.4673,59.8446,270.06,0.0,171.83,136.93,0.34,0.38,0.0,1003.68,12.7,91.0,355.1,3.4,354.92,342.2,1322.92
SKQ202010S,TSG,2020-09-01T20:43:00Z,-149.4673,59.8446,270.25,0.0,12.39,139.29,0.51,0.39,0.0,1003.68,12.6,91.1,358.9,3.9,355.83,354.74,1350.79
SKQ202010S,TSG,2020-09-01T20:44:00Z,-149.4673,59.8446,270.0,0.0,357.12,138.49,0.41,0.39,0.01,1003.66,12.5,90.9,359.2,3.8,356.51,338.52,1330.22
SKQ202010S,TSG,2020-09-01T20:45:00Z,-149.4673,59.8446,270.26,0.0,47.04,137.85,0.5,0.37,0.0,1003.71,12.5,90.9,358.8,3.4,357.5,337.57,1252.74
SKQ202010S,TSG,2020-09-01T20:46:00Z,-149.4673,59.8446,270.38,0.0,241.92,137.88,-0.0,0.4,0.03,1003.72,12.5,90.9,0.4,3.1,358.35,268.42,1065.9
SKQ202010S,TSG,2020-09-01T20:47:00Z,-149.4673,59.8446,270.57,0.0,3.1,137.62,0.0,0.38,0.0,1003.72,12.5,91.1,356.4,3.0,359.8,397.0,1581.51
SKQ202010S,TSG,2020-09-01T20:48:00Z,-149.4673,59.8446,270.79,0.0,173.26,137.55,-0.01,0.33,0.01,1003.73,12.5,90.7,354.7,2.9,362.41,712.01,2430.57
SKQ202010S,TSG,2020-09-01T20:49:00Z,-149.4673,59.8446,270.26,0.0,34.99,137.09,0.05,0.39,0.0,1003.74,12.6,90.7,356.4,2.5,363.36,583.82,1889.8
SKQ202010S,TSG,2020-09-01T20:50:00Z,-149.4673,59.8446,270.28,0.0,13.42,137.87,0.0,0.37,0.0,1003.73,12.6,90.3,4.1,2.8,362.74,321.92,1167.95
SKQ202010S,TSG,2020-09-01T20:51:00Z,-149.4673,59.8446,270.42,0.0,253.66,138.08,0.02,0.34,0.01,1003.73,12.6,90.2,0.8,3.2,361.89,287.81,1071.21
SKQ202010S,TSG,2020-09-01T20:52:00Z,-149.4673,59.8446,270.5,0.0,131.13,137.12,0.02,0.36,-0.0,1003.72,12.6,90.1,5.3,3.5,361.04,252.5,955.17
SKQ202010S,TSG,2020-09-01T20:53:00Z,-149.4673,59.8446,270.48,0.0,143.93,136.98,-0.05,0.39,-0.0,1003.7,12.5,89.7,2.0,4.2,359.85,234.69,903.41
SKQ202010S,TSG,2020-09-01T20:54:00Z,-149.4673,59.8446,270.0,0.0,335.97,137.15,-0.01,0.36,0.01,1003.73,12.5,89.4,359.6,4.3,358.81,229.3,894.5
SKQ202010S,TSG,2020-09-01T20:55:00Z,-149.4673,59.8446,270.51,0.0,25.51,137.13,-0.25,0.36,0.0,1003.74,12.5,90.2,0.1,4.2,358.13,251.73,996.01
SKQ202010S,TSG,2020-09-01T20:56:00Z,-149.4673,59.8446,270.61,0.0,226.78,137.31,-0.31,0.29,0.0,1003.75,12.5,90.5,358.8,3.8,358.14,294.06,1116.98
SKQ202010S,TSG,2020-09-01T20:57:00Z,-149.4673,59.8446,270.41,0.0,337.89,137.35,-0.26,0.43,0.02,1003.76,12.6,90.3,356.4,3.0,358.52,277.2,1046.72
SKQ202010S,TSG,2020-09-01T20:58:00Z,-149.4673,59.8446,270.27,0.0,152.74,137.78,-0.26,0.34,0.0,1003.8,12.6,90.2,355.8,3.0,358.15,265.18,1021.84
SKQ202010S,TSG,2020-09-01T20:59:00Z,-149.4673,59.8446,270.74,0.0,320.15,138.02,-0.28,0.34,0.01,1003.83,12.7,90.6,354.5,2.9,357.21,279.06,1091.51
SKQ202010S,TSG,2020-09-01T21:00:00Z,-149.4673,59.8446,270.59,0.0,348.25,137.75,-0.26,0.34,-0.0,1003.85,12.8,90.6,350.6,2.5,356.47,312.03,1183.98
SKQ202010S,TSG,2020-09-01T21:01:00Z,-149.4673,59.8446,270.4,0.0,14.2,137.92,-0.27,0.39,0.0,1003.85,12.8,89.8,351.1,2.6,356.28,330.38,1257.99
SKQ202010S,TSG,2020-09-01T21:02:00Z,-149.4674,59.8446,270.51,0.2,239.62,137.74,-0.12,0.35,-0.0,1003.91,12.8,89.8,350.5,2.0,355.78,374.33,1425.72
SKQ202010S,TSG,2020-09-01T21:03:00Z,-149.4675,59.8446,270.39,0.3,223.22,136.34,0.34,0.37,-0.0,1003.92,12.9,89.8,356.5,2.0,356.14,469.56,1727.21
SKQ202010S,TSG,2020-09-01T21:04:00Z,-149.4676,59.8445,269.83,0.2,228.46,136.12,0.38,0.37,0.01,1003.94,12.9,89.6,359.3,1.9,356.45,616.35,2025.71
SKQ202010S,TSG,2020-09-01T21:05:00Z,-149.4676,59.8445,269.9,0.1,221.94,136.8,0.36,0.38,0.0,1003.94,12.9,89.4,353.3,1.8,356.31,539.82,1908.73
SKQ202010S,TSG,2020-09-01T21:06:00Z,-149.4677,59.8445,269.88,0.1,238.56,137.4,0.38,0.39,0.0,1003.97,13.0,89.3,355.9,2.1,356.21,604.7,1999.71
SKQ202010S,TSG,2020-09-01T21:07:00Z,-149.4677,59.8444,270.14,0.1,218.74,137.71,0.43,0.4,0.03,1003.98,13.0,88.9,352.2,2.0,356.24,492.19,1653.74
SKQ202010S,TSG,2020-09-01T21:08:00Z,-149.4677,59.8444,270.02,0.1,232.63,137.86,0.38,0.38,0.0,1003.99,13.0,88.7,353.2,2.2,356.22,550.25,1909.91
SKQ202010S,TSG,2020-09-01T21:09:00Z,-149.4678,59.8444,269.74,0.0,206.44,138.95,0.43,0.38,0.0,1003.98,13.1,88.9,354.4,2.3,356.38,666.96,2219.49
SKQ202010S,TSG,2020-09-01T21:10:00Z,-149.4678,59.8444,269.75,0.0,52.24,139.62,0.47,0.4,0.01,1004.0,13.1,89.0,354.9,2.4,356.47,707.76,2297.2
SKQ202010S,TSG,2020-09-01T21:11:00Z,-149.4678,59.8444,269.73,0.0,94.5,138.66,0.45,0.36,-0.0,1004.02,13.2,88.6,354.6,2.2,356.1,698.48,2264.54
SKQ202010S,TSG,2020-09-01T21:12:00Z,-149.4678,59.8444,269.78,0.0,353.14,137.88,0.39,0.39,-0.0,1003.99,13.2,88.5,356.1,2.3,355.62,687.92,2236.42
SKQ202010S,TSG,2020-09-01T21:13:00Z,-149.4678,59.8444,269.86,0.0,355.4,137.58,0.08,0.37,-0.0,1004.0,13.2,88.3,354.4,1.9,355.44,677.94,2213.54
SKQ202010S,TSG,2020-09-01T21:14:00Z,-149.4678,59.8444,269.94,0.0,324.96,137.45,0.51,0.38,-0.0,1004.03,13.2,88.5,356.1,1.9,355.25,673.19,2198.48
SKQ202010S,TSG,2020-09-01T21:15:00Z,-149.4678,59.8444,270.03,0.0,234.57,137.2,0.41,0.4,-0.0,1004.06,13.3,88.7,352.3,2.0,353.93,669.46,2188.59
SKQ202010S,TSG,2020-09-01T21:16:00Z,-149.4678,59.8444,269.97,0.0,105.83,137.32,0.4,0.36,-0.0,1004.07,13.3,88.0,348.0,2.6,353.01,667.2,2180.53
SKQ202010S,TSG,2020-09-01T21:17:00Z,-149.4677,59.8444,269.75,0.0,335.54,137.56,0.24,0.41,0.01,1004.08,13.3,88.3,349.6,2.6,351.51,660.2,2166.25
SKQ202010S,TSG,2020-09-01T21:18:00Z,-149.4678,59.8444,269.98,0.0,178.69,137.24,0.31,0.34,0.0,1004.13,13.3,88.0,337.8,2.0,351.87,661.65,2166.54
SKQ202010S,TSG,2020-09-01T21:19:00Z,-149.4678,59.8444,269.78,0.0,129.1,137.52,0.4,0.41,0.0,1004.11,13.3,87.6,343.7,2.3,352.16,661.62,2165.88
SKQ202010S,TSG,2020-09-01T21:20:00Z,-149.4678,59.8444,270.03,0.0,301.63,137.32,0.33,0.38,0.01,1004.15,13.3,87.3,334.0,1.8,352.64,663.86,2165.78
SKQ202010S,TSG,2020-09-01T21:21:00Z,-149.4678,59.8444,269.82,0.0,42.42,137.59,0.38,0.42,-0.0,1004.14,13.5,87.0,343.8,1.7,352.89,672.78,2192.92
SKQ202010S,TSG,2020-09-01T21:22:00Z,-149.4678,59.8444,269.92,0.0,101.05,137.56,0.56,0.41,0.01,1004.18,13.5,86.7,347.2,2.0,353.83,678.79,2197.91
SKQ202010S,TSG,2020-09-01T21:23:00Z,-149.4677,59.8444,269.86,0.0,244.27,137.59,0.39,0.37,0.0,1004.2,13.5,87.0,342.1,1.5,354.0,680.26,2203.45
SKQ202010S,TSG,2020-09-01T21:24:00Z,-149.4677,59.8444,269.86,0.0,151.28,137.58,0.3,0.38,0.02,1004.19,13.7,86.5,342.3,0.9,354.1,678.36,2197.31
SKQ202010S,TSG,2020-09-01T21:25:00Z,-149.4678,59.8444,269.94,0.0,171.92,137.05,-0.27,0.38,0.0,1004.23,13.8,85.7,263.8,0.9,355.03,670.74,2187.4
SKQ202010S,TSG,2020-09-01T21:26:00Z,-149.4678,59.8444,269.86,0.0,352.32,137.76,-0.38,0.35,0.0,1004.24,14.0,84.6,293.7,1.0,355.46,665.73,2182.36
SKQ202010S,TSG,2020-09-01T21:27:00Z,-149.4678,59.8444,269.92,0.1,354.6,137.0,-0.39,0.32,0.01,1004.25,14.1,83.6,289.0,1.2,355.66,662.66,2175.65
SKQ202010S,TSG,2020-09-01T21:28:00Z,-149.4677,59.8445,270.07,0.4,22.31,135.12,-0.17,0.37,-0.0,1004.23,14.2,83.4,308.5,1.0,353.81,666.44,2187.73
SKQ202010S,TSG,2020-09-01T21:29:00Z,-149.4676,59.8446,269.95,0.6,24.92,137.0,-0.29,0.32,0.0,1004.25,14.1,83.3,325.6,1.4,353.4,650.17,2135.55
SKQ202010S,TSG,2020-09-01T21:30:00Z,-149.4675,59.8447,270.01,0.4,20.81,140.51,-0.4,0.35,0.0,1004.27,14.0,84.1,337.1,1.2,353.32,661.94,2197.23
SKQ202010S,TSG,2020-09-01T21:31:00Z,-149.4675,59.8448,270.27,0.2,9.27,139.48,-0.37,0.33,0.01,1004.28,14.0,84.4,326.2,1.1,353.69,653.97,2159.51
SKQ202010S,TSG,2020-09-01T21:32:00Z,-149.4674,59.8449,270.37,0.3,357.79,137.83,-0.39,0.36,0.0,1004.28,14.0,84.1,269.5,0.8,353.8,636.82,2115.74
SKQ202010S,TSG,2020-09-01T21:33:00Z,-149.4674,59.8449,269.97,0.1,37.21,137.77,-0.63,0.35,0.0,1004.29,14.2,83.5,286.0,1.7,353.73,615.99,2016.49
SKQ202010S,TSG,2020-09-01T21:34:00Z,-149.4674,59.845,269.99,0.2,54.5,137.03,-0.23,0.35,-0.0,1004.32,14.1,83.2,278.1,2.5,352.67,540.31,1853.33
SKQ202010S,TSG,2020-09-01T21:35:00Z,-149.4673,59.845,270.32,0.3,50.98,136.39,-0.37,0.36,0.02,1004.34,14.0,83.8,286.7,1.4,352.77,656.09,2170.38
SKQ202010S,TSG,2020-09-01T21:36:00Z,-149.4671,59.8451,270.19,0.2,48.98,138.36,-0.49,0.32,-0.0,1004.37,14.1,83.4,272.2,2.5,353.19,665.6,2181.79
SKQ202010S,TSG,2020-09-01T21:37:00Z,-149.4671,59.8451,270.4,0.0,58.89,139.1,-0.46,0.33,0.0,1004.35,14.0,83.9,281.9,3.5,351.64,660.79,2169.45
SKQ202010S,TSG,2020-09-01T21:38:00Z,-149.4671,59.8451,270.25,0.0,268.9,142.16,-0.35,0.34,0.01,1004.35,13.7,84.8,269.4,3.4,351.78,653.67,2148.99
SKQ202010S,TSG,2020-09-01T21:39:00Z,-149.4671,59.8451,270.49,0.0,9.46,142.02,-0.34,0.37,0.0,1004.36,13.6,85.5,274.8,3.4,351.34,649.39,2136.25
SKQ202010S,TSG,2020-09-01T21:40:00Z,-149.4671,59.8451,270.56,0.0,135.26,141.88,-0.38,0.34,0.01,1004.35,13.5,86.2,275.5,3.2,350.37,644.19,2123.26
SKQ202010S,TSG,2020-09-01T21:41:00Z,-149.4671,59.8451,270.12,0.0,49.12,142.79,-0.4,0.31,0.0,1004.38,13.4,86.3,285.3,3.1,350.26,640.23,2111.52
SKQ202010S,TSG,2020-09-01T21:42:00Z,-149.4671,59.8451,270.34,0.0,348.91,142.94,-0.41,0.34,0.0,1004.38,13.4,86.7,280.8,2.4,349.81,636.93,2103.91
SKQ202010S,TSG,2020-09-01T21:43:00Z,-149.4671,59.8451,270.34,0.0,289.55,142.87,-0.51,0.37,0.01,1004.38,13.4,86.8,281.4,2.3,349.5,633.47,2096.46
SKQ202010S,TSG,2020-09-01T21:44:00Z,-149.4671,59.8451,270.56,0.0,140.85,142.72,-0.44,0.33,0.01,1004.4,13.5,86.6,266.7,1.5,349.76,629.78,2085.79
SKQ202010S,TSG,2020-09-01T21:45:00Z,-149.4671,59.8451,270.49,0.0,283.35,142.82,-0.39,0.33,-0.0,1004.4,13.7,86.2,275.3,1.7,348.82,628.64,2082.12
SKQ202010S,TSG,2020-09-01T21:46:00Z,-149.4671,59.8451,270.47,0.0,26.88,142.34,-0.48,0.36,0.0,1004.41,13.7,85.8,279.3,2.2,348.34,630.33,2083.91
SKQ202010S,TSG,2020-09-01T21:47:00Z,-149.4671,59.8451,270.58,0.0,233.24,142.67,-0.45,0.33,-0.0,1004.42,13.7,85.9,282.6,2.3,348.47,631.08,2085.61
SKQ202010S,TSG,2020-09-01T21:48:00Z,-149.4671,59.8451,270.67,0.0,152.97,142.39,-0.45,0.32,0.01,1004.43,13.7,86.1,279.6,1.9,348.37,632.29,2089.67
SKQ202010S,TSG,2020-09-01T21:49:00Z,-149.4671,59.8451,270.62,0.0,314.88,142.31,-0.45,0.35,0.0,1004.42,13.8,86.0,264.9,1.9,347.55,630.65,2083.73
SKQ202010S,TSG,2020-09-01T21:50:00Z,-149.4671,59.8451,270.82,0.0,73.3,142.64,-0.44,0.34,0.02,1004.44,13.8,85.3,262.1,2.4,347.0,631.48,2089.09
SKQ202010S,TSG,2020-09-01T21:51:00Z,-149.4671,59.8451,270.69,0.0,147.62,142.03,-0.48,0.33,0.0,1004.45,13.8,85.4,274.4,2.7,347.69,631.38,2090.19
SKQ202010S,TSG,2020-09-01T21:52:00Z,-149.4671,59.8451,270.52,0.0,226.01,142.73,-0.44,0.34,0.0,1004.44,13.7,85.9,263.4,2.1,348.3,630.97,2089.25
SKQ202010S,TSG,2020-09-01T21:53:00Z,-149.4671,59.8451,270.89,0.0,44.01,143.1,-0.45,0.37,0.01,1004.46,13.9,85.5,262.4,1.7,349.17,631.32,2090.83
SKQ202010S,TSG,2020-09-01T21:54:00Z,-149.4671,59.8451,270.78,0.0,212.88,142.77,-0.47,0.31,-0.0,1004.47,14.1,85.4,260.8,1.3,349.45,630.72,2092.82
SKQ202010S,TSG,2020-09-01T21:55:00Z,-149.4671,59.8451,270.7,0.0,341.69,142.35,-0.44,0.35,0.0,1004.48,14.2,84.8,243.6,1.3,348.88,625.81,2081.4
SKQ202010S,TSG,2020-09-01T21:56:00Z,-149.4671,59.8451,270.49,0.0,325.59,142.33,-0.44,0.36,0.01,1004.48,14.3,84.1,227.0,2.1,347.76,623.14,2079.69
SKQ202010S,TSG,2020-09-01T21:57:00Z,-149.4671,59.8451,270.63,0.0,105.69,142.2,-0.49,0.36,0.0,1004.51,14.4,83.1,222.7,2.3,347.53,623.53,2083.54
SKQ202010S,TSG,2020-09-01T21:58:00Z,-149.4671,59.8451,270.35,0.0,220.14,142.49,-0.5,0.35,0.01,1004.53,14.4,83.0,237.0,2.3,347.87,624.21,2087.54
SKQ202010S,TSG,2020-09-01T21:59:00Z,-149.4671,59.8451,270.57,0.0,43.43,143.23,-0.44,0.35,0.0,1004.54,14.5,82.5,220.0,1.8,347.32,627.3,2095.56
SKQ202010S,TSG,2020-09-01T22:00:00Z,-149.4671,59.8451,270.74,0.0,195.67,142.76,-0.47,0.34,0.01,1004.55,14.5,83.6,203.1,1.2,346.95,628.26,2097.47
SKQ202010S,TSG,2020-09-01T22:01:00Z,-149.4671,59.8451,270.86,0.0,306.82,142.94,-0.43,0.37,0.01,1004.56,14.5,83.6,219.8,0.9,347.89,627.16,2092.96
SKQ202010S,TSG,2020-09-01T22:02:00Z,-149.4671,59.8451,270.66,0.0,143.35,142.8,-0.45,0.31,-0.0,1004.58,14.5,83.1,246.9,1.4,347.25,625.13,2089.46
SKQ202010S,TSG,2020-09-01T22:03:00Z,-149.4671,59.8451,270.77,0.0,296.75,142.31,-0.49,0.35,0.0,1004.57,14.6,82.8,256.0,1.4,347.41,625.74,2090.63
SKQ202010S,TSG,2020-09-01T22:04:00Z,-149.4671,59.8451,270.7,0.0,64.4,142.5,-0.44,0.37,0.0,1004.57,14.5,83.0,250.6,1.2,347.25,624.93,2088.71
SKQ202010S,TSG,2020-09-01T22:05:00Z,-149.4671,59.8451,270.67,0.0,127.96,142.77,-0.47,0.33,-0.0,1004.58,14.7,82.7,236.5,1.1,347.5,623.07,2083.74
SKQ202010S,TSG,2020-09-01T22:06:00Z,-149.4671,59.8451,270.83,0.0,299.79,142.66,-0.46,0.36,0.0,1004.55,14.8,81.8,225.5,0.9,347.95,621.8,2081.87
SKQ202010S,TSG,2020-09-01T22:07:00Z,-149.4671,59.8451,270.74,0.0,94.64,142.81,-0.55,0.31,-0.0,1004.57,14.9,81.3,191.6,0.7,347.74,620.38,2083.04
SKQ202010S,TSG,2020-09-01T22:08:00Z,-149.4671,59.8451,270.77,0.0,11.96,142.65,-0.44,0.38,-0.0,1004.53,15.0,80.9,138.5,0.5,347.64,620.46,2083.5
SKQ202010S,TSG,2020-09-01T22:09:00Z,-149.4671,59.8451,270.66,0.0,207.28,142.53,-0.31,0.34,0.0,1004.55,14.9,81.0,115.8,0.9,347.02,618.21,2078.54
SKQ202010S,TSG,2020-09-01T22:10:00Z,-149.4671,59.8451,270.63,0.0,126.39,142.35,-0.45,0.31,-0.0,1004.54,14.8,81.5,117.5,1.5,347.69,616.35,2078.28
SKQ202010S,TSG,2020-09-01T22:11:00Z,-149.4671,59.8451,270.63,0.0,202.73,142.41,-0.39,0.34,0.0,1004.54,14.5,82.4,138.3,1.1,347.9,617.69,2083.66
SKQ202010S,TSG,2020-09-01T22:12:00Z,-149.4671,59.8451,270.73,0.0,359.23,142.87,-0.39,0.37,0.02,1004.53,14.4,82.9,109.0,1.0,347.66,616.46,2083.4
SKQ202010S,TSG,2020-09-01T22:13:00Z,-149.4671,59.8451,270.85,0.0,21.07,142.93,-0.46,0.33,0.0,1004.55,14.4,83.2,110.2,1.5,347.9,616.52,2084.7
SKQ202010S,TSG,2020-09-01T22:14:00Z,-149.4671,59.8451,270.62,0.0,195.33,142.47,-0.45,0.34,-0.0,1004.57,14.2,83.6,116.9,1.6,347.54,614.82,2083.78
SKQ202010S,TSG,2020-09-01T22:15:00Z,-149.4671,59.8451,270.41,0.0,308.35,142.71,-0.44,0.32,0.01,1004.61,14.1,84.3,116.1,1.8,348.84,616.82,2092.55
SKQ202010S,TSG,2020-09-01T22:16:00Z,-149.4671,59.8451,270.7,0.0,160.07,142.65,-0.43,0.33,-0.0,1004.63,14.0,85.0,161.0,1.4,349.37,617.32,2095.03
SKQ202010S,TSG,2020-09-01T22:17:00Z,-149.4671,59.8451,270.85,0.0,45.01,142.85,-0.29,0.39,0.01,1004.63,14.1,85.1,141.2,1.5,348.6,619.76,2100.45
SKQ202010S,TSG,2020-09-01T22:18:00Z,-149.4671,59.8451,270.7,0.0,203.21,142.32,-0.48,0.3,0.0,1004.66,14.1,85.3,138.9,1.1,348.18,615.9,2095.27
SKQ202010S,TSG,2020-09-01T22:19:00Z,-149.4671,59.8451,270.73,0.0,280.62,142.61,-0.56,0.32,0.0,1004.68,14.2,84.8,152.2,1.0,348.66,612.69,2088.34
SKQ202010S,TSG,2020-09-01T22:20:00Z,-149.4671,59.8451,270.72,0.0,297.99,142.6,-0.39,0.34,0.0,1004.66,14.3,84.3,136.7,1.3,348.37,611.41,2088.49
SKQ202010S,TSG,2020-09-01T22:21:00Z,-149.4671,59.8451,270.82,0.0,88.31,142.78,-0.47,0.34,-0.0,1004.67,14.2,84.6,125.2,2.4,348.56,612.23,2091.52
SKQ202010S,TSG,2020-09-01T22:22:00Z,-149.4671,59.8451,270.71,0.0,273.91,142.42,-0.42,0.32,0.0,1004.69,14.0,85.4,133.7,1.8,348.48,611.79,2090.56
SKQ202010S,TSG,2020-09-01T22:23:00Z,-149.4671,59.8451,270.81,0.0,279.74,142.78,-0.19,0.36,0.01,1004.67,14.1,85.6,156.4,1.8,348.89,616.71,2103.55
SKQ202010S,TSG,2020-09-01T22:24:00Z,-149.4671,59.8451,270.66,0.0,130.97,142.72,0.01,0.33,-0.0,1004.68,14.1,85.7,131.1,2.1,347.91,618.67,2108.85
SKQ202010S,TSG,2020-09-01T22:25:00Z,-149.4671,59.8451,270.61,0.0,333.02,142.49,-0.09,0.37,-0.0,1004.68,14.0,86.1,146.5,1.9,348.2,621.1,2115.91
SKQ202010S,TSG,2020-09-01T22:26:00Z,-149.4671,59.8451,270.75,0.0,176.83,142.43,-0.05,0.33,0.01,1004.68,14.1,86.2,163.6,2.1,347.45,618.35,2108.3
