Cruise,Type,Date_Time_[UTC],Longitude_[decimal_degrees_east],Latitude_[decimal_degrees_north],Bottom_Depth_[m],Speed_[knots],Course_[degrees_true],Heading_[degree],Roll_[degree],Pitch_[degree],Heave,Atmos_Pressure_[hPa],Air_Temperature_[C],Relative_Humidity_[%],Wind_Dir_[degrees_true],Wind_Speed_[knots],Longwave_Downwelling_[W/m2],Shortwave_Downwelling_[W/m2],PAR_[uE/m2/s]
SKQ202010S,TSG,2020-07-02T17:21:00Z,-149.3856,60.052,210.73,9.9,151.64,150.89,0.58,0.19,-0.0,1019.03,18.9,38.7,12.9,17.2,360.37,454.06,1741.06
SKQ202010S,TSG,2020-07-02T17:22:00Z,-149.383,60.0496,233.53,9.9,150.79,150.22,0.56,0.19,0.0,1019.01,19.0,38.3,8.9,16.6,360.72,458.59,1750.53
SKQ202010S,TSG,2020-07-02T17:23:00Z,-149.3803,60.0472,265.81,9.9,151.07,150.46,0.59,0.19,-0.0,1019.0,18.9,39.8,4.2,16.5,360.38,461.43,1755.47
SKQ202010S,TSG,2020-07-02T17:24:00Z,-149.3776,60.0448,291.83,9.9,150.37,150.13,0.53,0.19,0.0,1019.0,18.8,40.5,1.2,16.7,360.02,462.24,1749.65
SKQ202010S,TSG,2020-07-02T17:25:00Z,-149.375,60.0424,292.59,9.9,151.1,150.75,0.49,0.19,0.0,1019.0,18.7,40.8,359.8,16.1,360.11,461.21,1745.65
SKQ202010S,TSG,2020-07-02T17:26:00Z,-149.3723,60.04,292.36,9.9,150.82,150.56,0.44,0.19,-0.0,1019.0,18.7,40.8,355.6,15.5,360.53,463.4,1741.72
SKQ202010S,TSG,2020-07-02T17:27:00Z,-149.3697,60.0377,292.21,9.8,150.56,150.35,0.38,0.18,0.0,1019.03,18.7,41.6,351.4,15.8,360.76,466.53,1744.04
SKQ202010S,TSG,2020-07-02T17:28:00Z,-149.367,60.0353,292.36,9.8,150.32,150.24,0.37,0.18,0.01,1019.08,18.6,43.3,350.3,13.5,360.59,474.02,1757.6
SKQ202010S,TSG,2020-07-02T17:29:00Z,-149.3644,60.0329,292.33,9.7,152.6,152.97,0.2,0.17,0.0,1019.08,18.0,50.9,356.2,12.5,359.16,376.46,1418.74
SKQ202010S,TSG,2020-07-02T17:30:00Z,-149.3622,60.0307,292.19,8.2,155.14,154.65,0.35,0.16,-0.0,1019.0,17.5,50.9,353.2,13.1,357.38,188.74,792.89
SKQ202010S,TSG,2020-07-02T17:31:00Z,-149.3605,60.0288,292.67,6.8,155.1,153.85,0.43,0.19,0.01,1019.0,17.2,52.6,357.5,12.9,356.52,153.62,676.31
SKQ202010S,TSG,2020-07-02T17:32:00Z,-149.359,60.0273,293.21,5.7,156.7,155.85,0.32,0.19,0.0,1018.96,17.4,49.1,357.5,14.7,356.27,274.05,1127.02
SKQ202010S,TSG,2020-07-02T17:33:00Z,-149.3579,60.0259,293.88,4.8,154.55,148.79,0.56,0.22,0.0,1018.86,17.8,46.4,359.8,16.6,358.57,438.19,1618.74
SKQ202010S,TSG,2020-07-02T17:34:00Z,-149.3569,60.0249,294.17,3.2,151.77,140.47,0.56,0.22,-0.0,1018.79,18.4,42.9,0.7,16.5,358.83,404.65,1242.28
SKQ202010S,TSG,2020-07-02T17:35:00Z,-149.3563,60.0244,293.89,1.4,155.42,127.48,0.89,0.23,-0.0,1018.73,18.6,41.7,357.9,16.4,356.65,115.07,507.2
SKQ202010S,TSG,2020-07-02T17:36:00Z,-149.3562,60.0241,294.18,1.0,190.17,136.31,0.64,0.2,0.0,1018.7,18.6,42.1,358.5,16.5,357.57,217.31,722.41
SKQ202010S,TSG,2020-07-02T17:37:00Z,-149.3563,60.0239,293.13,0.8,203.0,131.24,0.48,0.19,0.0,1018.69,18.8,41.1,354.9,15.7,355.94,100.64,469.78
SKQ202010S,TSG,2020-07-02T17:38:00Z,-149.3566,60.0237,293.5,0.8,230.1,132.24,0.44,0.19,-0.0,1018.68,18.6,42.9,353.5,15.5,356.61,101.62,471.54
SKQ202010S,TSG,2020-07-02T17:39:00Z,-149.3569,60.0236,294.25,0.8,221.11,129.33,0.49,0.19,-0.0,1018.7,18.5,43.1,358.9,15.5,356.43,98.25,462.11
SKQ202010S,TSG,2020-07-02T17:40:00Z,-149.3573,60.0234,293.53,1.1,219.75,109.32,0.43,0.2,0.0,1018.65,18.2,44.8,359.4,16.1,355.67,164.47,726.09
SKQ202010S,TSG,2020-07-02T17:41:00Z,-149.3576,60.0231,294.35,1.1,208.64,75.46,0.6,0.2,0.0,1018.6,17.9,47.2,356.6,16.2,357.11,226.26,924.27
SKQ202010S,TSG,2020-07-02T17:42:00Z,-149.3578,60.0228,294.32,1.1,185.0,55.21,0.45,0.2,0.01,1018.58,18.2,43.8,355.2,16.8,358.26,321.96,1236.93
SKQ202010S,TSG,2020-07-02T17:43:00Z,-149.3578,60.0226,294.06,0.7,149.08,31.53,0.47,0.2,0.01,1018.5,18.7,40.6,356.5,16.5,360.25,518.58,1818.65
SKQ202010S,TSG,2020-07-02T17:44:00Z,-149.3574,60.0225,294.54,0.8,56.24,10.48,0.68,0.23,-0.0,1018.57,19.0,39.8,356.3,15.4,362.46,546.88,1881.85
SKQ202010S,TSG,2020-07-02T17:45:00Z,-149.3572,60.0228,294.16,1.1,6.94,357.54,0.37,0.19,-0.0,1018.65,19.1,40.4,2.5,14.8,362.71,546.81,1893.56
SKQ202010S,TSG,2020-07-02T17:46:00Z,-149.3572,60.023,295.08,0.8,346.38,351.3,0.15,0.18,0.0,1018.7,18.9,41.4,6.2,14.3,362.75,545.49,1895.7
SKQ202010S,TSG,2020-07-02T17:47:00Z,-149.3573,60.0232,293.52,0.3,359.99,353.28,0.12,0.17,-0.0,1018.69,18.9,41.5,5.3,14.1,362.85,540.92,1879.23
SKQ202010S,TSG,2020-07-02T17:48:00Z,-149.3573,60.0232,293.55,0.1,183.29,352.7,0.15,0.17,-0.0,1018.7,18.9,40.1,3.2,14.1,363.01,527.46,1834.75
SKQ202010S,TSG,2020-07-02T17:49:00Z,-149.3573,60.0232,293.95,0.0,136.77,352.01,0.2,0.18,0.0,1018.7,18.9,40.1,6.4,14.6,363.15,521.77,1816.04
SKQ202010S,TSG,2020-07-02T17:50:00Z,-149.3573,60.0232,293.59,0.0,10.19,352.03,0.43,0.19,0.0,1018.7,18.9,40.1,8.1,15.6,363.01,515.53,1786.24
SKQ202010S,TSG,2020-07-02T17:51:00Z,-149.3573,60.0232,293.77,0.0,90.0,351.87,0.38,0.19,0.0,1018.7,18.9,40.1,9.5,15.5,364.42,506.16,1757.46
SKQ202010S,TSG,2020-07-02T17:52:00Z,-149.3573,60.0232,293.75,0.0,87.21,352.38,0.37,0.19,-0.0,1018.7,18.9,40.1,14.1,15.2,364.17,501.93,1746.16
SKQ202010S,TSG,2020-07-02T17:53:00Z,-149.3573,60.0232,293.84,0.0,90.0,353.02,0.42,0.19,-0.0,1018.7,18.9,40.1,8.9,13.7,363.95,500.64,1741.49
SKQ202010S,TSG,2020-07-02T17:54:00Z,-149.3573,60.0232,293.55,0.0,90.0,352.9,0.44,0.19,0.0,1018.6,19.3,40.5,6.6,13.7,363.61,512.09,1775.78
SKQ202010S,TSG,2020-07-02T17:55:00Z,-149.3573,60.0232,293.65,0.0,90.0,352.76,0.43,0.19,0.0,1018.6,19.0,40.9,8.1,14.6,363.31,515.79,1785.93
SKQ202010S,TSG,2020-07-02T17:56:00Z,-149.3573,60.0232,293.85,0.0,90.0,352.81,0.46,0.19,0.0,1018.6,19.2,39.7,9.7,15.2,363.61,511.73,1773.93
SKQ202010S,TSG,2020-07-02T17:57:00Z,-149.3573,60.0232,293.81,0.0,19.63,352.88,0.46,0.19,0.0,1018.6,19.3,39.5,9.9,14.3,363.41,519.82,1799.48
SKQ202010S,TSG,2020-07-02T17:58:00Z,-149.3573,60.0232,293.91,0.0,90.0,352.91,0.46,0.19,-0.0,1018.6,19.1,40.9,6.2,14.9,363.7,521.45,1803.56
SKQ202010S,TSG,2020-07-02T17:59:00Z,-149.3573,60.0232,293.83,0.0,90.0,352.78,0.51,0.19,-0.0,1018.58,19.0,41.3,3.3,15.3,364.16,532.82,1838.07
SKQ202010S,TSG,2020-07-02T18:00:00Z,-149.3573,60.0232,293.72,0.0,90.0,352.52,0.51,0.19,-0.0,1018.53,18.9,42.2,4.5,15.4,364.22,545.81,1871.93
SKQ202010S,TSG,2020-07-02T18:01:00Z,-149.3573,60.0232,293.92,0.0,186.89,352.95,0.51,0.19,-0.0,1018.51,18.7,43.4,4.7,15.2,364.38,523.89,1803.76
SKQ202010S,TSG,2020-07-02T18:02:00Z,-149.3573,60.0232,293.97,0.0,211.01,353.04,0.47,0.2,0.01,1018.49,18.6,43.6,2.3,16.3,364.19,527.95,1816.18
SKQ202010S,TSG,2020-07-02T18:03:00Z,-149.3573,60.0232,293.9,0.0,90.0,352.65,0.45,0.19,-0.0,1018.47,19.4,38.9,1.6,16.1,364.72,508.92,1758.99
SKQ202010S,TSG,2020-07-02T18:04:00Z,-149.3573,60.0232,293.89,0.0,47.41,353.16,0.51,0.19,0.0,1018.43,19.2,41.6,0.3,14.2,364.85,530.15,1818.41
SKQ202010S,TSG,2020-07-02T18:05:00Z,-149.3573,60.0232,294.05,0.0,90.0,353.24,0.57,0.2,-0.0,1018.4,18.8,43.6,354.4,14.5,364.8,543.88,1855.79
SKQ202010S,TSG,2020-07-02T18:06:00Z,-149.3573,60.0232,293.47,0.0,90.0,352.86,0.59,0.2,-0.0,1018.4,19.1,41.0,352.4,15.6,364.94,548.08,1867.22
SKQ202010S,TSG,2020-07-02T18:07:00Z,-149.3573,60.0232,293.73,0.0,7.95,352.49,0.59,0.2,-0.0,1018.36,19.1,41.0,351.9,15.9,364.52,542.26,1849.51
SKQ202010S,TSG,2020-07-02T18:08:00Z,-149.3573,60.0232,293.83,0.0,184.54,352.43,0.6,0.2,0.01,1018.35,18.8,43.2,352.4,15.3,363.61,543.13,1850.13
SKQ202010S,TSG,2020-07-02T18:09:00Z,-149.3573,60.0232,293.71,0.0,90.0,352.51,0.61,0.2,0.0,1018.31,18.6,44.0,351.9,15.9,363.5,541.36,1840.39
SKQ202010S,TSG,2020-07-02T18:10:00Z,-149.3573,60.0232,293.98,0.0,21.35,352.73,0.58,0.2,0.0,1018.3,18.9,41.6,355.9,16.3,364.38,536.0,1824.92
SKQ202010S,TSG,2020-07-02T18:11:00Z,-149.3573,60.0232,293.98,0.0,302.68,352.63,0.57,0.2,0.0,1018.3,19.1,41.7,357.8,15.3,364.38,546.93,1857.08
SKQ202010S,TSG,2020-07-02T18:12:00Z,-149.3573,60.0232,294.0,0.0,212.36,352.72,0.54,0.19,0.01,1018.3,18.9,43.5,358.8,14.8,364.06,554.96,1880.93
SKQ202010S,TSG,2020-07-02T18:13:00Z,-149.3573,60.0232,293.99,0.0,90.0,352.75,0.54,0.2,-0.0,1018.35,18.6,45.6,359.7,13.8,363.77,559.41,1889.85
SKQ202010S,TSG,2020-07-02T18:14:00Z,-149.3573,60.0232,293.82,0.0,90.0,352.76,0.54,0.19,0.0,1018.3,18.6,44.8,358.5,14.8,364.51,564.74,1903.6
SKQ202010S,TSG,2020-07-02T18:15:00Z,-149.3573,60.0232,293.74,0.0,6.79,352.53,0.53,0.19,0.0,1018.3,18.6,45.7,355.8,15.1,364.17,566.64,1908.16
SKQ202010S,TSG,2020-07-02T18:16:00Z,-149.3573,60.0232,293.85,0.0,190.46,352.55,0.51,0.2,0.0,1018.31,18.6,46.2,0.1,14.3,363.71,553.26,1865.11
SKQ202010S,TSG,2020-07-02T18:17:00Z,-149.3573,60.0232,294.14,0.0,188.34,352.94,0.59,0.2,-0.0,1018.26,18.8,43.5,357.7,16.4,365.09,541.42,1827.02
SKQ202010S,TSG,2020-07-02T18:18:00Z,-149.3573,60.0232,293.7,0.0,228.59,352.58,0.35,0.19,0.01,1018.2,19.5,39.9,356.4,17.4,365.55,537.52,1823.79
SKQ202010S,TSG,2020-07-02T18:19:00Z,-149.3573,60.0232,293.99,0.0,90.0,352.57,0.21,0.17,0.0,1018.2,19.8,38.3,353.0,16.3,365.84,551.64,1862.13
SKQ202010S,TSG,2020-07-02T18:20:00Z,-149.3573,60.0232,294.09,0.0,15.13,352.86,0.19,0.18,0.0,1018.19,19.4,41.5,352.6,16.7,365.45,544.85,1839.27
SKQ202010S,TSG,2020-07-02T18:21:00Z,-149.3573,60.0232,294.17,0.0,90.0,352.98,0.15,0.18,0.0,1018.2,19.4,41.1,356.3,16.9,366.02,532.02,1795.87
SKQ202010S,TSG,2020-07-02T18:22:00Z,-149.3573,60.0232,294.1,0.0,9.37,352.7,0.14,0.18,0.0,1018.18,19.6,38.6,354.2,17.1,367.18,537.49,1806.21
SKQ202010S,TSG,2020-07-02T18:23:00Z,-149.3573,60.0232,293.78,0.0,210.61,352.39,0.11,0.18,0.0,1018.13,20.2,35.3,352.6,18.0,368.86,526.15,1762.01
SKQ202010S,TSG,2020-07-02T18:24:00Z,-149.3573,60.0232,293.92,0.0,170.21,352.7,0.16,0.18,0.0,1018.09,20.3,36.2,350.3,17.5,368.53,535.31,1784.52
SKQ202010S,TSG,2020-07-02T18:25:00Z,-149.3573,60.0232,293.89,0.0,90.0,352.61,0.16,0.18,0.0,1018.1,19.8,39.3,352.0,17.4,368.37,558.9,1849.28
SKQ202010S,TSG,2020-07-02T18:26:00Z,-149.3573,60.0232,294.09,0.0,90.0,352.53,0.15,0.18,-0.0,1018.1,20.0,36.2,355.6,17.4,369.93,570.02,1878.94
SKQ202010S,TSG,2020-07-02T18:27:00Z,-149.3573,60.0232,294.22,0.0,15.87,353.0,0.26,0.19,0.0,1018.1,20.2,36.9,356.6,16.5,369.9,548.52,1812.42
SKQ202010S,TSG,2020-07-02T18:28:00Z,-149.3573,60.0232,294.2,0.0,6.02,352.84,0.44,0.17,0.0,1018.1,20.1,38.0,351.5,15.7,368.67,539.17,1781.59
SKQ202010S,TSG,2020-07-02T18:29:00Z,-149.3573,60.0232,293.78,0.0,352.48,352.54,0.18,0.16,0.0,1018.1,19.7,38.6,351.7,16.3,368.13,537.21,1780.7
SKQ202010S,TSG,2020-07-02T18:30:00Z,-149.3573,60.0232,294.22,0.0,23.81,352.74,0.24,0.16,0.0,1018.08,19.5,40.6,352.8,16.3,367.65,560.34,1843.07
SKQ202010S,TSG,2020-07-02T18:31:00Z,-149.3573,60.0232,294.23,0.0,350.13,352.63,0.17,0.16,-0.0,1018.1,19.4,41.0,355.7,16.0,368.24,566.76,1864.71
SKQ202010S,TSG,2020-07-02T18:32:00Z,-149.3573,60.0232,294.14,0.0,192.03,352.38,0.26,0.17,0.0,1018.08,19.3,41.7,353.7,14.9,367.78,570.86,1876.01
SKQ202010S,TSG,2020-07-02T18:33:00Z,-149.3573,60.0232,294.17,0.0,90.0,352.37,0.28,0.17,-0.0,1018.03,19.2,42.8,351.1,15.5,367.87,576.41,1890.17
SKQ202010S,TSG,2020-07-02T18:34:00Z,-149.3573,60.0232,294.13,0.0,196.97,352.49,0.4,0.17,-0.0,1018.0,19.3,41.6,351.3,16.6,368.18,570.93,1868.07
SKQ202010S,TSG,2020-07-02T18:35:00Z,-149.3573,60.0232,294.2,0.0,90.0,352.77,0.61,0.18,0.0,1018.0,19.9,37.2,350.7,16.6,369.03,571.81,1862.6
SKQ202010S,TSG,2020-07-02T18:36:00Z,-149.3573,60.0232,293.94,0.0,14.78,352.67,0.63,0.19,0.0,1018.0,19.9,38.7,351.0,15.9,368.1,559.87,1827.3
SKQ202010S,TSG,2020-07-02T18:37:00Z,-149.3573,60.0232,294.23,0.0,13.2,352.7,0.79,0.19,-0.0,1018.0,19.3,42.9,350.5,15.1,366.61,556.58,1814.51
SKQ202010S,TSG,2020-07-02T18:38:00Z,-149.3573,60.0232,294.23,0.0,10.06,352.69,0.81,0.19,0.01,1018.01,19.0,44.1,349.0,15.2,366.92,556.31,1809.58
SKQ202010S,TSG,2020-07-02T18:39:00Z,-149.3573,60.0232,293.9,0.0,90.0,352.63,0.86,0.19,0.0,1017.97,19.0,43.3,348.5,15.9,367.61,530.22,1735.23
SKQ202010S,TSG,2020-07-02T18:40:00Z,-149.3573,60.0232,294.01,0.0,90.0,352.7,0.84,0.2,-0.0,1017.9,19.3,41.2,349.6,18.3,368.27,509.75,1686.29
SKQ202010S,TSG,2020-07-02T18:41:00Z,-149.3573,60.0232,294.09,0.0,90.0,352.81,0.5,0.18,0.0,1017.91,19.9,37.7,352.3,17.8,368.47,558.0,1826.2
SKQ202010S,TSG,2020-07-02T18:42:00Z,-149.3573,60.0232,294.02,0.0,90.0,352.64,0.49,0.18,0.0,1017.91,20.4,35.2,349.4,17.7,369.41,545.9,1787.88
SKQ202010S,TSG,2020-07-02T18:43:00Z,-149.3573,60.0232,294.04,0.0,13.58,352.66,0.54,0.18,-0.0,1017.9,20.2,37.0,344.9,17.0,368.36,557.48,1816.25
SKQ202010S,TSG,2020-07-02T18:44:00Z,-149.3573,60.0232,293.95,0.0,90.0,353.0,0.58,0.18,0.0,1017.9,20.1,37.8,345.3,16.8,367.83,585.07,1891.92
SKQ202010S,TSG,2020-07-02T18:45:00Z,-149.3573,60.0232,294.36,0.0,23.78,352.93,0.58,0.18,0.0,1017.86,20.1,37.5,345.1,17.4,368.31,608.33,1954.1
SKQ202010S,TSG,2020-07-02T18:46:00Z,-149.3573,60.0232,294.36,0.0,90.0,352.82,0.59,0.18,0.0,1017.87,20.5,34.5,346.1,17.0,369.5,624.83,2002.25
SKQ202010S,TSG,2020-07-02T18:47:00Z,-149.3573,60.0232,294.27,0.0,90.0,352.6,0.56,0.18,0.0,1017.9,20.6,34.9,348.3,17.2,369.8,625.79,2011.02
SKQ202010S,TSG,2020-07-02T18:48:00Z,-149.3573,60.0232,294.12,0.0,191.44,352.2,0.54,0.18,0.0,1017.91,20.2,38.1,345.4,16.6,369.08,437.81,1974.79
SKQ202010S,TSG,2020-07-02T18:49:00Z,-149.3573,60.0232,294.31,0.0,187.56,352.49,0.57,0.18,0.01,1017.9,20.0,37.4,345.1,17.8,368.93,432.19,1917.39
SKQ202010S,TSG,2020-07-02T18:50:00Z,-149.3573,60.0232,293.95,0.0,90.0,352.58,0.59,0.18,-0.0,1017.87,20.2,37.3,342.2,17.4,368.1,385.45,1850.06
SKQ202010S,TSG,2020-07-02T18:51:00Z,-149.3573,60.0232,294.22,0.0,56.61,353.09,0.59,0.18,-0.0,1017.81,19.9,38.4,340.6,17.7,366.9,478.3,1834.39
SKQ202010S,TSG,2020-07-02T18:52:00Z,-149.3573,60.0232,295.68,0.1,100.99,348.1,0.48,0.18,-0.0,1017.87,20.7,34.4,345.6,18.4,369.38,550.18,1773.27
SKQ202010S,TSG,2020-07-02T18:53:00Z,-149.3572,60.0232,294.84,0.0,4.65,342.5,0.35,0.17,0.01,1017.9,20.5,35.6,346.6,18.6,370.01,563.76,1811.1
SKQ202010S,TSG,2020-07-02T18:54:00Z,-149.3572,60.0232,293.78,0.0,125.24,340.69,0.29,0.17,0.0,1017.93,20.9,34.1,348.1,18.5,370.01,559.86,1798.63
SKQ202010S,TSG,2020-07-02T18:55:00Z,-149.3572,60.0232,294.2,0.0,29.93,339.6,0.22,0.17,-0.0,1017.96,20.5,36.3,349.8,18.5,369.62,540.68,1742.76
SKQ202010S,TSG,2020-07-02T18:56:00Z,-149.3572,60.0232,294.23,0.0,90.0,339.76,0.2,0.16,0.0,1017.98,20.6,35.4,352.1,18.9,369.8,533.24,1720.97
SKQ202010S,TSG,2020-07-02T18:57:00Z,-149.3572,60.0232,294.03,0.0,199.54,339.77,0.25,0.17,0.0,1017.91,20.8,33.9,349.5,19.5,369.97,530.88,1713.8
SKQ202010S,TSG,2020-07-02T18:58:00Z,-149.3572,60.0232,294.08,0.0,14.85,339.46,0.12,0.16,-0.0,1017.91,20.9,33.6,348.4,18.6,370.28,538.43,1738.13
SKQ202010S,TSG,2020-07-02T18:59:00Z,-149.3572,60.0232,293.89,0.0,90.0,339.6,0.16,0.16,0.01,1017.89,20.8,33.9,347.7,19.0,370.56,559.61,1798.14
SKQ202010S,TSG,2020-07-02T19:00:00Z,-149.3572,60.0232,293.92,0.0,90.0,339.86,0.12,0.16,-0.0,1017.89,21.0,33.8,349.0,18.9,370.47,581.62,1860.59
SKQ202010S,TSG,2020-07-02T19:01:00Z,-149.3572,60.0232,293.9,0.0,90.0,339.77,0.16,0.16,-0.0,1017.89,20.6,35.2,349.0,19.3,370.46,596.68,1903.01
SKQ202010S,TSG,2020-07-02T19:02:00Z,-149.3572,60.0232,294.04,0.0,190.42,339.81,0.27,0.17,0.0,1017.89,21.0,33.1,350.5,19.7,371.17,603.47,1918.67
SKQ202010S,TSG,2020-07-02T19:03:00Z,-149.3572,60.0232,294.02,0.0,90.0,339.82,0.6,0.18,0.0,1017.88,21.1,33.1,350.8,19.5,371.34,597.41,1893.93
SKQ202010S,TSG,2020-07-02T19:04:00Z,-149.3572,60.0232,293.93,0.0,205.41,339.8,0.55,0.18,0.01,1017.83,20.9,34.3,350.4,19.0,370.94,594.35,1884.71
SKQ202010S,TSG,2020-07-02T19:05:00Z,-149.3572,60.0232,293.91,0.0,90.0,339.69,0.52,0.18,0.0,1017.87,20.8,34.5,353.1,19.5,371.1,597.26,1889.9
SKQ202010S,TSG,2020-07-02T19:06:00Z,-149.3572,60.0232,293.93,0.0,90.0,339.49,0.52,0.18,-0.0,1017.89,21.1,32.5,353.7,19.5,371.93,594.83,1882.97
SKQ202010S,TSG,2020-07-02T19:07:00Z,-149.3572,60.0232,293.9,0.0,90.0,339.4,0.48,0.18,0.0,1017.9,21.4,31.6,354.7,20.1,371.99,599.27,1894.96
SKQ202010S,TSG,2020-07-02T19:08:00Z,-149.3572,60.0232,293.97,0.0,90.0,339.69,0.46,0.17,0.0,1017.9,21.4,31.6,354.8,18.3,372.73,613.22,1932.14
SKQ202010S,TSG,2020-07-02T19:09:00Z,-149.3572,60.0232,293.95,0.0,358.54,339.77,0.47,0.18,-0.0,1017.9,21.3,31.9,356.0,18.5,372.08,623.93,1960.17
SKQ202010S,TSG,2020-07-02T19:10:00Z,-149.3572,60.0232,294.03,0.0,343.34,339.89,0.52,0.18,0.0,1017.9,21.2,32.7,355.5,18.2,372.35,634.12,1987.33
SKQ202010S,TSG,2020-07-02T19:11:00Z,-149.3572,60.0232,293.98,0.0,203.59,339.74,0.53,0.18,0.0,1017.9,21.2,32.3,356.7,17.8,372.46,644.99,2017.11
SKQ202010S,TSG,2020-07-02T19:12:00Z,-149.3572,60.0232,293.96,0.0,90.0,339.7,0.54,0.18,0.0,1017.89,21.1,33.3,356.0,18.4,372.09,649.16,2027.71
SKQ202010S,TSG,2020-07-02T19:13:00Z,-149.3572,60.0232,293.93,0.0,90.0,339.62,0.51,0.18,0.0,1017.9,21.0,33.3,355.1,18.4,371.87,655.18,2045.97
SKQ202010S,TSG,2020-07-02T19:14:00Z,-149.3572,60.0232,294.0,0.0,90.0,339.71,0.51,0.18,-0.0,1017.87,21.4,31.7,355.9,18.1,372.66,665.01,2072.63
SKQ202010S,TSG,2020-07-02T19:15:00Z,-149.3572,60.0232,294.0,0.0,204.34,339.71,0.51,0.18,0.01,1017.89,21.3,32.4,357.5,17.6,372.85,668.66,2081.36
SKQ202010S,TSG,2020-07-02T19:16:00Z,-149.3572,60.0232,294.04,0.0,90.0,339.62,0.49,0.17,0.0,1017.9,21.3,32.6,358.1,18.7,373.02,663.61,2065.85
SKQ202010S,TSG,2020-07-02T19:17:00Z,-149.3572,60.0232,293.99,0.0,5.55,339.5,0.5,0.18,0.0,1017.88,21.3,32.7,356.9,19.4,373.3,655.17,2041.02
SKQ202010S,TSG,2020-07-02T19:18:00Z,-149.3572,60.0232,293.97,0.0,55.03,339.46,0.49,0.18,-0.0,1017.88,21.3,31.9,355.7,18.4,373.96,653.55,2035.15
SKQ202010S,TSG,2020-07-02T19:19:00Z,-149.3572,60.0232,294.13,0.0,90.0,339.8,0.49,0.18,-0.0,1017.89,21.4,32.1,359.6,18.3,373.81,653.83,2033.31
SKQ202010S,TSG,2020-07-02T19:20:00Z,-149.3572,60.0232,294.01,0.0,90.0,339.67,0.48,0.18,0.0,1017.9,21.3,32.4,358.4,18.3,374.14,651.33,2025.08
SKQ202010S,TSG,2020-07-02T19:21:00Z,-149.3572,60.0232,294.63,0.0,90.0,339.87,0.57,0.18,-0.0,1017.89,21.5,31.7,355.4,16.0,374.98,646.1,2007.18
SKQ202010S,TSG,2020-07-02T19:22:00Z,-149.3572,60.0232,294.86,0.0,191.01,339.92,0.57,0.18,0.01,1017.88,21.5,31.7,357.0,17.1,376.06,647.95,2008.48
SKQ202010S,TSG,2020-07-02T19:23:00Z,-149.3572,60.0232,294.02,0.0,90.0,339.62,0.51,0.18,-0.0,1017.85,21.3,32.7,1.2,17.7,375.74,654.44,2023.87
SKQ202010S,TSG,2020-07-02T19:24:00Z,-149.3572,60.0232,294.21,0.0,8.84,339.68,0.53,0.17,0.0,1017.82,21.0,34.3,4.0,17.7,375.42,662.93,2043.64
SKQ202010S,TSG,2020-07-02T19:25:00Z,-149.3572,60.0232,294.08,0.0,6.32,339.58,0.46,0.17,-0.0,1017.79,20.7,35.0,4.4,18.6,375.54,666.57,2054.28
SKQ202010S,TSG,2020-07-02T19:26:00Z,-149.3572,60.0232,293.99,0.0,90.0,339.4,0.43,0.17,0.0,1017.77,21.3,32.2,3.9,18.4,377.19,674.3,2075.61
SKQ202010S,TSG,2020-07-02T19:27:00Z,-149.3572,60.0232,294.03,0.0,20.74,339.54,0.51,0.18,0.0,1017.79,21.7,31.0,4.1,16.4,379.0,678.73,2085.64
SKQ202010S,TSG,2020-07-02T19:28:00Z,-149.3572,60.0232,294.27,0.0,90.0,339.88,0.52,0.17,0.01,1017.78,21.6,31.3,3.0,16.5,379.51,678.01,2081.19
SKQ202010S,TSG,2020-07-02T19:29:00Z,-149.3572,60.0232,294.03,0.0,33.58,339.82,0.55,0.17,0.0,1017.78,21.4,32.8,1.3,15.8,379.48,680.92,2087.32
SKQ202010S,TSG,2020-07-02T19:30:00Z,-149.3572,60.0232,294.08,0.0,90.0,339.66,0.6,0.18,-0.0,1017.77,20.9,34.5,1.4,17.4,379.18,688.16,2104.54
SKQ202010S,TSG,2020-07-02T19:31:00Z,-149.3572,60.0232,294.12,0.0,23.02,339.53,0.59,0.18,-0.0,1017.8,21.2,33.2,359.3,18.0,378.84,692.07,2114.44
SKQ202010S,TSG,2020-07-02T19:32:00Z,-149.3572,60.0232,294.15,0.0,17.04,339.56,0.6,0.17,0.0,1017.78,21.2,32.9,355.3,17.5,378.61,694.91,2121.56
SKQ202010S,TSG,2020-07-02T19:33:00Z,-149.3572,60.0232,294.21,0.0,90.0,339.76,0.59,0.18,-0.0,1017.73,21.4,32.1,357.9,17.5,379.71,693.35,2118.17
SKQ202010S,TSG,2020-07-02T19:34:00Z,-149.3572,60.0232,294.21,0.0,90.0,339.84,0.59,0.17,0.0,1017.7,21.5,32.0,357.3,16.0,380.21,693.19,2119.15
SKQ202010S,TSG,2020-07-02T19:35:00Z,-149.3572,60.0232,294.36,0.0,204.09,339.84,0.62,0.18,0.0,1017.7,21.5,32.0,356.3,15.0,381.13,694.09,2121.48
SKQ202010S,TSG,2020-07-02T19:36:00Z,-149.3572,60.0232,294.23,0.0,107.95,339.79,0.63,0.18,-0.0,1017.69,21.4,32.1,355.3,14.3,381.78,702.41,2140.88
SKQ202010S,TSG,2020-07-02T19:37:00Z,-149.3572,60.0232,294.31,0.0,217.61,339.71,0.7,0.18,-0.0,1017.64,21.4,32.2,348.8,15.8,382.66,702.71,2139.67
SKQ202010S,TSG,2020-07-02T19:38:00Z,-149.3572,60.0232,294.0,0.0,228.34,339.4,0.69,0.18,0.01,1017.6,21.5,32.1,347.8,16.2,382.56,706.04,2147.35
SKQ202010S,TSG,2020-07-02T19:39:00Z,-149.3572,60.0232,294.04,0.0,169.97,339.61,0.71,0.18,0.0,1017.6,21.6,31.6,348.7,14.9,383.45,711.05,2156.97
SKQ202010S,TSG,2020-07-02T19:40:00Z,-149.3572,60.0232,294.03,0.0,90.0,339.43,0.66,0.17,-0.0,1017.6,21.6,32.3,350.4,15.6,382.61,713.8,2163.38
SKQ202010S,TSG,2020-07-02T19:41:00Z,-149.3572,60.0232,294.08,0.0,90.0,339.7,0.67,0.18,0.0,1017.6,21.2,33.6,350.9,15.9,382.35,711.01,2156.39
SKQ202010S,TSG,2020-07-02T19:42:00Z,-149.3572,60.0232,294.13,0.0,90.0,339.76,0.68,0.18,-0.0,1017.56,21.4,33.2,351.1,15.7,382.39,714.78,2165.57
SKQ202010S,TSG,2020-07-02T19:43:00Z,-149.3572,60.0232,294.18,0.0,18.92,339.73,0.7,0.18,-0.0,1017.53,21.2,33.9,347.9,15.5,382.4,720.83,2180.13
SKQ202010S,TSG,2020-07-02T19:44:00Z,-149.3572,60.0232,294.05,0.0,210.21,339.46,0.72,0.18,-0.0,1017.46,21.3,34.3,342.3,14.3,381.45,721.57,2179.01
SKQ202010S,TSG,2020-07-02T19:45:00Z,-149.3572,60.0232,294.04,0.0,90.0,339.45,0.7,0.18,0.01,1017.52,21.2,33.2,351.8,14.2,382.63,716.09,2165.12
SKQ202010S,TSG,2020-07-02T19:46:00Z,-149.3572,60.0232,294.47,0.0,297.77,339.94,0.74,0.18,0.0,1017.5,21.7,31.3,348.2,13.2,383.48,715.08,2162.33
SKQ202010S,TSG,2020-07-02T19:47:00Z,-149.3572,60.0232,294.26,0.0,13.22,339.95,0.76,0.18,-0.0,1017.47,21.7,31.7,344.8,13.7,382.95,721.29,2175.84
SKQ202010S,TSG,2020-07-02T19:48:00Z,-149.3572,60.0232,294.14,0.0,90.0,339.71,0.8,0.18,0.0,1017.44,21.6,31.5,346.8,13.5,382.63,732.12,2196.22
SKQ202010S,TSG,2020-07-02T19:49:00Z,-149.3572,60.0232,294.26,0.0,90.0,339.84,0.83,0.19,0.0,1017.47,21.9,30.8,345.0,12.0,383.42,737.39,2202.47
SKQ202010S,TSG,2020-07-02T19:50:00Z,-149.3572,60.0232,294.21,0.0,90.0,339.61,0.58,0.17,0.0,1017.48,21.8,30.8,351.4,12.9,382.8,733.45,2187.3
SKQ202010S,TSG,2020-07-02T19:51:00Z,-149.3572,60.0232,294.21,0.0,90.0,339.72,0.44,0.17,-0.0,1017.5,21.8,30.7,357.8,12.4,381.55,722.9,2154.13
SKQ202010S,TSG,2020-07-02T19:52:00Z,-149.3572,60.0232,294.23,0.0,198.57,339.69,0.47,0.16,-0.0,1017.47,21.8,30.8,348.5,11.6,381.57,714.02,2123.81
SKQ202010S,TSG,2020-07-02T19:53:00Z,-149.3572,60.0232,294.72,0.1,333.12,330.91,0.44,0.17,-0.0,1017.49,21.8,30.5,348.7,11.0,381.39,702.74,2086.21
SKQ202010S,TSG,2020-07-02T19:54:00Z,-149.3572,60.0233,295.32,0.2,30.11,298.54,0.18,0.15,0.0,1017.42,21.8,30.9,350.8,10.7,379.07,677.87,2045.89
SKQ202010S,TSG,2020-07-02T19:55:00Z,-149.3572,60.0233,295.28,0.3,341.92,251.46,0.2,0.15,0.0,1017.4,21.8,31.0,358.8,11.1,375.65,577.15,1722.07
SKQ202010S,TSG,2020-07-02T19:56:00Z,-149.3573,60.0234,294.7,0.3,299.58,211.82,0.32,0.15,-0.0,1017.42,21.8,31.6,3.9,7.8,374.8,695.92,2051.1
SKQ202010S,TSG,2020-07-02T19:57:00Z,-149.3574,60.0234,295.05,0.2,267.47,190.86,0.48,0.15,-0.0,1017.5,21.5,35.0,356.7,3.9,370.65,697.94,2055.14
SKQ202010S,TSG,2020-07-02T19:58:00Z,-149.3575,60.0234,295.99,0.0,305.68,183.09,0.55,0.16,-0.0,1017.41,20.7,41.4,25.1,4.6,367.99,697.95,1853.35
SKQ202010S,TSG,2020-07-02T19:59:00Z,-149.3575,60.0234,294.92,0.0,55.95,180.17,0.49,0.16,0.0,1017.4,19.5,46.0,22.1,3.7,367.7,684.96,950.68
SKQ202010S,TSG,2020-07-02T20:00:00Z,-149.3575,60.0234,294.34,0.0,90.0,179.75,0.54,0.16,-0.0,1017.4,19.5,43.3,21.5,2.4,368.83,554.25,792.11
SKQ202010S,TSG,2020-07-02T20:01:00Z,-149.3575,60.0234,296.44,0.0,353.37,179.64,0.42,0.16,-0.0,1017.4,19.8,42.1,12.7,1.6,369.09,268.88,784.77
SKQ202010S,TSG,2020-07-02T20:02:00Z,-149.3575,60.0234,296.16,0.0,116.61,179.67,0.41,0.16,-0.0,1017.4,19.8,43.2,25.1,3.1,368.87,216.18,774.67
SKQ202010S,TSG,2020-07-02T20:03:00Z,-149.3575,60.0234,296.16,0.0,165.42,179.51,0.46,0.16,0.0,1017.39,19.8,41.9,23.9,5.0,368.11,207.5,770.09
SKQ202010S,TSG,2020-07-02T20:04:00Z,-149.3575,60.0234,296.22,0.0,95.93,179.48,0.46,0.15,-0.0,1017.33,19.9,40.3,24.1,4.6,367.05,204.05,767.34
SKQ202010S,TSG,2020-07-02T20:05:00Z,-149.3575,60.0234,295.53,0.5,181.82,179.24,0.42,0.18,0.01,1017.3,20.2,38.9,26.7,5.1,366.45,198.11,757.47
SKQ202010S,TSG,2020-07-02T20:06:00Z,-149.3575,60.0229,295.78,2.9,179.98,179.29,0.43,0.18,0.0,1017.3,20.4,38.2,20.5,7.9,367.28,191.13,741.87
SKQ202010S,TSG,2020-07-02T20:07:00Z,-149.3575,60.0218,294.71,4.9,181.13,179.64,0.42,0.18,-0.0,1017.3,20.4,37.1,23.0,9.2,368.25,187.44,731.98
SKQ202010S,TSG,2020-07-02T20:08:00Z,-149.3575,60.0201,294.79,7.2,180.25,179.41,0.39,0.19,0.0,1017.3,20.5,37.3,25.0,8.9,368.34,182.63,725.91
SKQ202010S,TSG,2020-07-02T20:09:00Z,-149.3575,60.0178,295.09,9.2,179.76,179.38,0.45,0.18,0.0,1017.28,20.4,37.0,27.6,9.6,366.99,181.78,727.36
SKQ202010S,TSG,2020-07-02T20:10:00Z,-149.3575,60.0151,295.12,10.3,180.15,179.61,0.39,0.18,-0.0,1017.25,20.9,34.2,26.3,10.0,367.36,182.36,734.07
SKQ202010S,TSG,2020-07-02T20:11:00Z,-149.3576,60.0122,294.34,10.6,180.24,179.64,0.35,0.17,-0.0,1017.3,21.1,33.7,18.9,10.4,367.92,182.49,739.99
SKQ202010S,TSG,2020-07-02T20:12:00Z,-149.3576,60.0093,294.96,10.7,180.31,179.73,0.31,0.17,-0.0,1017.3,21.3,33.3,20.2,10.4,367.82,183.87,747.01
SKQ202010S,TSG,2020-07-02T20:13:00Z,-149.3576,60.0063,295.29,10.8,180.38,179.91,0.32,0.17,0.0,1017.3,21.3,33.6,18.6,10.6,368.01,185.94,751.88
SKQ202010S,TSG,2020-07-02T20:14:00Z,-149.3576,60.0033,295.04,10.8,180.13,179.84,0.3,0.18,0.0,1017.3,21.3,33.1,16.5,10.0,368.99,187.33,753.48
SKQ202010S,TSG,2020-07-02T20:15:00Z,-149.3577,60.0003,295.37,10.9,180.09,179.88,0.33,0.17,-0.0,1017.3,21.3,32.7,13.9,9.9,369.45,189.0,756.35
SKQ202010S,TSG,2020-07-02T20:16:00Z,-149.3576,59.9972,296.0,11.0,179.5,179.81,0.32,0.17,0.0,1017.33,21.4,32.4,10.3,9.6,369.83,188.74,752.46
SKQ202010S,TSG,2020-07-02T20:17:00Z,-149.3576,59.9941,295.84,11.1,179.3,179.79,0.34,0.17,-0.0,1017.35,21.5,32.2,7.8,9.4,369.68,189.78,752.75
SKQ202010S,TSG,2020-07-02T20:18:00Z,-149.3575,59.9911,296.42,11.2,179.1,179.69,0.29,0.17,-0.0,1017.4,21.6,31.8,5.4,9.4,370.22,191.62,758.05
SKQ202010S,TSG,2020-07-02T20:19:00Z,-149.3576,59.988,297.98,11.2,184.84,186.6,-0.16,0.15,0.0,1017.37,21.3,36.3,355.6,7.1,368.0,458.75,1438.6
SKQ202010S,TSG,2020-07-02T20:20:00Z,-149.3587,59.9849,298.12,11.2,195.3,197.48,-0.13,0.15,-0.0,1017.34,20.0,42.3,318.3,6.5,368.26,639.75,1876.89
SKQ202010S,TSG,2020-07-02T20:21:00Z,-149.3606,59.9819,295.03,11.5,198.7,200.11,0.03,0.16,0.0,1017.39,19.8,39.9,329.0,7.3,369.8,682.49,1994.38
SKQ202010S,TSG,2020-07-02T20:22:00Z,-149.3626,59.9789,285.13,11.6,198.75,199.81,0.04,0.16,-0.0,1017.4,20.2,37.8,328.9,7.6,370.38,719.12,2085.02
SKQ202010S,TSG,2020-07-02T20:23:00Z,-149.3647,59.9759,263.64,11.6,198.78,199.68,0.08,0.16,0.0,1017.4,20.6,36.0,331.8,7.7,370.98,714.89,2074.15
SKQ202010S,TSG,2020-07-02T20:24:00Z,-149.3668,59.9728,241.13,11.6,198.91,199.67,0.11,0.16,-0.0,1017.4,20.7,36.2,336.9,7.7,371.31,695.32,2027.01
SKQ202010S,TSG,2020-07-02T20:25:00Z,-149.3688,59.9698,193.1,11.5,198.87,199.48,0.2,0.16,-0.0,1017.43,20.9,34.8,348.5,7.8,372.39,688.3,2010.67
SKQ202010S,TSG,2020-07-02T20:26:00Z,-149.3709,59.9668,172.66,11.5,199.44,199.71,0.23,0.16,-0.0,1017.41,21.1,33.7,356.9,8.3,373.0,680.6,1991.01
SKQ202010S,TSG,2020-07-02T20:27:00Z,-149.3731,59.9638,183.6,11.5,199.71,199.65,0.24,0.16,-0.0,1017.4,21.3,33.0,0.8,8.1,373.76,681.34,1994.53
SKQ202010S,TSG,2020-07-02T20:28:00Z,-149.3752,59.9608,203.6,11.5,199.96,199.57,0.26,0.16,-0.0,1017.4,21.5,32.6,2.1,8.2,374.12,689.31,2013.87
SKQ202010S,TSG,2020-07-02T20:29:00Z,-149.3774,59.9578,215.93,11.5,200.09,199.55,0.28,0.17,0.0,1017.4,21.6,31.9,357.6,8.6,372.27,698.6,2040.39
SKQ202010S,TSG,2020-07-02T20:30:00Z,-149.3796,59.9548,221.35,11.5,200.18,199.6,0.28,0.17,-0.0,1017.4,21.7,32.6,1.7,9.1,372.34,708.26,2058.44
SKQ202010S,TSG,2020-07-02T20:31:00Z,-149.3818,59.9518,225.82,11.5,200.16,199.41,0.31,0.17,0.0,1017.4,21.6,33.3,3.3,8.9,372.63,681.94,1986.78
SKQ202010S,TSG,2020-07-02T20:32:00Z,-149.384,59.9488,229.73,11.6,200.33,199.8,0.23,0.16,0.0,1017.4,21.4,33.6,5.6,9.4,372.79,674.24,1967.16
SKQ202010S,TSG,2020-07-02T20:33:00Z,-149.3863,59.9458,235.15,11.5,200.93,200.28,0.3,0.17,0.0,1017.34,21.1,39.3,16.5,5.0,370.78,673.19,1962.58
SKQ202010S,TSG,2020-07-02T20:34:00Z,-149.3886,59.9428,240.57,11.5,201.45,200.66,0.38,0.17,0.0,1017.28,19.5,46.4,87.9,1.7,366.12,661.85,1936.54
SKQ202010S,TSG,2020-07-02T20:35:00Z,-149.3909,59.9399,245.64,11.4,201.48,200.8,0.37,0.18,0.0,1017.23,18.9,47.6,180.3,3.4,365.31,687.01,2001.68
SKQ202010S,TSG,2020-07-02T20:36:00Z,-149.3932,59.9369,251.09,11.3,201.36,200.69,0.45,0.18,0.0,1017.27,19.4,43.1,146.0,3.0,366.94,704.0,2045.09
SKQ202010S,TSG,2020-07-02T20:37:00Z,-149.3954,59.934,257.63,11.3,200.63,200.53,0.41,0.18,0.0,1017.26,19.5,44.5,188.1,3.1,366.41,697.74,2027.46
SKQ202010S,TSG,2020-07-02T20:38:00Z,-149.3976,59.9311,257.93,11.3,200.89,200.89,0.26,0.17,0.0,1017.24,20.4,37.7,226.9,5.5,370.69,686.14,1996.11
SKQ202010S,TSG,2020-07-02T20:39:00Z,-149.3998,59.9282,258.77,11.2,200.42,200.54,0.25,0.17,0.0,1017.32,21.2,34.7,244.7,5.6,371.71,692.16,2015.66
SKQ202010S,TSG,2020-07-02T20:40:00Z,-149.402,59.9253,260.76,11.1,200.81,200.81,0.22,0.17,0.0,1017.37,21.2,34.2,255.4,8.2,370.45,723.84,2090.2
SKQ202010S,TSG,2020-07-02T20:41:00Z,-149.4041,59.9224,263.08,11.1,200.74,200.65,0.16,0.17,0.0,1017.35,21.4,33.0,263.3,8.3,371.91,733.55,2107.14
SKQ202010S,TSG,2020-07-02T20:42:00Z,-149.4063,59.9195,264.63,11.0,200.77,200.74,0.16,0.17,-0.0,1017.37,21.4,33.2,267.7,8.7,371.63,726.75,2088.39
SKQ202010S,TSG,2020-07-02T20:43:00Z,-149.4084,59.9167,265.61,11.0,199.98,200.43,0.16,0.17,0.0,1017.39,21.6,32.1,265.3,8.8,371.51,729.28,2093.78
SKQ202010S,TSG,2020-07-02T20:44:00Z,-149.4105,59.9138,265.41,10.9,200.13,200.9,0.07,0.16,0.0,1017.37,21.6,32.1,267.1,9.6,370.36,722.19,2074.03
SKQ202010S,TSG,2020-07-02T20:45:00Z,-149.4126,59.911,265.43,11.0,200.03,200.82,0.06,0.16,0.0,1017.37,21.7,31.8,272.1,9.4,370.83,721.97,2076.38
SKQ202010S,TSG,2020-07-02T20:46:00Z,-149.4146,59.9081,265.01,11.0,200.1,200.89,-0.04,0.16,0.0,1017.29,21.4,32.4,278.5,12.7,368.86,736.56,2111.26
SKQ202010S,TSG,2020-07-02T20:47:00Z,-149.4167,59.9052,264.48,11.1,199.83,200.66,-0.11,0.15,-0.0,1017.24,20.6,32.9,285.9,14.6,367.52,726.21,2082.45
SKQ202010S,TSG,2020-07-02T20:48:00Z,-149.4188,59.9024,264.76,11.1,201.14,202.41,-0.21,0.14,0.01,1017.29,20.5,33.0,290.6,15.0,366.05,717.86,2065.61
SKQ202010S,TSG,2020-07-02T20:49:00Z,-149.4211,59.8995,265.94,11.1,201.84,202.9,-0.15,0.16,-0.0,1017.3,19.9,33.8,295.9,16.4,365.73,742.31,2128.49
SKQ202010S,TSG,2020-07-02T20:50:00Z,-149.4234,59.8967,266.7,11.1,201.68,202.81,-0.08,0.15,-0.0,1017.32,19.9,34.0,301.3,16.3,365.5,764.92,2182.09
SKQ202010S,TSG,2020-07-02T20:51:00Z,-149.4256,59.8938,268.37,11.1,202.05,203.83,-0.1,0.15,-0.0,1017.4,19.5,36.4,303.0,15.0,365.8,777.88,2211.11
SKQ202010S,TSG,2020-07-02T20:52:00Z,-149.428,59.891,270.07,11.0,203.07,204.67,-0.14,0.16,0.01,1017.39,19.4,36.3,304.7,16.4,364.55,777.18,2206.05
SKQ202010S,TSG,2020-07-02T20:53:00Z,-149.4304,59.8882,272.11,11.0,203.12,204.79,-0.08,0.15,0.0,1017.4,20.3,32.0,307.5,16.3,364.58,773.21,2195.84
SKQ202010S,TSG,2020-07-02T20:54:00Z,-149.4328,59.8854,272.92,11.0,203.3,204.89,-0.07,0.16,0.0,1017.42,20.3,32.5,310.8,16.3,364.69,771.89,2191.08
SKQ202010S,TSG,2020-07-02T20:55:00Z,-149.4352,59.8826,272.18,11.0,203.22,204.54,-0.06,0.15,0.0,1017.4,19.6,35.3,312.9,17.5,363.64,767.93,2179.18
SKQ202010S,TSG,2020-07-02T20:56:00Z,-149.4375,59.8798,271.71,10.9,203.23,204.61,-0.1,0.16,-0.0,1017.4,19.7,34.3,315.2,18.8,364.11,774.91,2194.72
SKQ202010S,TSG,2020-07-02T20:57:00Z,-149.4399,59.877,270.13,11.0,203.3,204.57,-0.03,0.15,0.0,1017.44,20.2,32.3,318.2,17.8,364.59,779.06,2203.19
SKQ202010S,TSG,2020-07-02T20:58:00Z,-149.4423,59.8742,268.82,10.9,202.87,204.24,0.0,0.16,-0.0,1017.48,19.2,41.8,303.2,13.0,363.09,781.29,2206.01
SKQ202010S,TSG,2020-07-02T20:59:00Z,-149.4446,59.8714,268.33,11.0,203.05,204.76,-0.07,0.16,0.0,1017.5,18.4,42.1,309.3,14.5,365.59,778.35,2197.33
SKQ202010S,TSG,2020-07-02T21:00:00Z,-149.447,59.8686,266.41,11.0,202.92,204.62,-0.0,0.16,-0.0,1017.53,19.3,38.7,305.4,13.9,366.94,775.28,2189.6
SKQ202010S,TSG,2020-07-02T21:01:00Z,-149.4494,59.8658,266.52,11.0,202.78,204.44,-0.03,0.15,0.0,1017.57,19.8,37.1,304.7,13.7,367.27,781.16,2205.84
SKQ202010S,TSG,2020-07-02T21:02:00Z,-149.4517,59.863,267.36,11.1,203.02,204.57,0.11,0.16,0.0,1017.59,20.0,36.2,305.4,12.3,367.77,794.6,2239.11
SKQ202010S,TSG,2020-07-02T21:03:00Z,-149.4541,59.8602,267.76,11.0,203.07,204.62,0.16,0.16,0.0,1017.69,20.0,39.0,300.6,8.2,367.46,804.98,2258.54
SKQ202010S,TSG,2020-07-02T21:04:00Z,-149.4564,59.8574,268.24,10.6,202.2,203.85,0.19,0.16,0.01,1017.68,19.8,38.1,274.1,6.9,368.63,802.62,2245.94
SKQ202010S,TSG,2020-07-02T21:05:00Z,-149.4586,59.8547,268.53,10.2,203.36,205.02,0.28,0.14,0.0,1017.71,20.2,36.3,263.8,5.7,370.54,801.99,2241.81
SKQ202010S,TSG,2020-07-02T21:06:00Z,-149.4607,59.8522,269.22,9.4,202.36,203.93,0.26,0.15,0.01,1017.77,20.2,36.4,271.5,4.6,370.61,804.51,2245.9
SKQ202010S,TSG,2020-07-02T21:07:00Z,-149.4627,59.8499,269.0,8.6,205.21,207.07,0.18,0.13,0.0,1017.79,19.9,38.8,275.0,4.2,370.14,817.43,2274.85
SKQ202010S,TSG,2020-07-02T21:08:00Z,-149.4646,59.848,269.4,7.1,205.1,205.44,0.53,0.16,0.0,1017.8,19.7,39.5,268.3,3.1,370.27,812.22,2267.11
SKQ202010S,TSG,2020-07-02T21:09:00Z,-149.4659,59.8464,269.66,4.9,200.4,201.47,0.39,0.16,0.01,1017.79,19.4,41.4,267.0,2.3,369.48,680.63,1432.36
SKQ202010S,TSG,2020-07-02T21:10:00Z,-149.4666,59.8455,269.51,2.3,199.13,202.61,0.37,0.17,0.0,1017.79,19.2,43.4,230.1,1.2,370.73,756.24,1981.16
SKQ202010S,TSG,2020-07-02T21:11:00Z,-149.4668,59.8451,270.05,0.7,193.34,200.93,0.37,0.16,-0.0,1017.77,19.1,45.2,234.5,1.7,369.33,555.93,988.33
SKQ202010S,TSG,2020-07-02T21:12:00Z,-149.4668,59.845,269.67,0.0,124.56,202.43,0.39,0.16,0.0,1017.78,18.9,46.3,210.6,2.0,369.91,706.29,1345.76
SKQ202010S,TSG,2020-07-02T21:13:00Z,-149.4668,59.845,269.57,0.0,183.26,202.1,0.34,0.16,0.01,1017.76,18.8,47.6,210.3,2.5,369.24,568.88,886.96
SKQ202010S,TSG,2020-07-02T21:14:00Z,-149.4668,59.845,269.56,0.0,270.18,202.42,0.39,0.14,0.0,1017.73,18.6,48.8,196.6,4.0,368.99,598.04,912.19
SKQ202010S,TSG,2020-07-02T21:15:00Z,-149.4668,59.845,269.51,0.0,208.17,202.81,0.44,0.16,-0.0,1017.71,18.4,47.6,184.5,4.2,369.44,595.62,947.15
SKQ202010S,TSG,2020-07-02T21:16:00Z,-149.4668,59.845,269.51,0.0,288.01,200.34,0.42,0.16,0.02,1017.7,18.4,46.4,182.2,4.6,369.78,452.23,1229.44
SKQ202010S,TSG,2020-07-02T21:17:00Z,-149.4669,59.845,269.46,0.0,343.75,199.2,0.41,0.14,0.01,1017.71,18.5,46.5,186.2,4.7,370.73,359.49,1406.67
SKQ202010S,TSG,2020-07-02T21:18:00Z,-149.4669,59.845,269.5,0.0,352.29,199.49,0.4,0.17,0.0,1017.69,18.2,49.4,187.8,4.8,371.7,273.11,1673.98
SKQ202010S,TSG,2020-07-02T21:19:00Z,-149.4669,59.845,269.5,0.0,243.5,199.43,0.44,0.15,-0.0,1017.63,17.9,50.7,186.2,5.8,369.16,275.12,1559.84
SKQ202010S,TSG,2020-07-02T21:20:00Z,-149.4669,59.845,269.54,0.0,118.26,199.43,0.43,0.15,-0.0,1017.6,18.0,48.6,193.1,6.2,366.74,273.96,1459.46
SKQ202010S,TSG,2020-07-02T21:21:00Z,-149.4669,59.845,269.56,0.0,197.59,199.5,0.41,0.16,0.0,1017.61,18.2,46.4,192.4,5.7,365.8,355.68,1105.18
SKQ202010S,TSG,2020-07-02T21:22:00Z,-149.4669,59.845,269.52,0.0,139.93,199.52,0.41,0.15,0.01,1017.63,18.4,44.7,192.5,5.5,366.28,369.19,1071.15
SKQ202010S,TSG,2020-07-02T21:23:00Z,-149.4669,59.845,269.49,0.0,223.21,199.43,0.41,0.15,0.0,1017.63,18.6,43.8,192.5,5.4,366.41,308.01,1286.27
SKQ202010S,TSG,2020-07-02T21:24:00Z,-149.4669,59.845,269.52,0.0,64.22,199.52,0.42,0.16,-0.0,1017.62,18.4,49.4,193.8,4.5,365.95,234.69,1328.45
SKQ202010S,TSG,2020-07-02T21:25:00Z,-149.4668,59.845,269.54,0.0,192.56,199.58,0.41,0.15,-0.0,1017.61,18.1,54.0,212.1,2.4,365.25,228.3,1449.82
SKQ202010S,TSG,2020-07-02T21:26:00Z,-149.4669,59.845,269.54,0.0,143.14,199.55,0.38,0.15,0.0,1017.59,18.1,51.2,194.3,3.4,365.08,287.57,1621.49
SKQ202010S,TSG,2020-07-02T21:27:00Z,-149.4669,59.845,269.52,0.0,221.82,199.37,0.4,0.16,0.01,1017.58,17.9,56.7,188.1,1.6,363.7,330.4,1481.77
SKQ202010S,TSG,2020-07-02T21:28:00Z,-149.4669,59.845,269.52,0.0,12.93,199.24,0.41,0.14,0.0,1017.53,17.7,58.7,197.3,0.7,363.22,301.11,1256.73
SKQ202010S,TSG,2020-07-02T21:29:00Z,-149.4669,59.845,269.54,0.0,127.42,199.39,0.73,0.19,0.0,1017.54,17.8,58.1,113.7,1.2,362.47,252.26,1116.42
SKQ202010S,TSG,2020-07-02T21:30:00Z,-149.4669,59.845,269.55,0.0,193.03,199.54,0.79,0.16,-0.0,1017.51,17.8,55.5,94.1,1.2,363.23,214.6,1009.79
SKQ202010S,TSG,2020-07-02T21:31:00Z,-149.4669,59.845,269.55,0.0,130.04,199.47,0.75,0.18,0.0,1017.5,18.0,54.4,137.9,1.2,363.77,200.62,890.51
SKQ202010S,TSG,2020-07-02T21:32:00Z,-149.4669,59.845,269.51,0.0,346.77,199.54,0.81,0.17,0.0,1017.5,18.0,52.9,177.4,3.7,363.2,197.29,877.5
SKQ202010S,TSG,2020-07-02T21:33:00Z,-149.4669,59.845,269.52,0.0,338.86,199.47,0.8,0.18,0.01,1017.5,17.9,50.5,192.9,5.9,364.11,190.53,859.67
SKQ202010S,TSG,2020-07-02T21:34:00Z,-149.4669,59.845,269.5,0.0,137.38,199.52,0.75,0.17,-0.0,1017.49,18.9,38.5,202.8,6.1,365.81,188.01,855.17
SKQ202010S,TSG,2020-07-02T21:35:00Z,-149.4669,59.845,269.5,0.0,230.05,199.49,0.74,0.17,0.01,1017.48,19.6,38.1,201.5,6.6,366.77,192.64,863.1
SKQ202010S,TSG,2020-07-02T21:36:00Z,-149.4669,59.845,269.47,0.0,337.88,199.34,0.75,0.17,-0.0,1017.45,19.4,39.6,205.2,6.8,366.38,190.62,857.42
SKQ202010S,TSG,2020-07-02T21:37:00Z,-149.4669,59.845,269.5,0.0,202.54,199.19,0.74,0.17,0.0,1017.43,19.7,37.3,213.9,6.9,365.74,186.94,848.1
SKQ202010S,TSG,2020-07-02T21:38:00Z,-149.4669,59.845,269.48,0.0,346.48,199.07,0.71,0.18,0.0,1017.42,19.6,39.9,226.3,7.0,365.31,186.85,846.09
SKQ202010S,TSG,2020-07-02T21:39:00Z,-149.4669,59.845,269.47,0.0,26.13,199.28,0.7,0.17,0.0,1017.44,19.6,41.1,220.5,6.7,365.13,188.66,850.81
SKQ202010S,TSG,2020-07-02T21:40:00Z,-149.4669,59.845,269.48,0.0,264.78,199.38,0.73,0.17,0.0,1017.46,19.2,40.6,211.7,6.7,365.99,190.7,856.38
SKQ202010S,TSG,2020-07-02T21:41:00Z,-149.4669,59.845,269.46,0.0,111.83,199.56,0.76,0.17,0.0,1017.44,19.5,40.0,218.9,6.2,366.89,192.32,876.17
SKQ202010S,TSG,2020-07-02T21:42:00Z,-149.4669,59.845,269.46,0.0,320.85,199.61,0.76,0.18,0.01,1017.44,19.3,43.6,220.6,6.2,366.48,193.23,879.03
SKQ202010S,TSG,2020-07-02T21:43:00Z,-149.4669,59.845,269.42,0.0,160.99,199.55,0.76,0.16,0.0,1017.47,19.3,43.5,224.6,5.8,366.16,194.62,941.12
SKQ202010S,TSG,2020-07-02T21:44:00Z,-149.4669,59.845,269.39,0.0,80.15,199.38,0.77,0.19,-0.0,1017.47,19.6,39.2,224.0,5.6,367.79,196.47,1251.75
SKQ202010S,TSG,2020-07-02T21:45:00Z,-149.4669,59.845,269.43,0.0,207.85,199.36,0.76,0.16,0.0,1017.46,20.0,40.3,227.4,5.5,365.68,197.96,1387.77
SKQ202010S,TSG,2020-07-02T21:46:00Z,-149.4669,59.845,269.44,0.0,59.56,199.43,0.79,0.18,0.0,1017.46,19.9,36.5,218.5,6.5,363.97,198.46,1383.05
SKQ202010S,TSG,2020-07-02T21:47:00Z,-149.4668,59.845,269.48,0.0,271.36,199.53,0.79,0.18,0.01,1017.5,19.9,38.7,215.5,5.5,363.92,197.46,1239.32
SKQ202010S,TSG,2020-07-02T21:48:00Z,-149.4668,59.845,269.43,0.0,333.53,199.69,0.79,0.16,0.0,1017.47,19.9,37.8,210.9,4.9,366.73,197.57,1298.13
SKQ202010S,TSG,2020-07-02T21:49:00Z,-149.4668,59.845,269.42,0.0,313.87,199.61,0.8,0.18,0.0,1017.47,19.6,43.1,227.5,3.4,367.01,245.29,1554.05
SKQ202010S,TSG,2020-07-02T21:50:00Z,-149.4669,59.845,269.4,0.0,158.96,199.44,0.84,0.18,0.02,1017.46,19.3,45.9,214.9,3.7,367.7,342.35,1745.35
SKQ202010S,TSG,2020-07-02T21:51:00Z,-149.4669,59.845,269.38,0.0,349.98,199.44,0.81,0.18,0.0,1017.42,19.1,46.5,213.0,4.5,367.71,345.18,1829.96
SKQ202010S,TSG,2020-07-02T21:52:00Z,-149.4669,59.845,269.4,0.0,138.84,199.52,0.81,0.17,0.01,1017.4,19.0,46.6,216.7,4.3,366.08,396.7,1779.24
SKQ202010S,TSG,2020-07-02T21:53:00Z,-149.4668,59.845,269.4,0.0,9.47,199.54,0.79,0.18,0.01,1017.41,18.7,51.5,276.5,2.0,366.28,472.04,2106.4
SKQ202010S,TSG,2020-07-02T21:54:00Z,-149.4669,59.845,269.37,0.0,330.16,199.47,0.8,0.17,0.0,1017.41,19.0,45.0,257.2,3.3,367.07,585.3,2271.88
SKQ202010S,TSG,2020-07-02T21:55:00Z,-149.4669,59.845,269.33,0.0,159.9,199.29,0.81,0.18,-0.0,1017.4,19.8,38.2,256.1,4.2,368.48,583.04,2284.47
SKQ202010S,TSG,2020-07-02T21:56:00Z,-149.4669,59.845,269.36,0.0,50.22,199.29,0.86,0.16,0.0,1017.38,20.2,38.8,245.5,3.5,371.48,577.76,2322.1
SKQ202010S,TSG,2020-07-02T21:57:00Z,-149.4669,59.845,269.37,0.0,152.2,199.4,0.85,0.17,0.0,1017.37,20.2,40.5,243.7,3.2,371.78,638.06,2328.49
SKQ202010S,TSG,2020-07-02T21:58:00Z,-149.4669,59.845,269.38,0.0,168.11,199.53,0.81,0.17,0.01,1017.38,20.0,42.2,271.0,2.2,371.78,704.27,2314.22
SKQ202010S,TSG,2020-07-02T21:59:00Z,-149.4669,59.845,269.36,0.0,253.41,199.66,0.82,0.17,-0.0,1017.35,20.0,43.3,303.5,1.3,372.02,783.3,2292.04
SKQ202010S,TSG,2020-07-02T22:00:00Z,-149.4669,59.845,269.32,0.0,351.72,199.56,0.85,0.18,0.0,1017.34,20.2,43.8,22.2,0.6,371.47,769.9,2323.43
SKQ202010S,TSG,2020-07-02T22:01:00Z,-149.4669,59.845,269.34,0.0,169.46,199.45,0.84,0.17,0.02,1017.33,20.3,45.5,57.0,0.7,370.97,726.19,2324.41
SKQ202010S,TSG,2020-07-02T22:02:00Z,-149.4669,59.845,269.31,0.0,3.64,199.54,0.87,0.19,0.0,1017.32,20.1,44.8,126.2,0.8,374.07,617.31,2292.13
SKQ202010S,TSG,2020-07-02T22:03:00Z,-149.4668,59.845,269.29,0.0,158.94,199.54,0.86,0.17,0.01,1017.3,20.1,41.6,165.3,1.4,375.48,618.15,2260.03
SKQ202010S,TSG,2020-07-02T22:04:00Z,-149.4669,59.845,269.27,0.0,303.16,199.54,0.51,0.16,0.0,1017.31,20.1,41.7,178.2,1.7,374.29,759.39,2229.27
SKQ202010S,TSG,2020-07-02T22:05:00Z,-149.4669,59.845,269.25,0.0,26.74,199.46,0.48,0.17,0.0,1017.32,20.1,41.1,190.1,2.7,374.56,780.2,2223.94
SKQ202010S,TSG,2020-07-02T22:06:00Z,-149.4669,59.845,269.22,0.0,193.91,199.37,0.48,0.15,-0.0,1017.35,19.8,43.4,185.4,3.5,374.28,785.98,2247.63
SKQ202010S,TSG,2020-07-02T22:07:00Z,-149.4669,59.845,269.24,0.0,117.48,199.32,0.47,0.16,0.0,1017.37,19.5,44.0,185.9,2.2,374.79,792.79,2243.12
SKQ202010S,TSG,2020-07-02T22:08:00Z,-149.4669,59.845,269.26,0.0,197.34,199.32,0.46,0.16,-0.0,1017.37,19.4,45.2,183.4,2.2,375.22,785.9,2226.7
SKQ202010S,TSG,2020-07-02T22:09:00Z,-149.4669,59.845,269.25,0.0,138.38,199.32,0.48,0.15,0.01,1017.32,19.3,44.8,180.8,2.8,375.72,775.98,2204.77
SKQ202010S,TSG,2020-07-02T22:10:00Z,-149.4669,59.845,269.26,0.0,272.32,199.54,0.48,0.17,-0.0,1017.3,19.3,43.9,180.7,3.8,376.16,771.63,2195.23
SKQ202010S,TSG,2020-07-02T22:11:00Z,-149.4669,59.845,269.24,0.0,331.82,199.53,0.43,0.15,-0.0,1017.3,19.4,40.8,194.9,3.5,376.35,780.11,2219.76
SKQ202010S,TSG,2020-07-02T22:12:00Z,-149.4669,59.845,269.23,0.0,144.95,199.44,0.42,0.15,0.01,1017.32,20.0,37.5,218.4,2.8,376.3,796.18,2256.91
SKQ202010S,TSG,2020-07-02T22:13:00Z,-149.4669,59.845,269.24,0.0,296.37,199.39,0.45,0.16,-0.0,1017.35,20.3,37.0,224.8,2.6,375.46,790.27,2241.72
SKQ202010S,TSG,2020-07-02T22:14:00Z,-149.4669,59.845,269.21,0.0,315.12,199.44,0.52,0.15,0.0,1017.32,20.4,36.7,226.1,2.8,374.62,796.51,2258.59
SKQ202010S,TSG,2020-07-02T22:15:00Z,-149.4669,59.845,269.18,0.0,126.01,199.42,0.48,0.17,0.01,1017.31,20.5,36.5,230.0,2.8,374.41,802.61,2273.11
SKQ202010S,TSG,2020-07-02T22:16:00Z,-149.4669,59.845,269.18,0.0,272.12,199.35,0.46,0.15,0.0,1017.29,20.5,36.7,231.8,2.2,374.3,808.92,2287.93
SKQ202010S,TSG,2020-07-02T22:17:00Z,-149.4669,59.845,269.18,0.0,93.8,199.45,0.45,0.16,0.01,1017.25,20.5,36.5,252.4,2.0,374.21,806.21,2281.67
SKQ202010S,TSG,2020-07-02T22:18:00Z,-149.4669,59.845,269.19,0.0,128.33,199.58,0.48,0.17,0.01,1017.2,20.8,35.9,264.7,1.7,374.55,805.98,2283.3
SKQ202010S,TSG,2020-07-02T22:19:00Z,-149.4669,59.845,269.17,0.0,227.55,199.54,0.45,0.15,0.0,1017.18,20.9,35.5,278.6,1.5,373.8,808.1,2288.42
SKQ202010S,TSG,2020-07-02T22:20:00Z,-149.4669,59.845,269.16,0.0,143.2,199.53,0.49,0.15,0.01,1017.18,21.1,34.5,292.3,1.0,373.85,817.89,2310.35
SKQ202010S,TSG,2020-07-02T22:21:00Z,-149.4669,59.845,269.18,0.0,139.66,199.53,0.47,0.17,-0.0,1017.18,21.5,33.7,302.8,1.3,373.63,820.18,2311.78
SKQ202010S,TSG,2020-07-02T22:22:00Z,-149.4668,59.845,269.18,0.0,130.4,199.47,0.44,0.15,0.0,1017.16,21.6,33.1,327.2,1.2,373.76,785.69,2222.72
SKQ202010S,TSG,2020-07-02T22:23:00Z,-149.4669,59.845,269.18,0.0,282.59,199.5,0.43,0.15,0.0,1017.13,21.6,33.6,345.0,1.9,373.04,740.14,2117.62
SKQ202010S,TSG,2020-07-02T22:24:00Z,-149.4669,59.845,269.16,0.0,105.5,199.59,0.42,0.17,0.01,1017.17,21.6,33.9,332.9,1.8,372.75,747.63,2138.94
SKQ202010S,TSG,2020-07-02T22:25:00Z,-149.4669,59.845,269.13,0.0,331.81,199.58,0.41,0.17,0.0,1017.16,21.5,34.0,310.3,2.0,372.84,758.58,2165.18
SKQ202010S,TSG,2020-07-02T22:26:00Z,-149.4669,59.845,269.12,0.0,184.25,199.44,0.39,0.16,0.0,1017.14,21.6,34.7,267.6,2.1,372.19,774.63,2207.85
SKQ202010S,TSG,2020-07-02T22:27:00Z,-149.4669,59.845,269.09,0.0,166.58,199.35,0.42,0.15,0.0,1017.13,21.1,37.0,256.4,2.7,371.18,797.78,2266.21
SKQ202010S,TSG,2020-07-02T22:28:00Z,-149.4669,59.845,269.09,0.0,83.18,199.33,0.38,0.16,-0.0,1017.12,20.7,37.8,264.2,3.7,370.89,823.63,2331.24
SKQ202010S,TSG,2020-07-02T22:29:00Z,-149.4669,59.845,269.11,0.0,224.96,199.33,0.33,0.16,0.0,1017.13,20.4,38.3,263.9,4.3,370.93,844.95,2380.56
SKQ202010S,TSG,2020-07-02T22:30:00Z,-149.4669,59.845,269.07,0.0,193.96,199.41,0.32,0.15,0.0,1017.14,20.3,38.4,271.8,4.1,371.21,852.15,2397.31
SKQ202010S,TSG,2020-07-02T22:31:00Z,-149.4669,59.845,269.07,0.0,165.09,199.52,0.37,0.17,0.01,1017.16,20.4,37.8,269.2,4.1,371.18,853.89,2402.76
SKQ202010S,TSG,2020-07-02T22:32:00Z,-149.4669,59.845,269.05,0.0,178.61,199.53,0.35,0.15,0.0,1017.16,20.4,38.2,273.0,4.4,371.51,850.78,2396.19
SKQ202010S,TSG,2020-07-02T22:33:00Z,-149.4669,59.845,269.04,0.0,211.94,199.44,0.36,0.16,-0.0,1017.13,20.4,39.8,270.6,4.3,372.1,851.33,2401.4
SKQ202010S,TSG,2020-07-02T22:34:00Z,-149.4669,59.845,269.04,0.0,41.27,199.34,0.33,0.16,0.0,1017.11,20.2,40.2,264.5,6.3,372.47,848.73,2394.14
SKQ202010S,TSG,2020-07-02T22:35:00Z,-149.4669,59.845,269.03,0.0,336.2,199.33,0.35,0.17,0.0,1017.03,20.5,37.0,266.5,6.1,374.7,824.25,2327.59
SKQ202010S,TSG,2020-07-02T22:36:00Z,-149.4669,59.845,269.02,0.0,142.41,199.31,0.32,0.18,0.01,1017.05,20.8,37.6,264.0,6.5,373.22,799.57,2270.94
SKQ202010S,TSG,2020-07-02T22:37:00Z,-149.4669,59.845,269.01,0.0,285.82,199.56,0.32,0.16,0.0,1017.03,20.7,37.6,283.8,5.8,375.05,785.86,2220.65
SKQ202010S,TSG,2020-07-02T22:38:00Z,-149.4669,59.845,268.99,0.0,161.26,199.46,0.29,0.17,0.01,1017.0,21.0,36.4,277.6,7.1,375.1,739.46,2139.61
SKQ202010S,TSG,2020-07-02T22:39:00Z,-149.4669,59.845,268.98,0.0,18.48,199.4,0.3,0.17,-0.0,1017.0,21.3,35.1,284.0,7.9,375.52,752.48,2155.64
SKQ202010S,TSG,2020-07-02T22:40:00Z,-149.4668,59.845,269.02,0.0,92.84,199.42,0.27,0.18,0.0,1016.97,21.5,33.7,288.2,8.0,377.84,808.25,2292.21
SKQ202010S,TSG,2020-07-02T22:41:00Z,-149.4668,59.845,269.04,0.0,147.82,199.58,0.27,0.16,0.01,1016.94,21.8,32.3,289.6,7.4,378.65,829.53,2333.58
SKQ202010S,TSG,2020-07-02T22:42:00Z,-149.4669,59.845,269.0,0.0,290.66,199.61,0.27,0.17,0.0,1016.95,21.9,33.6,293.0,7.4,378.28,811.33,2282.71
SKQ202010S,TSG,2020-07-02T22:43:00Z,-149.4669,59.845,268.97,0.0,334.29,199.63,0.29,0.17,0.0,1016.95,21.9,33.8,296.3,8.2,377.62,778.07,2199.7
SKQ202010S,TSG,2020-07-02T22:44:00Z,-149.4669,59.845,268.97,0.0,107.96,199.43,0.28,0.17,0.01,1016.92,21.8,35.7,296.6,7.9,376.2,574.84,1702.71
SKQ202010S,TSG,2020-07-02T22:45:00Z,-149.4668,59.845,268.98,0.0,157.21,199.61,0.23,0.16,0.02,1016.94,21.4,37.4,309.5,9.1,375.62,513.65,1578.91
SKQ202010S,TSG,2020-07-02T22:46:00Z,-149.4668,59.845,268.97,0.0,2.03,199.57,0.21,0.17,-0.0,1016.89,21.1,36.8,310.1,10.6,376.69,733.57,2092.84
SKQ202010S,TSG,2020-07-02T22:47:00Z,-149.4668,59.845,268.94,0.0,98.14,199.48,0.11,0.16,0.0,1016.86,21.3,34.4,311.5,13.2,376.96,716.25,2068.83
SKQ202010S,TSG,2020-07-02T22:48:00Z,-149.4668,59.845,268.98,0.0,58.38,199.47,0.1,0.17,0.01,1016.83,21.8,32.5,311.4,13.2,376.88,747.75,2128.4
SKQ202010S,TSG,2020-07-02T22:49:00Z,-149.4668,59.845,268.94,0.0,339.64,199.57,0.13,0.16,0.0,1016.83,21.5,34.5,312.3,12.1,376.31,822.12,2318.59
SKQ202010S,TSG,2020-07-02T22:50:00Z,-149.4669,59.845,268.87,0.0,157.85,199.3,0.14,0.17,0.01,1016.81,21.4,34.3,309.1,12.1,375.75,838.8,2359.83
SKQ202010S,TSG,2020-07-02T22:51:00Z,-149.4669,59.845,268.9,0.0,243.51,199.23,0.1,0.17,0.0,1016.78,21.2,36.3,325.3,11.9,374.14,854.51,2408.41
SKQ202010S,TSG,2020-07-02T22:52:00Z,-149.4669,59.845,268.92,0.0,141.82,199.78,-0.0,0.15,0.02,1016.72,20.6,38.9,332.5,15.5,373.22,852.41,2397.6
SKQ202010S,TSG,2020-07-02T22:53:00Z,-149.4668,59.845,268.91,0.0,105.19,199.57,-0.08,0.14,0.0,1016.71,20.3,41.1,319.8,14.7,369.95,817.41,2320.35
SKQ202010S,TSG,2020-07-02T22:54:00Z,-149.4669,59.845,268.88,0.0,293.32,199.52,-0.03,0.15,0.01,1016.74,19.9,43.8,327.3,15.1,370.8,831.75,2357.26
SKQ202010S,TSG,2020-07-02T22:55:00Z,-149.4668,59.845,268.95,0.0,115.25,199.75,-0.19,0.14,0.0,1016.71,20.6,37.4,319.7,16.6,373.66,834.37,2361.96
SKQ202010S,TSG,2020-07-02T22:56:00Z,-149.4668,59.845,268.94,0.1,300.58,199.39,0.07,0.16,-0.0,1016.81,21.2,37.4,307.2,12.3,372.96,797.6,2262.46
SKQ202010S,TSG,2020-07-02T22:57:00Z,-149.4669,59.845,268.79,0.0,176.98,199.34,0.13,0.15,0.0,1016.82,21.0,39.4,303.7,12.4,371.53,773.17,2211.36
SKQ202010S,TSG,2020-07-02T22:58:00Z,-149.4669,59.845,268.84,0.0,129.74,199.33,-0.02,0.16,0.02,1016.74,20.7,38.8,326.0,16.1,371.7,771.53,2198.72
SKQ202010S,TSG,2020-07-02T22:59:00Z,-149.4669,59.845,268.81,0.0,304.18,197.28,-0.04,0.14,-0.0,1016.72,20.7,38.4,327.6,15.5,371.17,762.99,2179.52
SKQ202010S,TSG,2020-07-02T23:00:00Z,-149.4669,59.845,269.01,0.1,284.86,188.4,0.09,0.16,0.0,1016.77,20.1,42.9,332.0,13.9,370.55,789.45,2245.28
SKQ202010S,TSG,2020-07-02T23:01:00Z,-149.4669,59.845,270.07,0.1,275.29,178.76,0.39,0.17,0.0,1016.79,19.9,43.4,331.7,11.6,369.88,832.29,2338.64
SKQ202010S,TSG,2020-07-02T23:02:00Z,-149.467,59.845,269.65,0.2,174.54,170.39,0.77,0.19,0.02,1016.83,20.3,41.1,326.6,8.3,371.19,796.68,2245.39
SKQ202010S,TSG,2020-07-02T23:03:00Z,-149.4668,59.8449,269.55,1.2,155.63,164.71,0.94,0.22,0.0,1016.84,21.0,34.6,326.7,7.3,374.14,769.08,2184.14
SKQ202010S,TSG,2020-07-02T23:04:00Z,-149.4665,59.8445,269.54,2.0,155.13,160.31,0.97,0.23,-0.0,1016.9,21.7,31.4,325.9,6.8,374.62,758.68,2160.23
SKQ202010S,TSG,2020-07-02T23:05:00Z,-149.4659,59.8439,269.27,2.8,153.99,159.54,0.98,0.23,0.0,1016.89,21.9,32.2,324.5,6.6,373.58,786.82,2238.79
SKQ202010S,TSG,2020-07-02T23:06:00Z,-149.4652,59.8431,269.32,3.5,157.45,161.08,0.95,0.21,0.0,1016.88,21.7,34.5,331.4,6.7,373.12,822.86,2322.64
SKQ202010S,TSG,2020-07-02T23:07:00Z,-149.4643,59.842,269.5,5.1,158.8,159.94,1.05,0.22,-0.0,1016.82,21.6,33.3,323.7,10.8,375.88,822.77,2321.71
SKQ202010S,TSG,2020-07-02T23:08:00Z,-149.4633,59.8406,269.69,5.2,157.96,159.05,1.09,0.21,0.0,1016.82,22.2,30.9,330.3,8.4,376.23,819.48,2314.62
SKQ202010S,TSG,2020-07-02T23:09:00Z,-149.4623,59.8395,269.54,3.7,157.96,160.96,1.04,0.2,0.01,1016.82,21.6,37.8,315.0,9.5,371.97,835.6,2356.06
SKQ202010S,TSG,2020-07-02T23:10:00Z,-149.4617,59.8387,269.87,2.3,160.37,164.31,1.02,0.21,-0.0,1016.8,20.5,40.1,313.6,8.0,370.86,854.5,2404.89
SKQ202010S,TSG,2020-07-02T23:11:00Z,-149.4614,59.8383,269.84,1.0,154.53,164.87,0.99,0.2,0.01,1016.78,20.4,40.0,316.4,8.0,369.85,864.98,2427.6
SKQ202010S,TSG,2020-07-02T23:12:00Z,-149.4612,59.8381,270.08,0.6,149.12,164.58,0.57,0.17,0.01,1016.79,20.3,41.8,318.9,6.7,367.83,861.97,2427.54
SKQ202010S,TSG,2020-07-02T23:13:00Z,-149.4611,59.838,270.36,0.5,146.74,161.99,0.57,0.19,0.0,1016.8,20.2,43.3,317.2,6.0,367.13,851.66,2403.04
SKQ202010S,TSG,2020-07-02T23:14:00Z,-149.4609,59.8379,270.51,0.4,139.43,156.28,0.49,0.17,0.01,1016.8,20.4,43.0,329.4,2.8,366.89,844.97,2392.89
SKQ202010S,TSG,2020-07-02T23:15:00Z,-149.4609,59.8379,270.42,0.1,122.62,156.13,0.41,0.16,0.01,1016.79,20.6,42.3,312.5,2.2,366.02,861.46,2433.58
SKQ202010S,TSG,2020-07-02T23:16:00Z,-149.4608,59.8379,270.79,0.0,154.06,154.95,0.41,0.17,0.0,1016.77,20.6,41.7,331.0,2.5,367.76,858.82,2427.83
SKQ202010S,TSG,2020-07-02T23:17:00Z,-149.4608,59.8379,270.45,0.0,323.62,155.38,0.4,0.16,-0.0,1016.77,20.9,38.1,310.8,3.4,366.93,853.16,2418.69
SKQ202010S,TSG,2020-07-02T23:18:00Z,-149.4609,59.8379,270.66,0.0,325.43,155.2,0.41,0.18,-0.0,1016.75,21.0,40.3,312.4,3.0,364.94,847.59,2407.03
SKQ202010S,TSG,2020-07-02T23:19:00Z,-149.4609,59.8379,270.63,0.0,178.44,155.29,0.44,0.15,0.0,1016.73,20.8,41.1,318.2,2.4,366.49,843.58,2397.8
SKQ202010S,TSG,2020-07-02T23:20:00Z,-149.4609,59.8379,270.27,0.0,322.33,155.6,0.46,0.18,0.0,1016.73,21.0,37.9,324.1,2.9,365.82,840.0,2390.25
SKQ202010S,TSG,2020-07-02T23:21:00Z,-149.4609,59.8379,270.51,0.1,117.41,155.18,0.46,0.16,0.0,1016.7,21.0,39.6,319.0,3.7,365.22,834.47,2376.94
SKQ202010S,TSG,2020-07-02T23:22:00Z,-149.4609,59.8379,270.69,0.0,141.54,155.26,0.41,0.17,0.0,1016.72,21.0,39.1,306.9,3.0,366.85,833.78,2375.8
SKQ202010S,TSG,2020-07-02T23:23:00Z,-149.4609,59.8379,270.66,0.0,232.42,155.09,0.42,0.17,0.01,1016.68,21.3,36.7,316.9,4.0,368.19,833.28,2374.02
SKQ202010S,TSG,2020-07-02T23:24:00Z,-149.4609,59.8379,270.45,0.0,125.44,155.16,0.4,0.17,0.0,1016.68,21.5,37.1,315.2,3.2,365.53,819.34,2338.04
SKQ202010S,TSG,2020-07-02T23:25:00Z,-149.4609,59.8379,270.46,0.0,159.23,155.2,0.36,0.16,0.01,1016.65,21.3,37.8,314.2,5.1,366.27,809.82,2322.15
SKQ202010S,TSG,2020-07-02T23:26:00Z,-149.4609,59.8379,270.34,0.0,263.32,155.32,0.39,0.16,-0.0,1016.63,21.3,37.0,331.4,3.0,366.32,806.1,2316.79
SKQ202010S,TSG,2020-07-02T23:27:00Z,-149.4609,59.8379,270.21,0.0,342.32,155.27,0.44,0.16,-0.0,1016.62,21.3,38.1,321.4,3.2,365.29,828.37,2369.29
SKQ202010S,TSG,2020-07-02T23:28:00Z,-149.4609,59.8379,270.11,0.5,334.32,155.22,0.42,0.16,0.0,1016.62,21.2,38.3,332.0,3.2,365.63,828.25,2371.59
SKQ202010S,TSG,2020-07-02T23:29:00Z,-149.4611,59.8382,269.79,1.6,335.24,154.8,0.48,0.17,0.0,1016.58,21.3,37.4,329.3,2.4,365.48,826.61,2368.95
SKQ202010S,TSG,2020-07-02T23:30:00Z,-149.4616,59.8387,269.62,2.5,335.6,154.23,0.53,0.16,0.0,1016.54,21.5,33.6,329.1,2.4,368.83,824.97,2366.05
SKQ202010S,TSG,2020-07-02T23:31:00Z,-149.4623,59.8394,269.76,3.1,335.65,154.75,0.5,0.16,0.0,1016.51,22.2,30.0,260.8,1.0,369.71,825.26,2367.84
SKQ202010S,TSG,2020-07-02T23:32:00Z,-149.463,59.8403,269.44,3.7,336.8,155.23,0.47,0.18,-0.0,1016.5,22.5,29.5,263.4,2.0,368.96,824.31,2366.68
SKQ202010S,TSG,2020-07-02T23:33:00Z,-149.4639,59.8413,269.66,4.1,336.19,153.85,0.56,0.18,0.0,1016.47,22.6,29.2,261.6,0.7,368.25,818.58,2351.91
SKQ202010S,TSG,2020-07-02T23:34:00Z,-149.4648,59.8423,269.14,3.5,336.39,153.07,0.63,0.19,0.01,1016.44,22.6,28.8,289.1,2.1,368.75,814.06,2340.54
SKQ202010S,TSG,2020-07-02T23:35:00Z,-149.4652,59.8428,269.11,1.1,343.48,155.03,0.44,0.18,0.0,1016.47,22.6,28.7,323.1,2.9,368.13,800.48,2308.71
SKQ202010S,TSG,2020-07-02T23:36:00Z,-149.4653,59.843,NaN,0.1,38.34,156.28,0.48,0.16,0.01,1016.47,22.6,29.6,325.4,3.1,366.98,789.36,2281.09
SKQ202010S,TSG,2020-07-02T23:37:00Z,-149.4652,59.843,269.06,0.1,147.5,157.64,0.38,0.18,0.01,1016.46,22.4,30.0,325.1,3.6,367.83,790.92,2284.46
SKQ202010S,TSG,2020-07-02T23:38:00Z,-149.4652,59.843,269.29,0.1,339.52,157.66,0.76,0.16,0.0,1016.45,22.5,28.8,331.9,4.1,369.05,757.96,2196.92
SKQ202010S,TSG,2020-07-02T23:39:00Z,-149.4652,59.843,270.64,0.0,261.12,157.0,0.94,0.2,0.01,1016.46,22.6,27.9,326.1,2.3,368.99,681.9,2001.34
SKQ202010S,TSG,2020-07-02T23:40:00Z,-149.4652,59.843,270.93,0.0,271.3,156.67,0.96,0.19,-0.0,1016.41,22.7,27.9,345.4,2.9,367.64,681.55,2012.04
SKQ202010S,TSG,2020-07-02T23:41:00Z,-149.4652,59.843,269.11,0.0,277.12,156.61,1.03,0.19,0.0,1016.4,22.7,28.4,349.3,2.8,366.98,740.92,2169.21
SKQ202010S,TSG,2020-07-02T23:42:00Z,-149.4652,59.843,268.91,0.0,159.13,156.5,1.04,0.19,0.01,1016.39,22.5,29.5,341.2,3.0,365.46,806.2,2316.66
SKQ202010S,TSG,2020-07-02T23:43:00Z,-149.4652,59.843,268.86,0.0,107.6,156.58,1.04,0.19,-0.0,1016.37,22.2,31.8,330.4,3.4,364.38,811.59,2333.43
SKQ202010S,TSG,2020-07-02T23:44:00Z,-149.4652,59.843,268.76,0.0,339.31,156.67,0.66,0.17,0.0,1016.32,22.0,32.3,330.7,3.4,364.8,808.01,2335.49
SKQ202010S,TSG,2020-07-02T23:45:00Z,-149.4652,59.843,268.76,0.0,159.95,157.05,0.53,0.17,0.01,1016.33,22.0,31.4,330.4,4.1,366.25,801.72,2326.39
SKQ202010S,TSG,2020-07-02T23:46:00Z,-149.4652,59.843,268.69,0.0,350.68,157.36,0.51,0.17,0.0,1016.32,22.1,30.6,326.8,2.6,367.41,797.41,2321.74
SKQ202010S,TSG,2020-07-02T23:47:00Z,-149.4652,59.843,268.97,0.0,275.84,157.16,0.49,0.16,-0.0,1016.32,22.2,30.3,333.5,4.6,367.02,792.98,2314.69
SKQ202010S,TSG,2020-07-02T23:48:00Z,-149.4652,59.843,268.98,0.0,347.47,156.94,0.49,0.17,0.0,1016.3,22.1,31.3,333.9,4.6,366.05,790.13,2310.6
SKQ202010S,TSG,2020-07-02T23:49:00Z,-149.4652,59.843,269.02,0.0,212.69,156.78,0.48,0.17,0.0,1016.31,22.1,31.4,338.5,3.6,366.23,787.38,2305.11
SKQ202010S,TSG,2020-07-02T23:50:00Z,-149.4652,59.843,268.96,0.0,25.41,156.62,0.5,0.17,0.0,1016.29,22.1,31.5,318.7,3.2,366.62,786.89,2304.76
SKQ202010S,TSG,2020-07-02T23:51:00Z,-149.4652,59.843,268.91,0.0,50.61,156.5,0.45,0.16,0.02,1016.29,22.0,33.6,323.9,3.3,365.81,788.69,2310.21
SKQ202010S,TSG,2020-07-02T23:52:00Z,-149.4652,59.843,268.73,0.0,303.68,156.78,0.38,0.17,0.0,1016.32,21.6,35.8,314.3,5.2,365.36,787.23,2308.99
SKQ202010S,TSG,2020-07-02T23:53:00Z,-149.4652,59.843,268.65,0.0,233.36,157.01,0.39,0.16,0.0,1016.3,21.4,37.3,321.2,3.6,365.59,776.87,2282.79
SKQ202010S,TSG,2020-07-02T23:54:00Z,-149.4652,59.843,268.91,0.0,192.07,156.93,0.38,0.16,0.01,1016.33,21.4,37.4,328.9,3.0,365.57,765.43,2254.26
SKQ202010S,TSG,2020-07-02T23:55:00Z,-149.4652,59.843,268.87,0.0,332.52,156.89,0.39,0.17,-0.0,1016.32,21.3,38.5,322.1,3.4,365.19,755.65,2231.07
SKQ202010S,TSG,2020-07-02T23:56:00Z,-149.4652,59.843,268.9,0.0,220.23,156.72,0.37,0.16,0.0,1016.32,21.3,38.7,321.9,3.0,365.27,749.36,2217.59
SKQ202010S,TSG,2020-07-02T23:57:00Z,-149.4652,59.843,268.82,0.0,22.07,156.83,0.41,0.17,0.01,1016.32,21.3,37.3,326.7,3.0,366.04,748.88,2216.84
SKQ202010S,TSG,2020-07-02T23:58:00Z,-149.4652,59.843,268.87,0.0,36.52,157.11,0.35,0.15,0.01,1016.32,21.8,33.6,314.4,6.9,367.8,755.58,2236.38
SKQ202010S,TSG,2020-07-02T23:59:00Z,-149.4652,59.843,268.91,0.0,352.42,157.08,0.35,0.15,0.0,1016.32,22.1,32.9,314.8,5.6,367.18,756.7,2237.5
SKQ202010S,TSG,2020-07-03T00:00:00Z,-149.4652,59.843,269.15,0.0,289.65,156.92,0.63,0.19,-0.0,1016.33,22.1,34.1,319.0,5.1,366.38,760.01,2239.87
SKQ202010S,TSG,2020-07-03T00:00:00Z,-149.4652,59.843,269.1,0.0,202.28,156.88,0.76,0.18,0.01,1016.33,22.0,34.4,321.7,5.3,366.0,763.04,2241.49
SKQ202010S,TSG,2020-07-03T00:01:00Z,-149.4652,59.843,268.88,0.0,345.03,157.11,0.7,0.19,0.0,1016.34,21.8,35.2,318.5,5.9,366.38,761.07,2240.23
SKQ202010S,TSG,2020-07-03T00:02:00Z,-149.4653,59.843,268.96,0.0,299.17,156.92,0.7,0.18,0.0,1016.33,21.9,32.6,315.8,6.4,368.17,764.81,2249.78
SKQ202010S,TSG,2020-07-03T00:03:00Z,-149.4653,59.843,268.89,0.0,7.75,156.69,0.75,0.18,0.01,1016.37,22.0,34.6,311.6,6.8,365.74,764.52,2249.38
SKQ202010S,TSG,2020-07-03T00:04:00Z,-149.4653,59.843,268.87,0.0,115.77,156.8,0.59,0.17,-0.0,1016.37,21.3,39.4,314.9,5.7,364.58,765.53,2257.99
SKQ202010S,TSG,2020-07-03T00:05:00Z,-149.4653,59.843,268.86,0.0,291.89,156.85,0.44,0.17,-0.0,1016.38,21.3,37.8,323.0,4.5,366.59,767.66,2271.46
SKQ202010S,TSG,2020-07-03T00:06:00Z,-149.4653,59.843,268.86,0.0,24.79,156.79,0.43,0.16,0.0,1016.34,21.6,36.3,315.4,8.0,366.93,767.46,2272.89
SKQ202010S,TSG,2020-07-03T00:07:00Z,-149.4652,59.843,269.11,0.0,137.41,156.84,0.4,0.16,0.01,1016.39,21.9,34.6,314.1,4.8,368.51,760.92,2257.57
SKQ202010S,TSG,2020-07-03T00:08:00Z,-149.4653,59.843,268.92,0.0,259.52,156.83,0.44,0.17,0.0,1016.4,22.2,33.3,313.7,5.2,367.96,751.72,2232.54
SKQ202010S,TSG,2020-07-03T00:09:00Z,-149.4653,59.843,268.84,0.0,76.36,156.98,0.41,0.16,0.02,1016.4,22.2,33.7,315.0,4.2,367.95,746.99,2221.67
SKQ202010S,TSG,2020-07-03T00:10:00Z,-149.4653,59.843,268.79,0.0,278.91,156.85,0.42,0.17,-0.0,1016.4,22.4,31.6,315.9,4.2,368.78,747.93,2225.79
SKQ202010S,TSG,2020-07-03T00:11:00Z,-149.4653,59.843,268.75,0.0,314.63,156.85,0.46,0.16,0.0,1016.4,22.5,30.3,310.7,3.8,368.22,763.37,2267.14
SKQ202010S,TSG,2020-07-03T00:12:00Z,-149.4653,59.843,268.69,0.0,78.64,156.94,0.47,0.17,0.02,1016.39,22.5,31.7,321.2,4.8,367.09,771.41,2286.72
SKQ202010S,TSG,2020-07-03T00:13:00Z,-149.4653,59.843,268.58,0.0,299.07,156.87,0.52,0.17,0.0,1016.4,22.3,32.8,321.8,3.0,367.71,773.8,2293.81
SKQ202010S,TSG,2020-07-03T00:14:00Z,-149.4653,59.843,268.66,0.0,49.07,156.84,0.52,0.16,-0.0,1016.38,22.2,33.8,319.1,2.9,368.49,774.8,2302.22
SKQ202010S,TSG,2020-07-03T00:15:00Z,-149.4653,59.843,268.57,0.0,130.64,156.84,0.46,0.15,-0.0,1016.37,22.1,33.7,307.1,8.0,367.3,771.59,2296.7
SKQ202010S,TSG,2020-07-03T00:16:00Z,-149.4652,59.843,268.52,0.0,26.8,156.88,0.38,0.17,0.0,1016.33,21.4,36.8,292.8,11.3,365.57,768.2,2290.64
SKQ202010S,TSG,2020-07-03T00:17:00Z,-149.4652,59.843,268.57,0.0,267.44,156.94,0.35,0.15,-0.0,1016.37,21.0,37.6,273.3,10.9,365.29,767.62,2293.01
SKQ202010S,TSG,2020-07-03T00:18:00Z,-149.4653,59.843,268.62,0.0,298.32,156.89,0.38,0.17,0.0,1016.38,21.4,35.1,277.5,11.1,368.62,769.04,2300.98
SKQ202010S,TSG,2020-07-03T00:19:00Z,-149.4653,59.843,268.53,0.0,155.18,156.66,0.42,0.17,0.01,1016.4,21.7,33.7,276.2,10.1,369.39,770.24,2305.63
